"Institution.Source","Catalog.Number","Number.of.specimens","Family","Scientific.name","Locality","County","Latitude","Longitude","State","Date.Collected","Field.Locality.number","Collectors"
"AMNH",64767,4,"Anguillidae","Anguilla rostrata","Lake waccamaw, 1.4 miles west of junction of routes 74, 76,214","Columbus",34.31307,-78.54372,"NC","6/29/1969","R.D. ROSS-VPI-2082","R.D. Ross & R.D. Ross"
"AMNH",64774,9,"Anguillidae","Anguilla rostrata","Hunters creek (tributary of white oak river) on county road 1100, ca. 0.5 mile east of junction of route 58","Carteret",34.795768,-77.128145,"NC","6/30/1969","R.D. ROSS-VPI-2087","R.D. Ross & R.D. Ross"
"AMNH",52243,1,"Anguillidae","Anguilla rostrata","Canal 2 miles west of swan quarter, route 264","Hyde",35.431401,-76.3501,"NC","5/19/1982","MNF-NC-82-V-19","M.N. Feinberg"
"AMNH",30122,2,"Anguillidae","Anguilla rostrata","Currituck sound, kitty hawk","Dare",36.114536,-75.744037,"NC","8/1/1971","GJN-71-14","G.J. Nelson"
"AMNH",62805,5,"Anguillidae","Anguilla rostrata","Little river on rt 1144 crossing, a concrete bridge on the pasquotank-perquimans co. line, 2.2 airmiles w of norfolk/southern rr station in pasquotank","Perquimans",36.268333,-76.377579,"NC","6/7/1968","R.D. ROSS-VPI-1334","R.D. Ross, R.D. Ross & P.M. Brady"
"AMNH",62629,7,"Anguillidae","Anguilla rostrata","Little river, on route 1223 crossing, just above a garbage dump, 2 miles north northwest norfolk and southern railroad crossing in chapanoke","Perquimans",36.282795,-76.385991,"NC","5/23/1968","R.D. ROSS-VPI-1296","R.D. Ross & P.M. Brady"
"AMNH",62609,1,"Anguillidae","Anguilla rostrata","Dismal swamp, ditch (at right angles to) the loop road 1.7 miles east parkville","Pasquotank",36.29373,-76.366572,"NC","5/22/1968","R.D. ROSS-VPI-1294","R.D. Ross"
"AMNH",62633,2,"Anguillidae","Anguilla rostrata","Dismal swamp, ditch (at right angles to) the loop road 1.7 miles east parkville","Pasquotank",36.29373,-76.366572,"NC","5/23/1968","R.D. ROSS-VPI-1297","R.D. Ross & P.M. Brady"
"AMNH",66938,1,"Anguillidae","Anguilla rostrata","Newfoundland Drainage Canal, at junction of routes 158 and 1367, 6-7 miles west of Morgan's Corners","Pasquotank",36.431792,-76.449784,"NC","5/9/1971","R.D. ROSS-VPI-2592","M.T. Masnsik, C. Baker, R.D. Ross & J. Crossman"
"AMNH",62612,1,"Anguillidae","Anguilla rostrata","Pasquotank river swamp, at route 17 bridge, 1.1 mile southwest south mills","Camden",36.433696,-76.338961,"NC","5/23/1968","R.D. ROSS-VPI-1295","R.D. Ross & P.M. Brady"
"AMNH",62598,1,"Anguillidae","Anguilla rostrata","Seven bridges (a ditch in dismal swamp) 2 miles northwest South Mills on SR 1219","Camden",36.458219,-76.359391,"NC","5/22/1968","R.D. ROSS-VPI-1292","R.D. Ross"
"AMNH",62739,1,"Anguillidae","Anguilla rostrata","Folly Swamp on NC 32 crossing","Gates",36.488821,-76.574957,"NC","6/6/1968","R.D. ROSS-VPI-1327","R.D. Ross, R.D. Ross & P.M. Brady"
"ANSP",38046,1,"Anguillidae","Anguilla rostrata","Southport.","Brunswick",33.910801,-78.01338,"NC","1908","HAP08-S-5","Dr. H. A. Pilsbry"
"ANSP",193120,2,"Anguillidae","Anguilla rostrata","Newport River, south shore of river opposite Harlowe Creek, vicinity of Morehead City.","Carteret",34.762465,-76.725898,"NC","6/21/1954","Z193120","C. Broad, W.D. Fisher, H. Rierson"
"ANSP",116384,1,"Anguillidae","Anguilla rostrata","Cape Fear River, 1 mi S of Tolar Landing, 9 mi SSW  Fayetteville.","Bladen",34.821155,-78.820975,"NC","9/16/1969","CAP69-3","N. R. Foster, E. Jankowski"
"ANSP",116403,2,"Anguillidae","Anguilla rostrata","Cape Fear River, 3 mi SW of Slocomb.","Cumberland",35.141496,-78.851821,"NC","6/4/1970","CAP70-1","N. R. Foster, E. Jankowski"
"ANSP",204745,1,"Anguillidae","Anguilla rostrata","Cape Fear River, E of Lillington","Harnett",35.398423,-78.777941,"NC","6/2/2009","FW08-NC021","EPA National Streams & Rivers Assessment (NRSA) team"
"ANSP",197163,2,"Anguillidae","Anguilla rostrata","Swift Creek (Tar Dr.) riffle below Red Oak Rd. bridge (Co. Rt. 1003).","Nash",36.074183,-77.869496,"NC","7/26/2014","MHS-2014-NC-3","M.H. Sabaj, M.C. Sabaj Pérez, M.S. Sabaj Pérez"
"AUM",46245,1,"Anguillidae","Anguilla rostrata","Cape Fear River Drainage, Moore's Creek, State Hwy 210, 1 mi.SW Currie, 0.5 mi behind visitor center","Pender",34.46106,-78.11211,"NC","7/7/2004","","E Johnston, P Cleveland, R Henderson, C Knight, T Wilkes, M Farmer, A Kennon"
"AUM",45728,2,"Anguillidae","Anguilla rostrata","North Atlantic Ocean, marsh pond, 1.0 miles SSE Buxton, Cape Hatteras National Seashore","Dare",35.258,-75.52689,"NC","7/30/2003","","Castro, A Kennon, G Thomas"
"AUM",45681,1,"Anguillidae","Anguilla rostrata","North Atlantic Ocean, Oregon Inlet Fishing Center, 0.3 miles NNW Oregon Inlet, hwy 12, Cape Hatteras National Seashore","Dare",35.79387,-75.54861,"NC","7/29/2003","","Castro, A Kennon, G Thomas"
"AUM",45647,1,"Anguillidae","Anguilla rostrata","North Atlantic Ocean, marsh channel, 0.3 miles SSE of park entrance, hwy 12, Cape Hatteras National Seashore","Dare",35.89433,-75.59375,"NC","7/30/2003","","Castro, A Kennon, G Thomas"
"CAS",64296,4,"Anguillidae","Anguilla rostrata","Greenfield Lake, stream draining lake at Wilmington","NEW HANOVER",34.207998,-77.935387,"NC","5/23/1924","","Myers, George S."
"CAS",66853,4,"Anguillidae","Anguilla rostrata","White Marsh Swamp, Approx. 5 miles south of Hallsboro.","Columbus",34.25409,-78.604738,"NC","7/1/1968","","W.C. Freihofer, J. Davis et al"
"CAS",64288,2,"Anguillidae","Anguilla rostrata","Smith Creek, nr. Wilmington","NEW HANOVER",34.260003,-77.905068,"NC","5/24/1924","","Myers, George S."
"CAS",15563,1,"Anguillidae","Anguilla rostrata","Little Lake","Craven",34.869433,-76.99066,"NC","9/5/1964","","Follett, Wilbur I."
"CAS",1285,1,"Anguillidae","Anguilla rostrata","Catawba River, Marion","McDowell",35.698269,-82.047113,"NC","8/22/1888","","Jordan, Jenkins, Meek"
"CAS",18183,1,"Anguillidae","Anguilla rostrata","Catawba River, Marion","McDowell",35.698269,-82.047113,"NC","8/22/1888","","Jordan, Jenkins, Meek"
"CAS",11289,1,"Anguillidae","Anguilla rostrata","Catawba River, Marion","McDowell",35.698269,-82.047113,"NC","8/22/1888","","Jordan, Jenkins, Meek"
"CAS",11290,1,"Anguillidae","Anguilla rostrata","Catawba River, Marion","McDowell",35.698269,-82.047113,"NC","8/22/1888","","Jordan, Jenkins, Meek"
"CAS",18408,1,"Anguillidae","Anguilla rostrata","Catawba River, Marion","McDowell",35.698269,-82.047113,"NC","8/22/1888","","Jordan, Jenkins, Meek"
"CAS",91095,1,"Anguillidae","Anguilla rostrata","Neuse River, at Millburnie, near Raleigh","Wake",35.800203,-78.539013,"NC","8/27/1888","","Jenkins, Meek"
"CUMV",14294,1,"Anguillidae","Anguilla rostrata","Canal off Waccamaw R., 1 mi. N of Waccamaw R. on Rt. 130, near Ash","Columbus",34.077553,-78.543188,"NC","3/28/1945","HEE 1521","Edward Raney;  Royal Suttkus;  Howard Evans;  Robert Roecker"
"CUMV",14247,1,"Anguillidae","Anguilla rostrata","Bear Branch of Waccamaw R., 1.3 mi. NW of Ash","Brunswick",34.077555,-78.543199,"NC","3/28/1945","HEE 1520","Edward Raney;  Royal Suttkus;  Howard Evans;  Robert Roecker"
"CUMV",49606,1,"Anguillidae","Anguilla rostrata","Lake Waccamaw, W shore","Columbus",34.279284,-78.529419,"NC","9/5/1960","TWR 064","Timothy Robbins;  Neal Foster"
"CUMV",10644,1,"Anguillidae","Anguilla rostrata","Trib. of White Marsh, 4 mi. SW of Clarkton","Columbus",34.451061,-78.699875,"NC","6/25/1942","ECR 1195","Edward Raney;  Ernest Lachner;  Robert Ross"
"CUMV",30051,1,"Anguillidae","Anguilla rostrata","Burgaw Creek (trib. of Northeast Cape Fear R., 2.1 mi. SW of Northeast Cape Fear R. Bridge on NC 53)","Pender",34.579099,-77.900274,"NC","3/25/1952","ECR 2763","Edward Raney;  Charles Robins;  Bruce Collette;  John New; et al."
"CUMV",31694,5,"Anguillidae","Anguilla rostrata","Trib. NE of Cape Fear R., 1.8 mi. NE of Burgaw at jct. of US 1174 & NC 53","Pender",34.579524,-77.900715,"NC","4/3/1954","BBC 432","Bruce Collette;  H. Howard"
"CUMV",25251,6,"Anguillidae","Anguilla rostrata","Hammond Cr., 1 mi. S of Elizabethtown on Rt. 701","Bladen",34.621323,-78.610206,"NC","6/25/1942","ECR 1192","Edward Raney;  Ernest Lachner;  Robert Ross"
"CUMV",9771,2,"Anguillidae","Anguilla rostrata","Trib. of Cape Fear R., 1 mi. S of Elizabethtown","Bladen",34.621323,-78.610206,"NC","3/30/1937","ECR 0964","Roman Pfeiffer;  Ernest Lachner;  Edward Raney"
"CUMV",29881,9,"Anguillidae","Anguilla rostrata","A small stream about 3 mi. NW of Swainsboro on NC 24","Onslow",34.712323,-77.174002,"NC","3/25/1952","ECR 2761","Edward Raney;  Charles Robins;  John New;  Bruce Collette; et al."
"CUMV",48070,1,"Anguillidae","Anguilla rostrata","Morehead City-Bogue Sound - pier behind Morehead Biltmore","Carteret",34.725228,-76.784883,"NC","9/2/1960","TWR 059","William Kaill;  Neal Foster;  Timothy Robbins"
"CUMV",25210,3,"Anguillidae","Anguilla rostrata","North Carolina Branch New R., 5.6 mi. N of Jacksonville on Rt. 11 (17?)","Onslow",34.806679,-77.352594,"NC","3/27/1945","HEE 1518","Edward Raney;  Royal Suttkus;  Howard Evans;  Robert Roecker"
"CUMV",14281,7,"Anguillidae","Anguilla rostrata","Mark Cr. at Evers Mills","Richmond",34.814846,-79.892854,"NC","3/29/1945","HEE 1531","Edward Raney;  Royal Suttkus;  Howard Evans;  Robert Roecker"
"CUMV",25964,1,"Anguillidae","Anguilla rostrata","Shoehill Cr., 2 mi. SW of Wagram on US 15A","Scotland",34.866572,-79.385538,"NC","3/29/1950","ECR 2507","Edward Raney;  Charles Cole;  Davis;  E. Deubler; et al."
"CUMV",30579,1,"Anguillidae","Anguilla rostrata","Trib. of New R., 2.1 mi. S of Richlands","Onslow",34.877074,-77.550423,"NC","8/3/1952","CFC 301","Charles Cole;  Rudolph Miller"
"CUMV",30571,1,"Anguillidae","Anguilla rostrata","White Oak R., 0.6 mi. SE of Maysville (Carteret/Onslow Co. line)","Carteret",34.891795,-77.233573,"NC","7/6/1952","CFC 290","Charles Cole;  Rudolph Miller"
"CUMV",3564,1,"Anguillidae","Anguilla rostrata","Jones' Cr. at Wadesboro","Anson",34.896345,-79.982773,"NC","4/2/1931","Q3559-564","W. Gulledge"
"CUMV",15612,1,"Anguillidae","Anguilla rostrata","Trib. of Rockfish Cr., 4.8 mi. NE of Raeford","Hoke",35.008892,-79.164676,"NC","3/30/1944","HEE 1538","Edward Raney;  Royal Suttkus;  L. Kezer"
"CUMV",30552,1,"Anguillidae","Anguilla rostrata","Trib. of Trent R. at town limits of Trenton (on SE side), on NC 12","Jones",35.059687,-77.35561,"NC","8/3/1952","CFC 300","Charles Cole;  Rudolph Miller"
"CUMV",9874,4,"Anguillidae","Anguilla rostrata","Trib. of Trent R., 4.5 mi. WSW of New Bern on Rt. 17","Craven",35.091448,-77.137962,"NC","3/29/1937","ECR 0955","Roman Pfeiffer;  Ernest Lachner;  Edward Raney"
"CUMV",26011,1,"Anguillidae","Anguilla rostrata","Trib. of Drowning Cr. at S limits of Pine Bluff on US 1","Hoke",35.098432,-79.477051,"NC","4/1/1950","ECR 2515","Edward Raney;  William Woolcott;  Robert Gibbs"
"CUMV",7025,1,"Anguillidae","Anguilla rostrata","Neuse R. at New Bern","Craven",35.101895,-77.025023,"NC","7/9/1911","KPS 15JUL10","Karl Schmidt"
"CUMV",16906,1,"Anguillidae","Anguilla rostrata","Ray's Mill Cr. at Aberdeen","Moore",35.134648,-79.427814,"NC","3/29/1945","HEE 1534","Edward Raney;  Royal Suttkus;  Howard Evans;  Robert Roecker"
"CUMV",55339,1,"Anguillidae","Anguilla rostrata","Near Buxton; caught in surf","Dare",35.280253,-75.548788,"NC","7/19/1932","Z55339","N. Goin"
"CUMV",25260,3,"Anguillidae","Anguilla rostrata","Trib. of Swift Cr., at Vanceboro","Craven",35.302083,-77.145953,"NC","3/27/1945","HEE 1517","Edward Raney;  Royal Suttkus;  Howard Evans;  Robert Roecker"
"CUMV",9656,1,"Anguillidae","Anguilla rostrata","Walnut Cr., 7 mi. WNW of La Grange","Wayne",35.340726,-77.903387,"NC","3/30/1937","ECR 0974","Ernest Lachner;  Roman Pfeiffer;  Edward Raney"
"CUMV",16815,1,"Anguillidae","Anguilla rostrata","Palmetto Swamp, trib. Swift Cr., 3.7 mi. N of Vanceboro","Craven",35.35631,-77.150584,"NC","3/27/1945","HEE 1516","Edward Raney;  Royal Suttkus;  Howard Evans;  Robert Roecker"
"CUMV",11891,3,"Anguillidae","Anguilla rostrata","Nahunta Swamp, 1.2 mi. N of Pikeville on Rt. 117","Wayne",35.513681,-77.981299,"NC","6/26/1942","ECR 1205","Edward Raney;  Ernest Lachner;  Robert Ross"
"CUMV",19834,2,"Anguillidae","Anguilla rostrata","Aggie Run, 5.7 mi. N of Washington on Rt. 17","Beaufort",35.631378,-77.063024,"NC","3/27/1945","HEE 1514","Edward Raney;  Royal Suttkus;  Howard Evans;  Robert Roecker"
"CUMV",11576,3,"Anguillidae","Anguilla rostrata","Black Cr. 8.7 mi. N of Fremont","Wilson",35.634738,-77.959483,"NC","6/26/1942","ECR 1206","Edward Raney;  Ernest Lachner;  Robert Ross"
"CUMV",7024,1,"Anguillidae","Anguilla rostrata","Stumpy Point, Pamlico Sound","Dare",35.690244,-75.758683,"NC","7/4/1911","KPS 15JUL05","Karl Schmidt"
"CUMV",,1,"Anguillidae","Anguilla rostrata","Catawba River near Marion","McDowell",35.698269,-82.047113,"NC","8/22/1888","Z55208","Jordan, et al."
"CUMV",25892,1,"Anguillidae","Anguilla rostrata","Robeson Cr., 0.25 mi. S of Pittsboro Courthouse on US 15-501","Chatham",35.715982,-79.178739,"NC","4/1/1950","ECR 2517","Edward Raney;  Charles Cole;  Robert Gibbs;  E. Deubler; et al."
"CUMV",11984,3,"Anguillidae","Anguilla rostrata","Trib. of Yadkin R., 10 mi. SE of Lexington","Davidson",35.722662,-80.117651,"NC","3/21/1944","ECR 1410","Edward Raney;  Royal Suttkus;  L. Kezer"
"CUMV",19854,8,"Anguillidae","Anguilla rostrata","Ready Brook, 4.8 mi. S of Williamston on Rt. 17","Martin",35.788784,-77.059262,"NC","3/27/1945","HEE 1513","Edward Raney;  Royal Suttkus;  Howard Evans;  Robert Roecker"
"CUMV",8528,1,"Anguillidae","Anguilla rostrata","Small trib. of Little Cr., 1.5 mi. NE of Wendell","Wake",35.79561,-78.347856,"NC","4/5/1936","ECR 0744","Ernest Lachner;  Edward Raney;  James Kezer"
"CUMV",31766,1,"Anguillidae","Anguilla rostrata","Town Cr., 8 mi. N of Wilson on US 301","Wilson",35.830816,-77.855572,"NC","4/3/1954","BBC 435","Bruce Collette;  H. Howard"
"CUMV",14090,2,"Anguillidae","Anguilla rostrata","Morgan Cr. at Mason Farm, 1 mi. below Chapel Hill","Orange",35.891508,-79.058789,"NC","3/31/1945","HEE 1540","Edward Raney;  Royal Suttkus;  Howard Evans;  Robert Roecker; et al."
"CUMV",8538,1,"Anguillidae","Anguilla rostrata","Small trib. of Neuse R., 1 mi. E of Wake Forest at jct. of Rts. 91 & 98","Wake",35.972735,-78.49516,"NC","4/5/1936","ECR 0745","Ernest Lachner;  Edward Raney;  James Kezer"
"CUMV",11701,3,"Anguillidae","Anguilla rostrata","Trib. of Tar R., 2.5 mi. N of Rocky Mount","Nash",35.978273,-77.783572,"NC","6/26/1942","ECR 1209","Edward Raney;  Ernest Lachner;  Robert Ross"
"CUMV",34692,1,"Anguillidae","Anguilla rostrata","Neuse R. along US 98","Durham",35.979317,-78.632004,"NC","9/16/1955","BBC 555","Bruce Collette;  Rudolf Miller;  John Ramsey"
"CUMV",28921,1,"Anguillidae","Anguilla rostrata","Albermarle Sound at bridge on north side, S of Edenton","Chowan",36.047921,-76.694641,"NC","8/29/1950","ECR 2598","Edward Raney;  William Woolcott;  E. Deubler"
"CUMV",19481,1,"Anguillidae","Anguilla rostrata","Ledge Cr., 1 mi. SW of Creedmoor on Rt. 15","Granville",36.112971,-78.708754,"NC","3/29/1947","ECR 1948","Edward Raney;  Richard Backus;  Charles Robins;  J. Layne; et al."
"CUMV",29910,1,"Anguillidae","Anguilla rostrata","Trib. of Cashie Cr., 0.3 mi. NE of Lewiston on secondary road","Bertie",36.143265,-77.165054,"NC","3/23/1952","ECR 2754","Edward Raney;  Charles Robins;  John New;  Bruce Collette; et al."
"CUMV",29917,11,"Anguillidae","Anguilla rostrata","Trib. of Roanoke R., 4 mi. SE Tillery on NC 561","Halifax",36.215409,-77.440054,"NC","3/23/1952","ECR 2753","Edward Raney;  Charles Robins;  John New;  Bruce Collette; et al."
"CUMV",29891,5,"Anguillidae","Anguilla rostrata","Quankey Cr., trib. of Roanoke R., 1.5 mi. WNW of Halifax (Railroad Station)","Halifax",36.334934,-77.616932,"NC","3/23/1952","ECR 2752","Edward Raney;  Charles Robins;  John New;  Bruce Collette; et al."
"CUMV",31643,12,"Anguillidae","Anguilla rostrata","Trib. of Roanoke R., 8 mi. SE of Garysburg on US 158","Northampton",36.377049,-77.452343,"NC","4/3/1954","BBC 436","Bruce Collette;  H. Howard"
"CUMV",9891,2,"Anguillidae","Anguilla rostrata","Trib. at Sunbury on Rt. 32","Gates",36.436194,-76.610689,"NC","3/28/1937","ECR 0954","Roman Pfeiffer;  Ernest Lachner;  Edward Raney"
"INHS",58948,3,"Anguillidae","Anguilla rostrata","Royal Oak Swamp, 1.3 mi N Supply, Hwy. 211","Brunswick",34.03363,-78.28017,"NC","6/20/1990","","L.M. Page, P.A. Ceas, D.A. Carney, M.L. Warren & B.M. Burr"
"INHS",109757,1,"Anguillidae","Anguilla rostrata","Royal Oak Swamp, Hwy. 21, 1 mi N Supply","Brunswick",34.03371,-78.28012,"NC","5/9/1984","","B.M. Burr, F.C. Rohde"
"INHS",90212,1,"Anguillidae","Anguilla rostrata","Lake Waccamaw, 3.5 mi S Lake Waccamaw, along Waccamaw Shore Rd.","Columbus",34.217356,-78.559694,"NC","3/15/2001","","M. Hardman & L.M. Pintor"
"INHS",82088,3,"Anguillidae","Anguilla rostrata","swamp, Godfrey Banch, 1 mi NW Peletier","Carteret",34.744124,-77.104455,"NC","9/2/1964","","P.W. Smith & M.M. Hensley"
"INHS",110166,1,"Anguillidae","Anguilla rostrata","Great Coharie Creek, 5 mi E. Garland, S.R. 1134 bridge","Sampson",34.78749,-78.32276,"NC","5/8/1984","","B.M. Burr & F.C. Rohde"
"INHS",82107,3,"Anguillidae","Anguilla rostrata","swamp, 1 mi E Kuhns","Jones",34.796933,-77.113815,"NC","9/2/1964","","P.W. Smith & M.M. Hensley"
"INHS",109749,7,"Anguillidae","Anguilla rostrata","East Prong Brice Creek, State Rd. 1100, 3.2 km SW Croatan","Craven",34.95649,-77.00012,"NC","9/3/1983","","B. M. Burr, P. A. Burr"
"INHS",109752,1,"Anguillidae","Anguilla rostrata","Trent River, SR 1300 Bridge, 4.75 air miles NW center of Trenton","Jones",35.10898,-77.41727,"NC","10/1/1983","","B.M. Burr, P.A. Burr"
"INHS",109765,1,"Anguillidae","Anguilla rostrata","Swift Creek, Co. Rd. 1253, 1 mi SSW Leggett","Edgecombe",35.143517,-79.043608,"NC","5/16/1985","","Burr, Dimmick, Kuhajda"
"INHS",109767,2,"Anguillidae","Anguilla rostrata","Swift Creek, Co. Rd. 1253, 1 mi SSW Leggett","Edgecombe",35.143517,-79.043608,"NC","5/16/1985","","Burr, Dimmick, Kuhajda"
"INHS",109756,1,"Anguillidae","Anguilla rostrata","Swift Creek, just below NC Hwy. 97, ca. 1 mi W. Leggett","Edgecombe",35.143517,-79.043608,"NC","11/20/1983","","B.M. Burr, P.A. Burr"
"INHS",75227,1,"Anguillidae","Anguilla rostrata","Little River, 3 mi SE Lobelia","Moore",35.193113,-79.18376,"NC","6/13/1976","","L.M. Page, B.M. Burr & D.G. Buth"
"INHS",29603,1,"Anguillidae","Anguilla rostrata","Jumping Run Creek, Fort Bragg Military Res., 7 mi ENE Southern Pines, downstream of Johnson Mill Pond","Hoke",35.212995,-79.241553,"NC","10/17/1992","","P.J. Perea, P.B. Bayley, T. Krzyik, J. Stone & C. Dyson"
"INHS",109766,2,"Anguillidae","Anguilla rostrata","Neuse River, 350 yds downstream of Hwy. 903, 5.5 mi SSW La Grange","Lenoir",35.23268,-77.81924,"NC","5/20/1985","","Burr, Kuhajda, Dimmick"
"INHS",109764,4,"Anguillidae","Anguilla rostrata","Neuse River, Neuse River at Hwy. 58 Business, 70 crossing in Kinston","Lenoir",35.24632,-77.58296,"NC","5/22/1985","","Burr, Dimmick, Kuhajda"
"INHS",109748,3,"Anguillidae","Anguilla rostrata","Little River, 1 mi W Goldsboro, NC 581","Wayne",35.393169,-78.026083,"NC","9/17/1983","","B.M. Burr, P.A. Burr"
"INHS",109754,2,"Anguillidae","Anguilla rostrata","Little River, 1 mi W Goldsboro, NC 581","Wayne",35.393169,-78.026083,"NC","10/14/1983","","B.M. Burr, Michelle J. Burr"
"INHS",109755,1,"Anguillidae","Anguilla rostrata","Little River, 1 mi W Goldsboro, NC 581","Wayne",35.393169,-78.026083,"NC","11/20/1983","","B.M. Burr, P.A. Burr"
"INHS",109740,2,"Anguillidae","Anguilla rostrata","Little River, 1 mi W Raines Crossroad, SR 2320","Johnston",35.512501,-78.158859,"NC","5/20/1982","","K.S. Cummings, J.M. Grady, M.A. Klutho"
"INHS",109738,2,"Anguillidae","Anguilla rostrata","Neuse River, Hwy. 64 at Milburnie","Wake",35.79345,-78.53933,"NC","5/20/1982","","Kevin S. Cummings, J. M . Grady, M.A. Klutho"
"INHS",109739,5,"Anguillidae","Anguilla rostrata","Neuse River, Hwy. 64 at Milburnie","Wake",35.79345,-78.53933,"NC","5/21/1982","","Kevin S. Cummings, J.M. Grady, M.A. Klutho"
"INHS",109572,3,"Anguillidae","Anguilla rostrata","Neuse River, Hwy. 64 at Milburnie","Wake",35.79345,-78.53933,"NC","5/23/1985","","B.M. Burr, et al."
"INHS",109768,5,"Anguillidae","Anguilla rostrata","Tar River, SR 1544 Bridge, At Joyner's Crossroads","Nash",35.899488,-77.865381,"NC","5/18/1985","","Burr, Kuhajda, Dimmick"
"INHS",109753,6,"Anguillidae","Anguilla rostrata","Neuse River, Falls of the Neuse River","Wake",35.940925,-78.579636,"NC","10/15/1983","","B.M. Burr, D.S. Lee"
"INHS",38345,1,"Anguillidae","Anguilla rostrata","Swift Creek, 3 mi SW Whitakers, U.S. Rt. 301 bridge","Nash",36.0784,-77.74843,"NC","6/25/1996","","M.H. Sabaj, G.B. Mottesi, J.W. Armbruster, T.J. Near & J.M. Serb"
"INHS",109769,1,"Anguillidae","Anguilla rostrata","Fishing Creek, Co. Rd. 1506 Bridge, 1.8 mi NE Aventon","Nash",36.14993,-77.89178,"NC","5/16/1985","","B.M. Burr, W.W. Dimmick, B.R. Kuhajda"
"INHS",29674,1,"Anguillidae","Anguilla rostrata","Gumberry Swamp, 7.5 mi SE Garysburg, S.R. 158","Northampton",36.377049,-77.452343,"NC","5/11/1993","","M.H. Sabaj & L. Avella"
"KU",8870,4,"Anguillidae","Anguilla rostrata","Swamp on Rd. 1124, 4.2 mi. N US 24, 5 mi. W US 70","Carteret",34.776149,-76.959646,"NC","9/3/1964","","Cross, Frank B; Busey, Fred H; Judd, C E; Pflieger, William L"
"KU",5357,3,"Anguillidae","Anguilla rostrata","Northeast Cape Fear River, 6 mi. E Kenansville on Rt. 24","Duplin",34.93752,-77.860328,"NC","7/10/1960","","Metcalf, Artie L"
"KU",5340,4,"Anguillidae","Anguilla rostrata","trib of Trent River, 3 mi. N Pollocksville on US Rt. 17","Jones",35.059356,-77.203394,"NC","7/16/1960","","Metcalf, Artie L"
"KU",5346,2,"Anguillidae","Anguilla rostrata","Trent River at Trenton","Jones",35.064792,-77.351237,"NC","7/10/1960","","Metcalf, Artie L"
"KU",12883,4,"Anguillidae","Anguilla rostrata","brook at Port Terminal, 3 mi. E Greenville","Pitt",35.595003,-77.315556,"NC","10/2/1952","","Eaton, Theodore H"
"KU",5029,20,"Anguillidae","Anguilla rostrata","brook at Port Terminal, 3 mi. E Greenville","Pitt",35.595003,-77.315556,"NC","5/11/1955","","Eaton, Theodore H"
"MCZ",60086,1,"Anguillidae","Anguilla rostrata","Beaverdam Swamp on St. Rt. 1005, SE of Chadbourn, S of junction with St. Rt. 1004.","Columbus",34.244795,-78.793965,"NC","12/27/1982","","Fred C. Rohde, Rudolf G. Arndt, and party"
"NCDMF",,1,"Anguillidae","Anguilla rostrata","SB15, DEAD RIVER","",33.86,-78.538,"NC","721208","2202060000",""
"NCDMF",,1,"Anguillidae","Anguilla rostrata","SB6, DEAD RIVER","",33.863,-78.531,"NC","740108","2202060000",""
"NCDMF",,1,"Anguillidae","Anguilla rostrata","SB2, SALTBOILER CREEK","",33.87,-78.527,"NC","730103","2202040000",""
"NCDMF",,1,"Anguillidae","Anguilla rostrata","SB2, SALTBOILER CREEK","",33.87,-78.527,"NC","760127","2202040000",""
"NCDMF",,1,"Anguillidae","Anguilla rostrata","SB4, FOX CREEK","",33.874,-78.516,"NC","730103","2202020000",""
"NCDMF",,1,"Anguillidae","Anguilla rostrata","SB14, BLANE CREEK","",33.874,-78.513,"NC","740108","2202030000",""
"NCDMF",,1,"Anguillidae","Anguilla rostrata","SB4, FOX CREEK","",33.874,-78.516,"NC","770420","2202020000",""
"NCDMF",,1,"Anguillidae","Anguilla rostrata","SB1, CAUSEWAY DITCH","",33.877,-78.51,"NC","741002","2202010000",""
"NCDMF",,1,"Anguillidae","Anguilla rostrata","SB1, CAUSEWAY DITCH","",33.877,-78.51,"NC","751030","2202010000",""
"NCDMF",,8,"Anguillidae","Anguilla rostrata","IWW66, IWW","",33.879,-78.523,"NC","740108","2205000000",""
"NCDMF",,1,"Anguillidae","Anguilla rostrata","IWW66, IWW","",33.879,-78.523,"NC","770420","2205000000",""
"NCDMF",,1,"Anguillidae","Anguilla rostrata","SR9, GIBBS CREEK","",33.917,-78.36,"NC","870710","2101010000",""
"NCDMF",,1,"Anguillidae","Anguilla rostrata","DC1, DAVIS CREEK AREA","",33.918,-78.164,"NC","830906","2002000000",""
"NCDMF",,2,"Anguillidae","Anguilla rostrata","LFR10, DRUM SLOUGH","",33.926,-78.212,"NC","760115","2001040000",""
"NCDMF",,1,"Anguillidae","Anguilla rostrata","SR4, SHALLOTTE RIVER","",33.934,-78.362,"NC","870710","2101000000",""
"NCDMF",,1,"Anguillidae","Anguilla rostrata","SR4, SHALLOTTE RIVER","",33.934,-78.362,"NC","880318","2101000000",""
"NCDMF",,1,"Anguillidae","Anguilla rostrata","SR4, SHALLOTTE RIVER","",33.934,-78.362,"NC","890321","2101000000",""
"NCDMF",,4,"Anguillidae","Anguilla rostrata","LFR7, LOCKWOOD’S FOLLY RIVER","",33.935,-78.211,"NC","830414","2001000000",""
"NCDMF",,1,"Anguillidae","Anguilla rostrata","LFR8, LOCKWOOD’S FOLLY RIVER","",33.93861,-78.21722,"NC","760115","2001000000",""
"NCDMF",,1,"Anguillidae","Anguilla rostrata","LFR4, LOCKWOOD’S FOLLY RIVER","",33.949,-78.226,"NC","750312","2001000000",""
"NCDMF",,3,"Anguillidae","Anguilla rostrata","LFR4, LOCKWOOD’S FOLLY RIVER","",33.949,-78.226,"NC","760115","2001000000",""
"NCDMF",,1,"Anguillidae","Anguilla rostrata","LFR2, LOCKWOOD’S FOLLY RIVER","",33.951,-78.231,"NC","750312","2001000000",""
"NCDMF",,1,"Anguillidae","Anguilla rostrata","LFR2, LOCKWOOD’S FOLLY RIVER","",33.951,-78.231,"NC","760115","2001000000",""
"NCDMF",,1,"Anguillidae","Anguilla rostrata","LFR2, LOCKWOOD’S FOLLY RIVER","",33.951,-78.231,"NC","760315","2001000000",""
"NCDMF",,1,"Anguillidae","Anguilla rostrata","LFR2, LOCKWOOD’S FOLLY RIVER","",33.951,-78.231,"NC","761220","2001000000",""
"NCDMF",,1,"Anguillidae","Anguilla rostrata","LFR3, LOCKWOOD’S FOLLY RIVER","",33.952,-78.221,"NC","741211","2001000000",""
"NCDMF",,5,"Anguillidae","Anguilla rostrata","LFR3, LOCKWOOD’S FOLLY RIVER","",33.952,-78.221,"NC","760115","2001000000",""
"NCDMF",,2,"Anguillidae","Anguilla rostrata","CFR82, DREDGED AREAS","",33.965,-77.952,"NC","721129","1901040000",""
"NCDMF",,1,"Anguillidae","Anguilla rostrata","CFR82, DREDGED AREAS","",33.965,-77.952,"NC","750429","1901040000",""
"NCDMF",,1,"Anguillidae","Anguilla rostrata","CFR82, DREDGED AREAS","",33.965,-77.952,"NC","760204","1901040000",""
"NCDMF",,1,"Anguillidae","Anguilla rostrata","SR12, SHALLOTTE RIVER","",33.972,-78.379,"NC","890321","2101000000",""
"NCDMF",,1,"Anguillidae","Anguilla rostrata","SR12, SHALLOTTE RIVER","",33.972,-78.379,"NC","890417","2101000000",""
"NCDMF",,11,"Anguillidae","Anguilla rostrata","CFR13, WALDEN CREEK","",33.975,-77.988,"NC","801201","1901020100",""
"NCDMF",,1,"Anguillidae","Anguilla rostrata","SR10, SHALLOTTE RIVER","",33.975,-78.365,"NC","870316","2101000000",""
"NCDMF",,1,"Anguillidae","Anguilla rostrata","CFR11, SOUTH OF SNOW’S CUT","",33.982,-77.922,"NC","731026","1901030100",""
"NCDMF",,1,"Anguillidae","Anguilla rostrata","CFR11, SOUTH OF SNOW’S CUT","",33.982,-77.922,"NC","890616","1901030100",""
"NCDMF",,1,"Anguillidae","Anguilla rostrata","CFR10, SOUTH OF SNOW’S CUT","",34.007,-77.919,"NC","780816","1901030100",""
"NCDMF",,1,"Anguillidae","Anguilla rostrata","CFR8, SOUTH OF SNOW’S CUT","",34.039,-77.921,"NC","800324","1901030100",""
"NCDMF",,1,"Anguillidae","Anguilla rostrata","CFR69, SOUTH OF SNOW’S CUT","",34.052,-77.928,"NC","721214","1901030100",""
"NCDMF",,1,"Anguillidae","Anguilla rostrata","CFR6, DREDGED AREAS","",34.069,-77.929,"NC","721214","1901040000",""
"NCDMF",,2,"Anguillidae","Anguilla rostrata","CFR6, DREDGED AREAS","",34.069,-77.929,"NC","820319","1901040000",""
"NCDMF",,1,"Anguillidae","Anguilla rostrata","CFR7, DREDGED AREAS","",34.073,-77.935,"NC","830725","1901040000",""
"NCDMF",,2,"Anguillidae","Anguilla rostrata","CFR7, DREDGED AREAS","",34.073,-77.935,"NC","891120","1901040000",""
"NCDMF",,1,"Anguillidae","Anguilla rostrata","CFR75, NORTH OF SNOW’S CUT","",34.096,-77.928,"NC","731024","1901030200",""
"NCDMF",,1,"Anguillidae","Anguilla rostrata","CFR75, NORTH OF SNOW’S CUT","",34.096,-77.928,"NC","750428","1901030200",""
"NCDMF",,2,"Anguillidae","Anguilla rostrata","CFR75, NORTH OF SNOW’S CUT","",34.096,-77.928,"NC","780117","1901030200",""
"NCDMF",,1,"Anguillidae","Anguilla rostrata","CFR4, NORTH OF SNOW’S CUT","",34.124,-77.929,"NC","760129","1901030200",""
"NCDMF",,1,"Anguillidae","Anguilla rostrata","MM2, MASONBORO MARSHES","",34.157,-77.846,"NC","750227","1702010000",""
"NCDMF",,1,"Anguillidae","Anguilla rostrata","CFR79, NORTH OF SNOW’S CUT","",34.159,-77.943,"NC","760129","1901030200",""
"NCDMF",,1,"Anguillidae","Anguilla rostrata","CFR79, NORTH OF SNOW’S CUT","",34.159,-77.943,"NC","771103","1901030200",""
"NCDMF",,1,"Anguillidae","Anguilla rostrata","MM6, MASONBORO MARSHES","",34.171,-77.831,"NC","760205","1702010000",""
"NCDMF",,1,"Anguillidae","Anguilla rostrata","MM7, MASONBORO MARSHES","",34.174,-77.836,"NC","760205","1702010000",""
"NCDMF",,2,"Anguillidae","Anguilla rostrata","CFR1, CAPE FEAR RIVER, WILMINGTON AND ABOVE","",34.252,-77.968,"NC","780425","1902000000",""
"NCDMF",,1,"Anguillidae","Anguilla rostrata","CFR1, CAPE FEAR RIVER, WILMINGTON AND ABOVE","",34.252,-77.968,"NC","780817","1902000000",""
"NCDMF",,1,"Anguillidae","Anguilla rostrata","CFR1, CAPE FEAR RIVER, WILMINGTON AND ABOVE","",34.252,-77.968,"NC","800616","1902000000",""
"NCDMF",,1,"Anguillidae","Anguilla rostrata","CFR1, CAPE FEAR RIVER, WILMINGTON AND ABOVE","",34.252,-77.968,"NC","820921","1902000000",""
"NCDMF",,1,"Anguillidae","Anguilla rostrata","CFR1, CAPE FEAR RIVER, WILMINGTON AND ABOVE","",34.252,-77.968,"NC","860312","1902000000",""
"NCDMF",,1,"Anguillidae","Anguilla rostrata","CFR1, CAPE FEAR RIVER, WILMINGTON AND ABOVE","",34.252,-77.968,"NC","860508","1902000000",""
"NCDMF",,1,"Anguillidae","Anguilla rostrata","CFR1, CAPE FEAR RIVER, WILMINGTON AND ABOVE","",34.252,-77.968,"NC","870609","1902000000",""
"NCDMF",,1,"Anguillidae","Anguilla rostrata","CFR1, CAPE FEAR RIVER, WILMINGTON AND ABOVE","",34.252,-77.968,"NC","870813","1902000000",""
"NCDMF",,1,"Anguillidae","Anguilla rostrata","CFR1, CAPE FEAR RIVER, WILMINGTON AND ABOVE","",34.252,-77.968,"NC","880803","1902000000",""
"NCDMF",,1,"Anguillidae","Anguilla rostrata","CFR1, CAPE FEAR RIVER, WILMINGTON AND ABOVE","",34.252,-77.968,"NC","890718","1902000000",""
"NCDMF",,1,"Anguillidae","Anguilla rostrata","CFR1, CAPE FEAR RIVER, WILMINGTON AND ABOVE","",34.252,-77.968,"NC","900515","1902000000",""
"NCDMF",,1,"Anguillidae","Anguilla rostrata","CFR1, CAPE FEAR RIVER, WILMINGTON AND ABOVE","",34.252,-77.968,"NC","920720","1902000000",""
"NCDMF",,1,"Anguillidae","Anguilla rostrata","CFR1, CAPE FEAR RIVER, WILMINGTON AND ABOVE","",34.252,-77.968,"NC","971204","1902000000",""
"NCDMF",,1,"Anguillidae","Anguilla rostrata","CFR1, CAPE FEAR RIVER, WILMINGTON AND ABOVE","",34.252,-77.968,"NC","980121","1902000000",""
"NCDMF",,1,"Anguillidae","Anguilla rostrata","CFR1, CAPE FEAR RIVER, WILMINGTON AND ABOVE","",34.252,-77.968,"NC","990723","1902000000",""
"NCDMF",,1,"Anguillidae","Anguilla rostrata","CFR1, CAPE FEAR RIVER, WILMINGTON AND ABOVE","",34.252,-77.968,"NC","990928","1902000000",""
"NCDMF",,1,"Anguillidae","Anguilla rostrata","IWW28, IWW","",34.266,-77.768,"NC","770317","1503000000",""
"NCDMF",,1,"Anguillidae","Anguilla rostrata","CFR2, SMITH CREEK TO LANE FERRY","",34.266,-77.947,"NC","860312","1902030100",""
"NCDMF",,2,"Anguillidae","Anguilla rostrata","UCF4, CARTWHEEL BRANCH","",34.26611,-77.99444,"NC","860514","1902010105",""
"NCDMF",,1,"Anguillidae","Anguilla rostrata","UCF1, TOOMER’S CREEK","",34.267,-77.984,"NC","870512","1902010103",""
"NCDMF",,1,"Anguillidae","Anguilla rostrata","UCF1, TOOMER’S CREEK","",34.267,-77.984,"NC","890314","1902010103",""
"NCDMF",,8,"Anguillidae","Anguilla rostrata","PC5, PAGE’S CREEK","",34.27545,-77.79748,"NC","741231","1501030000",""
"NCDMF",,4,"Anguillidae","Anguilla rostrata","IWW27, IWW","",34.276,-77.759,"NC","740220","1503000000",""
"NCDMF",,1,"Anguillidae","Anguilla rostrata","IWW27, IWW","",34.276,-77.759,"NC","750213","1503000000",""
"NCDMF",,1,"Anguillidae","Anguilla rostrata","IWW27, IWW","",34.276,-77.759,"NC","760226","1503000000",""
"NCDMF",,1,"Anguillidae","Anguilla rostrata","FE3, FIGURE EIGHT ISLAND MARSHES","",34.277,-77.739,"NC","740523","1502020000",""
"NCDMF",,3,"Anguillidae","Anguilla rostrata","FE3, FIGURE EIGHT ISLAND MARSHES","",34.277,-77.739,"NC","750213","1502020000",""
"NCDMF",,1,"Anguillidae","Anguilla rostrata","FE3, FIGURE EIGHT ISLAND MARSHES","",34.277,-77.739,"NC","760226","1502020000",""
"NCDMF",,1,"Anguillidae","Anguilla rostrata","UCF2, INDIAN CREEK","",34.286,-78.008,"NC","860411","1902010101",""
"NCDMF",,1,"Anguillidae","Anguilla rostrata","UCF2, INDIAN CREEK","",34.286,-78.008,"NC","861007","1902010101",""
"NCDMF",,1,"Anguillidae","Anguilla rostrata","UCF2, INDIAN CREEK","",34.286,-78.008,"NC","980709","1902010101",""
"NCDMF",,1,"Anguillidae","Anguilla rostrata","FE5, FIGURE EIGHT ISLAND MARSHES","",34.288,-77.745,"NC","750213","1502020000",""
"NCDMF",,1,"Anguillidae","Anguilla rostrata","FC4, FUTCH’S CREEK","",34.3,-77.743,"NC","960425","1501020000",""
"NCDMF",,2,"Anguillidae","Anguilla rostrata","UCF3, MOUTH BLACK RIVER","",34.341,-78.046,"NC","980722","1902040104",""
"NCDMF",,1,"Anguillidae","Anguilla rostrata","UCF3, MOUTH BLACK RIVER","",34.341,-78.046,"NC","990122","1902040104",""
"NCDMF",,1,"Anguillidae","Anguilla rostrata","UCF5, CAPE FEAR RIVER, WILMINGTON AND ABOVE","",34.367,-78.14,"NC","980518","1902000000",""
"NCDMF",,1,"Anguillidae","Anguilla rostrata","UCF6, CAPE FEAR RIVER, WILMINGTON AND ABOVE","",34.404,-78.272,"NC","980925","1902000000",""
"NCDMF",,1,"Anguillidae","Anguilla rostrata","UCF6, CAPE FEAR RIVER, WILMINGTON AND ABOVE","",34.404,-78.272,"NC","981026","1902000000",""
"NCDMF",,19,"Anguillidae","Anguilla rostrata","OC5, OLD CHANNEL","",34.406,-77.583,"NC","730122","1402010000",""
"NCDMF",,1,"Anguillidae","Anguilla rostrata","OC7, OLD CHANNEL","",34.406,-77.583,"NC","760121","1402010000",""
"NCDMF",,1,"Anguillidae","Anguilla rostrata","OC5, OLD CHANNEL","",34.406,-77.583,"NC","851114","1402010000",""
"NCDMF",,1,"Anguillidae","Anguilla rostrata","OC6, OLD CHANNEL","",34.413,-77.578,"NC","730122","1402010000",""
"NCDMF",,2,"Anguillidae","Anguilla rostrata","IWW18, IWW","",34.413,-77.591,"NC","750130","1403000000",""
"NCDMF",,1,"Anguillidae","Anguilla rostrata","OC4, OLD CHANNEL","",34.415,-77.584,"NC","730122","1402010000",""
"NCDMF",,1,"Anguillidae","Anguilla rostrata","OC2, OLD CHANNEL","",34.419,-77.572,"NC","730122","1402010000",""
"NCDMF",,3,"Anguillidae","Anguilla rostrata","VC3, VIRGINIA CREEK","",34.422,-77.603,"NC","750130","1401020000",""
"NCDMF",,1,"Anguillidae","Anguilla rostrata","OC1, OLD CHANNEL","",34.422,-77.559,"NC","760121","1402010000",""
"NCDMF",,1,"Anguillidae","Anguilla rostrata","VC3, VIRGINIA CREEK","",34.422,-77.603,"NC","770324","1401020000",""
"NCDMF",,1,"Anguillidae","Anguilla rostrata","VC1, VIRGINIA CREEK","",34.431,-77.606,"NC","750130","1401020000",""
"NCDMF",,1,"Anguillidae","Anguilla rostrata","VC1, VIRGINIA CREEK","",34.431,-77.606,"NC","760121","1401020000",""
"NCDMF",,1,"Anguillidae","Anguilla rostrata","VC1, VIRGINIA CREEK","",34.431,-77.606,"NC","810520","1401020000",""
"NCDMF",,1,"Anguillidae","Anguilla rostrata","VC1, VIRGINIA CREEK","",34.431,-77.606,"NC","820603","1401020000",""
"NCDMF",,1,"Anguillidae","Anguilla rostrata","VC1, VIRGINIA CREEK","",34.431,-77.606,"NC","820824","1401020000",""
"NCDMF",,1,"Anguillidae","Anguilla rostrata","VC1, VIRGINIA CREEK","",34.431,-77.606,"NC","850517","1401020000",""
"NCDMF",,1,"Anguillidae","Anguilla rostrata","VC1, VIRGINIA CREEK","",34.431,-77.606,"NC","880510","1401020000",""
"NCDMF",,1,"Anguillidae","Anguilla rostrata","VC1, VIRGINIA CREEK","",34.431,-77.606,"NC","900521","1401020000",""
"NCDMF",,1,"Anguillidae","Anguilla rostrata","VC1, VIRGINIA CREEK","",34.431,-77.606,"NC","920609","1401020000",""
"NCDMF",,1,"Anguillidae","Anguilla rostrata","SSI14, BARLOW CREEK","",34.463,-77.541,"NC","840612","1301050000",""
"NCDMF",,2,"Anguillidae","Anguilla rostrata","SSO1, SPICER’S BAY (EVERETT BAY)","",34.477,-77.475,"NC","780414","1302020000",""
"NCDMF",,1,"Anguillidae","Anguilla rostrata","SSO1, SPICER’S BAY (EVERETT BAY)","",34.477,-77.475,"NC","800421","1302020000",""
"NCDMF",,12,"Anguillidae","Anguilla rostrata","SSO1, SPICER’S BAY (EVERETT BAY)","",34.477,-77.475,"NC","820415","1302020000",""
"NCDMF",,1,"Anguillidae","Anguilla rostrata","SSO7, ALLIGATOR BAY","",34.499,-77.418,"NC","761213","1302010000",""
"NCDMF",,1,"Anguillidae","Anguilla rostrata","SSI1, ALLIGATOR BAY","",34.517,-77.424,"NC","790608","1301010000",""
"NCDMF",,1,"Anguillidae","Anguilla rostrata","SSI1, ALLIGATOR BAY","",34.517,-77.424,"NC","801016","1301010000",""
"NCDMF",,1,"Anguillidae","Anguilla rostrata","SSI1, ALLIGATOR BAY","",34.517,-77.424,"NC","810610","1301010000",""
"NCDMF",,1,"Anguillidae","Anguilla rostrata","SSI1, ALLIGATOR BAY","",34.517,-77.424,"NC","850515","1301010000",""
"NCDMF",,1,"Anguillidae","Anguilla rostrata","SSI1, ALLIGATOR BAY","",34.517,-77.424,"NC","880510","1301010000",""
"NCDMF",,1,"Anguillidae","Anguilla rostrata","NR50, CHADWICK BAY","",34.526,-77.376,"NC","730112","1201020400",""
"NCDMF",,1,"Anguillidae","Anguilla rostrata","NR52, CHADWICK BAY","",34.531,-77.369,"NC","730112","1201020400",""
"NCDMF",,1,"Anguillidae","Anguilla rostrata","NR51, CHADWICK BAY","",34.534,-77.363,"NC","731029","1201020400",""
"NCDMF",,1,"Anguillidae","Anguilla rostrata","IWW6, IWW","",34.537,-77.36,"NC","730112","1303000000",""
"NCDMF",,6,"Anguillidae","Anguilla rostrata","NR55, FULLARD CREEK","",34.537,-77.376,"NC","730112","1201020401",""
"NCDMF",,2,"Anguillidae","Anguilla rostrata","NR55, FULLARD CREEK","",34.537,-77.376,"NC","760106","1201020401",""
"NCDMF",,1,"Anguillidae","Anguilla rostrata","NR53, CHADWICK BAY","",34.54,-77.365,"NC","730112","1201020400",""
"NCDMF",,2,"Anguillidae","Anguilla rostrata","NR56, BIGLINS (BUMPS) CREEK","",34.542,-77.374,"NC","730112","1201020402",""
"NCDMF",,1,"Anguillidae","Anguilla rostrata","NR11, NEW RIVER BELOW 172 BRIDGE","",34.559,-77.348,"NC","721219","1201010000",""
"NCDMF",,3,"Anguillidae","Anguilla rostrata","NR11, NEW RIVER BELOW 172 BRIDGE","",34.559,-77.348,"NC","730206","1201010000",""
"NCDMF",,1,"Anguillidae","Anguilla rostrata","NR11, NEW RIVER BELOW 172 BRIDGE","",34.559,-77.348,"NC","860822","1201010000",""
"NCDMF",,1,"Anguillidae","Anguilla rostrata","NR46, NEW RIVER BELOW 172 BRIDGE","",34.565,-77.378,"NC","721130","1201010000",""
"NCDMF",,47,"Anguillidae","Anguilla rostrata","NR46, NEW RIVER BELOW 172 BRIDGE","",34.565,-77.378,"NC","730206","1201010000",""
"NCDMF",,1,"Anguillidae","Anguilla rostrata","NR42, NEW RIVER BELOW 172 BRIDGE","",34.567,-77.344,"NC","721219","1201010000",""
"NCDMF",,2,"Anguillidae","Anguilla rostrata","NR41, NEW RIVER BELOW 172 BRIDGE","",34.577,-77.369,"NC","721130","1201010000",""
"NCDMF",,1,"Anguillidae","Anguilla rostrata","NR41, NEW RIVER BELOW 172 BRIDGE","",34.577,-77.369,"NC","721219","1201010000",""
"NCDMF",,1,"Anguillidae","Anguilla rostrata","NR41, NEW RIVER BELOW 172 BRIDGE","",34.577,-77.369,"NC","730206","1201010000",""
"NCDMF",,8,"Anguillidae","Anguilla rostrata","NR43, NEW RIVER BELOW 172 BRIDGE","",34.579,-77.397,"NC","721130","1201010000",""
"NCDMF",,12,"Anguillidae","Anguilla rostrata","NR43, NEW RIVER BELOW 172 BRIDGE","",34.579,-77.397,"NC","721219","1201010000",""
"NCDMF",,3,"Anguillidae","Anguilla rostrata","NR43, NEW RIVER BELOW 172 BRIDGE","",34.579,-77.397,"NC","730206","1201010000",""
"NCDMF",,1,"Anguillidae","Anguilla rostrata","NR14, ELLIS COVE","",34.582,-77.398,"NC","810326","1201010400",""
"NCDMF",,12,"Anguillidae","Anguilla rostrata","NR38, ELLIS COVE","",34.584,-77.387,"NC","721130","1201010400",""
"NCDMF",,5,"Anguillidae","Anguilla rostrata","NR38, ELLIS COVE","",34.584,-77.387,"NC","721219","1201010400",""
"NCDMF",,2,"Anguillidae","Anguilla rostrata","NR38, ELLIS COVE","",34.584,-77.387,"NC","730206","1201010400",""
"NCDMF",,2,"Anguillidae","Anguilla rostrata","NR40, COUTRHOUSE BAY","",34.586,-77.372,"NC","721130","1201010600",""
"NCDMF",,4,"Anguillidae","Anguilla rostrata","NR40, COUTRHOUSE BAY","",34.586,-77.372,"NC","721219","1201010600",""
"NCDMF",,28,"Anguillidae","Anguilla rostrata","NR40, COUTRHOUSE BAY","",34.586,-77.372,"NC","730206","1201010600",""
"NCDMF",,2,"Anguillidae","Anguilla rostrata","NR40, COUTRHOUSE BAY","",34.586,-77.372,"NC","750218","1201010600",""
"NCDMF",,1,"Anguillidae","Anguilla rostrata","NR10, SNEADS CREEK","",34.593,-77.398,"NC","721219","1201010100",""
"NCDMF",,1,"Anguillidae","Anguilla rostrata","NR10, SNEADS CREEK","",34.593,-77.398,"NC","790320","1201010100",""
"NCDMF",,1,"Anguillidae","Anguilla rostrata","NR10, SNEADS CREEK","",34.593,-77.398,"NC","790511","1201010100",""
"NCDMF",,1,"Anguillidae","Anguilla rostrata","NR10, SNEADS CREEK","",34.593,-77.398,"NC","820730","1201010100",""
"NCDMF",,1,"Anguillidae","Anguilla rostrata","NR10, SNEADS CREEK","",34.593,-77.398,"NC","950510","1201010100",""
"NCDMF",,3,"Anguillidae","Anguilla rostrata","NR60, STONES BAY","",34.594,-77.411,"NC","721130","1201020100",""
"NCDMF",,1,"Anguillidae","Anguilla rostrata","NR34, STONES BAY","",34.603,-77.421,"NC","721130","1201020100",""
"NCDMF",,1,"Anguillidae","Anguilla rostrata","NR8, STONES BAY","",34.605,-77.397,"NC","721130","1201020100",""
"NCDMF",,3,"Anguillidae","Anguilla rostrata","NR8, STONES BAY","",34.605,-77.397,"NC","721219","1201020100",""
"NCDMF",,1,"Anguillidae","Anguilla rostrata","NR12, STONES BAY","",34.61,-77.437,"NC","721219","1201020100",""
"NCDMF",,1,"Anguillidae","Anguilla rostrata","NR13, MILL CREEK","",34.625,-77.43,"NC","780510","1201020104",""
"NCDMF",,1,"Anguillidae","Anguilla rostrata","NR13, MILL CREEK","",34.625,-77.43,"NC","790606","1201020104",""
"NCDMF",,1,"Anguillidae","Anguilla rostrata","NR13, MILL CREEK","",34.625,-77.43,"NC","800519","1201020104",""
"NCDMF",,1,"Anguillidae","Anguilla rostrata","NR13, MILL CREEK","",34.625,-77.43,"NC","800618","1201020104",""
"NCDMF",,2,"Anguillidae","Anguilla rostrata","NR13, MILL CREEK","",34.625,-77.43,"NC","810414","1201020104",""
"NCDMF",,1,"Anguillidae","Anguilla rostrata","NR13, MILL CREEK","",34.625,-77.43,"NC","820322","1201020104",""
"NCDMF",,1,"Anguillidae","Anguilla rostrata","NR13, MILL CREEK","",34.625,-77.43,"NC","840615","1201020104",""
"NCDMF",,1,"Anguillidae","Anguilla rostrata","NR13, MILL CREEK","",34.625,-77.43,"NC","860318","1201020104",""
"NCDMF",,1,"Anguillidae","Anguilla rostrata","NR13, MILL CREEK","",34.625,-77.43,"NC","880308","1201020104",""
"NCDMF",,1,"Anguillidae","Anguilla rostrata","NR13, MILL CREEK","",34.625,-77.43,"NC","890724","1201020104",""
"NCDMF",,1,"Anguillidae","Anguilla rostrata","NR29, FRENCH’S CREEK","",34.633,-77.312,"NC","750220","1201020202",""
"NCDMF",,1,"Anguillidae","Anguilla rostrata","IWW3, IWW","",34.63333,-77.20222,"NC","721220","1103000000",""
"NCDMF",,1,"Anguillidae","Anguilla rostrata","NR7, FARNELL BAY","",34.634,-77.374,"NC","890517","1201020200",""
"NCDMF",,1,"Anguillidae","Anguilla rostrata","NR6, FRENCH’S CREEK","",34.636,-77.331,"NC","780601","1201020202",""
"NCDMF",,1,"Anguillidae","Anguilla rostrata","BC2, BEAR CREEK","",34.64183,-77.21829,"NC","721220","1101030000",""
"NCDMF",,1,"Anguillidae","Anguilla rostrata","HB5, SEASIDE AREAS","",34.642,-77.144,"NC","721212","1102000000",""
"NCDMF",,1,"Anguillidae","Anguilla rostrata","HB5, SEASIDE AREAS","",34.642,-77.144,"NC","741218","1102000000",""
"NCDMF",,2,"Anguillidae","Anguilla rostrata","HB5, SEASIDE AREAS","",34.642,-77.144,"NC","761215","1102000000",""
"NCDMF",,1,"Anguillidae","Anguilla rostrata","BC1, BEAR CREEK","",34.64794,-77.21662,"NC","721220","1101030000",""
"NCDMF",,4,"Anguillidae","Anguilla rostrata","HB4, HAMMOCK’S BEACH","",34.64889,-77.14861,"NC","761215","1102010000",""
"NCDMF",,1,"Anguillidae","Anguilla rostrata","NR25, FARNELL BAY","",34.661,-77.368,"NC","730523","1201020200",""
"NCDMF",,5,"Anguillidae","Anguilla rostrata","IWW2, IWW","",34.66139,-77.15139,"NC","721212","1103000000",""
"NCDMF",,1,"Anguillidae","Anguilla rostrata","IWW2, IWW","",34.66139,-77.15139,"NC","721221","1103000000",""
"NCDMF",,1,"Anguillidae","Anguilla rostrata","IWW2, IWW","",34.66139,-77.15139,"NC","730221","1103000000",""
"NCDMF",,1,"Anguillidae","Anguilla rostrata","QC6, QUEEN’S CREEK","",34.66722,-77.15472,"NC","750206","1101020000",""
"NCDMF",,1,"Anguillidae","Anguilla rostrata","QC6, QUEEN’S CREEK","",34.66722,-77.15472,"NC","760217","1101020000",""
"NCDMF",,1,"Anguillidae","Anguilla rostrata","QC9, QUEEN’S CREEK","",34.67389,-77.17139,"NC","721221","1101020000",""
"NCDMF",,1,"Anguillidae","Anguilla rostrata","NR19, LEWIS CREEK","",34.678,-77.409,"NC","860924","1201020302",""
"NCDMF",,1,"Anguillidae","Anguilla rostrata","29C, DENNIS CREEK","",34.68111,-77.13667,"NC","890418","1000000300",""
"NCDMF",,1,"Anguillidae","Anguilla rostrata","NR20, WALLACE CREEK","",34.682,-77.371,"NC","750502","1201020301",""
"NCDMF",,1,"Anguillidae","Anguilla rostrata","SOUTHWEST CREEK","",34.68389,-77.42639,"NC","981007","1201030200",""
"NCDMF",,1,"Anguillidae","Anguilla rostrata","QC2, QUEEN’S CREEK","",34.68417,-77.16639,"NC","721221","1101020000",""
"NCDMF",,1,"Anguillidae","Anguilla rostrata","QC2, QUEEN’S CREEK","",34.68417,-77.16639,"NC","740501","1101020000",""
"NCDMF",,1,"Anguillidae","Anguilla rostrata","29A, HAWKINS CREEK","",34.68778,-77.12722,"NC","880816","1000000100",""
"NCDMF",,1,"Anguillidae","Anguilla rostrata","NR5, SOUTHWEST CREEK","",34.696,-77.418,"NC","810716","1201030200",""
"NCDMF",,1,"Anguillidae","Anguilla rostrata","NR5, SOUTHWEST CREEK","",34.696,-77.418,"NC","830719","1201030200",""
"NCDMF",,1,"Anguillidae","Anguilla rostrata","NR5, SOUTHWEST CREEK","",34.696,-77.418,"NC","860613","1201030200",""
"NCDMF",,2,"Anguillidae","Anguilla rostrata","NR5, SOUTHWEST CREEK","",34.696,-77.418,"NC","870713","1201030200",""
"NCDMF",,2,"Anguillidae","Anguilla rostrata","MORGAN BAY","",34.69639,-77.3775,"NC","981022","1201020300",""
"NCDMF",,1,"Anguillidae","Anguilla rostrata","CC21, GOOSE CREEK","",34.702,-77.011,"NC","880630","908000000",""
"NCDMF",,1,"Anguillidae","Anguilla rostrata","CC21, GOOSE CREEK","",34.702,-77.011,"NC","890314","908000000",""
"NCDMF",,1,"Anguillidae","Anguilla rostrata","S119, HARKER’S POINT CHANNEL","",34.705,-76.589,"NC","880914","601160600",""
"NCDMF",,1,"Anguillidae","Anguilla rostrata","26A, SANDERS CREEK","",34.70667,-76.96833,"NC","890314","907000000",""
"NCDMF",,1,"Anguillidae","Anguilla rostrata","13, PETTIFORD CREEK","",34.709,-77.076,"NC","880816","1001030100",""
"NCDMF",,4,"Anguillidae","Anguilla rostrata","CC2, TURNSTAKE","",34.71544,-77.10384,"NC","780505","1001000200",""
"NCDMF",,2,"Anguillidae","Anguilla rostrata","CC2, TURNSTAKE","",34.71544,-77.10384,"NC","800401","1001000200",""
"NCDMF",,1,"Anguillidae","Anguilla rostrata","NR16, NORTHEAST CREEK","",34.721,-77.384,"NC","750220","1201030300",""
"NCDMF",,2,"Anguillidae","Anguilla rostrata","NEW RIVER","",34.72222,-77.41944,"NC","981020","1201030100",""
"NCDMF",,1,"Anguillidae","Anguilla rostrata","NR4, NORTHEAST CREEK","",34.724,-77.383,"NC","780601","1201030300",""
"NCDMF",,2,"Anguillidae","Anguilla rostrata","CB17, HORSEPEN PT.(BAY)","",34.731,-76.448,"NC","880816","602140000",""
"NCDMF",,1,"Anguillidae","Anguilla rostrata","NR2, NEW RIVER","",34.738,-77.426,"NC","780811","1201030100",""
"NCDMF",,1,"Anguillidae","Anguilla rostrata","NR2, NEW RIVER","",34.738,-77.426,"NC","800710","1201030100",""
"NCDMF",,2,"Anguillidae","Anguilla rostrata","NR2, NEW RIVER","",34.738,-77.426,"NC","810624","1201030100",""
"NCDMF",,2,"Anguillidae","Anguilla rostrata","CC3, MID NEWPORT RIVER","",34.752,-76.751,"NC","791102","801001300",""
"NCDMF",,1,"Anguillidae","Anguilla rostrata","CC3, MID NEWPORT RIVER","",34.752,-76.751,"NC","800401","801001300",""
"NCDMF",,1,"Anguillidae","Anguilla rostrata","CC3, MID NEWPORT RIVER","",34.752,-76.751,"NC","820401","801001300",""
"NCDMF",,1,"Anguillidae","Anguilla rostrata","CC3, MID NEWPORT RIVER","",34.752,-76.751,"NC","890317","801001300",""
"NCDMF",,1,"Anguillidae","Anguilla rostrata","CC3, MID NEWPORT RIVER","",34.752,-76.751,"NC","890808","801001300",""
"NCDMF",,1,"Anguillidae","Anguilla rostrata","NR1, NEW RIVER","",34.756,-77.436,"NC","790320","1201030100",""
"NCDMF",,1,"Anguillidae","Anguilla rostrata","NR1, NEW RIVER","",34.756,-77.436,"NC","790511","1201030100",""
"NCDMF",,3,"Anguillidae","Anguilla rostrata","NR1, NEW RIVER","",34.756,-77.436,"NC","800819","1201030100",""
"NCDMF",,1,"Anguillidae","Anguilla rostrata","NR1, NEW RIVER","",34.756,-77.436,"NC","800917","1201030100",""
"NCDMF",,1,"Anguillidae","Anguilla rostrata","NR1, NEW RIVER","",34.756,-77.436,"NC","810326","1201030100",""
"NCDMF",,1,"Anguillidae","Anguilla rostrata","NR1, NEW RIVER","",34.756,-77.436,"NC","990518","1201030100",""
"NCDMF",,1,"Anguillidae","Anguilla rostrata","44, NEWPORT RIVER","",34.765,-76.694,"NC","721208","801000000",""
"NCDMF",,1,"Anguillidae","Anguilla rostrata","CC1, WHITE OAK NARROWS","",34.767,-77.145,"NC","780505","1001000100",""
"NCDMF",,1,"Anguillidae","Anguilla rostrata","CC1, WHITE OAK NARROWS","",34.767,-77.145,"NC","790402","1001000100",""
"NCDMF",,1,"Anguillidae","Anguilla rostrata","CC1, WHITE OAK NARROWS","",34.767,-77.145,"NC","800401","1001000100",""
"NCDMF",,2,"Anguillidae","Anguilla rostrata","CC1, WHITE OAK NARROWS","",34.767,-77.145,"NC","810804","1001000100",""
"NCDMF",,1,"Anguillidae","Anguilla rostrata","CC1, WHITE OAK NARROWS","",34.767,-77.145,"NC","950707","1001000100",""
"NCDMF",,1,"Anguillidae","Anguilla rostrata","CC1, WHITE OAK NARROWS","",34.767,-77.145,"NC","980511","1001000100",""
"NCDMF",,1,"Anguillidae","Anguilla rostrata","CC4, MID NEWPORT RIVER","",34.768,-76.721,"NC","790402","801001300",""
"NCDMF",,2,"Anguillidae","Anguilla rostrata","11, WHITE OAK NARROWS","",34.77389,-77.15306,"NC","721026","1001000100",""
"NCDMF",,3,"Anguillidae","Anguilla rostrata","11, WHITE OAK NARROWS","",34.77389,-77.15306,"NC","730302","1001000100",""
"NCDMF",,1,"Anguillidae","Anguilla rostrata","11, WHITE OAK NARROWS","",34.77389,-77.15306,"NC","730514","1001000100",""
"NCDMF",,4,"Anguillidae","Anguilla rostrata","11, WHITE OAK NARROWS","",34.77389,-77.15306,"NC","740327","1001000100",""
"NCDMF",,2,"Anguillidae","Anguilla rostrata","CC19, JARRETTS BAY","",34.786,-76.493,"NC","880816","601130000",""
"NCDMF",,1,"Anguillidae","Anguilla rostrata","46, NORTH RIVER BELOW BRIDGE","",34.789,-76.61,"NC","850507","702000300",""
"NCDMF",,1,"Anguillidae","Anguilla rostrata","42, HARLOWE CREEK","",34.792,-76.723,"NC","740211","801090000",""
"NCDMF",,1,"Anguillidae","Anguilla rostrata","47, WARD CREEK","",34.792,-76.565,"NC","750725","702030000",""
"NCDMF",,1,"Anguillidae","Anguilla rostrata","CC6, SMYRNA CREEK","",34.806,-76.481,"NC","721221","601130100",""
"NCDMF",,3,"Anguillidae","Anguilla rostrata","CC6, SMYRNA CREEK","",34.806,-76.481,"NC","780810","601130100",""
"NCDMF",,1,"Anguillidae","Anguilla rostrata","CC5, NORTH RIVER NARROWS","",34.818,-76.623,"NC","720921","702000200",""
"NCDMF",,1,"Anguillidae","Anguilla rostrata","CC5, NORTH RIVER NARROWS","",34.818,-76.623,"NC","730419","702000200",""
"NCDMF",,1,"Anguillidae","Anguilla rostrata","CC5, NORTH RIVER NARROWS","",34.818,-76.623,"NC","790307","702000200",""
"NCDMF",,1,"Anguillidae","Anguilla rostrata","CC5, NORTH RIVER NARROWS","",34.818,-76.623,"NC","791003","702000200",""
"NCDMF",,1,"Anguillidae","Anguilla rostrata","CC5, NORTH RIVER NARROWS","",34.818,-76.623,"NC","810406","702000200",""
"NCDMF",,1,"Anguillidae","Anguilla rostrata","CC5, NORTH RIVER NARROWS","",34.818,-76.623,"NC","860814","702000200",""
"NCDMF",,1,"Anguillidae","Anguilla rostrata","H8, MORTONS MILL POND","",34.864,-76.769,"NC","940606","535170200",""
"NCDMF",,1,"Anguillidae","Anguilla rostrata","H2, CLUBFOOT CREEK","",34.865,-76.762,"NC","740422","535170000",""
"NCDMF",,1,"Anguillidae","Anguilla rostrata","H2, CLUBFOOT CREEK","",34.865,-76.762,"NC","780911","535170000",""
"NCDMF",,1,"Anguillidae","Anguilla rostrata","H2, CLUBFOOT CREEK","",34.865,-76.762,"NC","790717","535170000",""
"NCDMF",,1,"Anguillidae","Anguilla rostrata","H2, CLUBFOOT CREEK","",34.865,-76.762,"NC","790823","535170000",""
"NCDMF",,2,"Anguillidae","Anguilla rostrata","H2, CLUBFOOT CREEK","",34.865,-76.762,"NC","810416","535170000",""
"NCDMF",,1,"Anguillidae","Anguilla rostrata","H2, CLUBFOOT CREEK","",34.865,-76.762,"NC","810608","535170000",""
"NCDMF",,1,"Anguillidae","Anguilla rostrata","H2, CLUBFOOT CREEK","",34.865,-76.762,"NC","810714","535170000",""
"NCDMF",,2,"Anguillidae","Anguilla rostrata","H2, CLUBFOOT CREEK","",34.865,-76.762,"NC","810810","535170000",""
"NCDMF",,1,"Anguillidae","Anguilla rostrata","H2, CLUBFOOT CREEK","",34.865,-76.762,"NC","820614","535170000",""
"NCDMF",,1,"Anguillidae","Anguilla rostrata","H2, CLUBFOOT CREEK","",34.865,-76.762,"NC","841008","535170000",""
"NCDMF",,1,"Anguillidae","Anguilla rostrata","H2, CLUBFOOT CREEK","",34.865,-76.762,"NC","860611","535170000",""
"NCDMF",,1,"Anguillidae","Anguilla rostrata","H2, CLUBFOOT CREEK","",34.865,-76.762,"NC","870727","535170000",""
"NCDMF",,1,"Anguillidae","Anguilla rostrata","H2, CLUBFOOT CREEK","",34.865,-76.762,"NC","880811","535170000",""
"NCDMF",,3,"Anguillidae","Anguilla rostrata","CC8, SALTERS CREEK","",34.893,-76.401,"NC","791004","601080400",""
"NCDMF",,1,"Anguillidae","Anguilla rostrata","H4, GULDEN CREEK","",34.898,-76.754,"NC","730604","535170300",""
"NCDMF",,1,"Anguillidae","Anguilla rostrata","G10, SOUTH RIVER","",34.9,-76.529,"NC","810526","535220000",""
"NCDMF",,1,"Anguillidae","Anguilla rostrata","H1, MITCHELL CREEK","",34.902,-76.772,"NC","730409","535170100",""
"NCDMF",,4,"Anguillidae","Anguilla rostrata","H1, MITCHELL CREEK","",34.902,-76.772,"NC","730604","535170100",""
"NCDMF",,1,"Anguillidae","Anguilla rostrata","H5, CLUBFOOT CREEK","",34.906,-76.76,"NC","730604","535170000",""
"NCDMF",,1,"Anguillidae","Anguilla rostrata","H5, CLUBFOOT CREEK","",34.906,-76.76,"NC","780413","535170000",""
"NCDMF",,1,"Anguillidae","Anguilla rostrata","H5, CLUBFOOT CREEK","",34.906,-76.76,"NC","820913","535170000",""
"NCDMF",,1,"Anguillidae","Anguilla rostrata","G11, SOUTHWEST CREEK","",34.911,-76.565,"NC","810608","535220300",""
"NCDMF",,2,"Anguillidae","Anguilla rostrata","G11, SOUTHWEST CREEK","",34.911,-76.565,"NC","820610","535220300",""
"NCDMF",,3,"Anguillidae","Anguilla rostrata","G11, SOUTHWEST CREEK","",34.911,-76.565,"NC","950606","535220300",""
"NCDMF",,1,"Anguillidae","Anguilla rostrata","G11, SOUTHWEST CREEK","",34.911,-76.565,"NC","960610","535220300",""
"NCDMF",,1,"Anguillidae","Anguilla rostrata","K1, HANCOCK CREEK","",34.918,-76.854,"NC","750630","535160000",""
"NCDMF",,1,"Anguillidae","Anguilla rostrata","K1, HANCOCK CREEK","",34.918,-76.854,"NC","780414","535160000",""
"NCDMF",,2,"Anguillidae","Anguilla rostrata","K1, HANCOCK CREEK","",34.918,-76.854,"NC","780711","535160000",""
"NCDMF",,3,"Anguillidae","Anguilla rostrata","K1, HANCOCK CREEK","",34.918,-76.854,"NC","780815","535160000",""
"NCDMF",,1,"Anguillidae","Anguilla rostrata","K1, HANCOCK CREEK","",34.918,-76.854,"NC","780911","535160000",""
"NCDMF",,1,"Anguillidae","Anguilla rostrata","431, SLOCUM CREEK","",34.919,-76.908,"NC","760709","535150000",""
"NCDMF",,1,"Anguillidae","Anguilla rostrata","431, SLOCUM CREEK","",34.919,-76.908,"NC","770906","535150000",""
"NCDMF",,1,"Anguillidae","Anguilla rostrata","NR14, CAHOOGUE CREEK","",34.919,-76.849,"NC","880809","535160300",""
"NCDMF",,1,"Anguillidae","Anguilla rostrata","S46, EAST THOROFARE BAY","",34.92294,-76.32108,"NC","880531","601040000",""
"NCDMF",,2,"Anguillidae","Anguilla rostrata","S46, EAST THOROFARE BAY","",34.92294,-76.32108,"NC","880812","601040000",""
"NCDMF",,1,"Anguillidae","Anguilla rostrata","CC9, GOLDEN CREEK","",34.923,-76.437,"NC","781020","537030200",""
"NCDMF",,1,"Anguillidae","Anguilla rostrata","CC9, GOLDEN CREEK","",34.923,-76.437,"NC","800408","537030200",""
"NCDMF",,1,"Anguillidae","Anguilla rostrata","CC9, GOLDEN CREEK","",34.923,-76.437,"NC","800609","537030200",""
"NCDMF",,1,"Anguillidae","Anguilla rostrata","CC10, E. THOROFARE CK(MERKLE HAMMOCK)","",34.923,-76.359,"NC","820608","601040200",""
"NCDMF",,1,"Anguillidae","Anguilla rostrata","CC9, GOLDEN CREEK","",34.923,-76.437,"NC","850505","537030200",""
"NCDMF",,3,"Anguillidae","Anguilla rostrata","CC10, E. THOROFARE CK(MERKLE HAMMOCK)","",34.923,-76.359,"NC","990604","601040200",""
"NCDMF",,1,"Anguillidae","Anguilla rostrata","435, HANCOCK CREEK","",34.924,-76.852,"NC","770627","535160000",""
"NCDMF",,3,"Anguillidae","Anguilla rostrata","NR11, HANCOCK CREEK","",34.935,-76.852,"NC","780808","535160000",""
"NCDMF",,2,"Anguillidae","Anguilla rostrata","NR11, HANCOCK CREEK","",34.935,-76.852,"NC","790630","535160000",""
"NCDMF",,1,"Anguillidae","Anguilla rostrata","NR11, HANCOCK CREEK","",34.935,-76.852,"NC","790824","535160000",""
"NCDMF",,1,"Anguillidae","Anguilla rostrata","NR11, HANCOCK CREEK","",34.935,-76.852,"NC","800527","535160000",""
"NCDMF",,1,"Anguillidae","Anguilla rostrata","NR11, HANCOCK CREEK","",34.935,-76.852,"NC","860611","535160000",""
"NCDMF",,5,"Anguillidae","Anguilla rostrata","NR11, HANCOCK CREEK","",34.935,-76.852,"NC","990512","535160000",""
"NCDMF",,2,"Anguillidae","Anguilla rostrata","J10, CODDUGGEN CREEK","",34.937,-76.406,"NC","810810","537040100",""
"NCDMF",,2,"Anguillidae","Anguilla rostrata","G19, JONAQUIN CREEK","",34.94,-76.637,"NC","810608","535200701",""
"NCDMF",,1,"Anguillidae","Anguilla rostrata","G19, JONAQUIN CREEK","",34.94,-76.637,"NC","810917","535200701",""
"NCDMF",,1,"Anguillidae","Anguilla rostrata","K3, SLOCUM CREEK","",34.944,-76.909,"NC","780815","535150000",""
"NCDMF",,1,"Anguillidae","Anguilla rostrata","K3, SLOCUM CREEK","",34.944,-76.909,"NC","781023","535150000",""
"NCDMF",,1,"Anguillidae","Anguilla rostrata","432, TUCKER CREEK","",34.946,-76.912,"NC","770627","535150200",""
"NCDMF",,6,"Anguillidae","Anguilla rostrata","G21, ADAMS CREEK","",34.947,-76.667,"NC","730425","535200000",""
"NCDMF",,1,"Anguillidae","Anguilla rostrata","G21, ADAMS CREEK","",34.947,-76.667,"NC","800311","535200000",""
"NCDMF",,1,"Anguillidae","Anguilla rostrata","G21, ADAMS CREEK","",34.947,-76.667,"NC","810810","535200000",""
"NCDMF",,2,"Anguillidae","Anguilla rostrata","G21, ADAMS CREEK","",34.947,-76.667,"NC","830512","535200000",""
"NCDMF",,1,"Anguillidae","Anguilla rostrata","G21, ADAMS CREEK","",34.947,-76.667,"NC","860611","535200000",""
"NCDMF",,1,"Anguillidae","Anguilla rostrata","CC11, SOUTHWEST PRONG","",34.95,-76.289,"NC","810410","601020100",""
"NCDMF",,1,"Anguillidae","Anguilla rostrata","G16, BIG CREEK","",34.95,-76.591,"NC","810608","535220200",""
"NCDMF",,1,"Anguillidae","Anguilla rostrata","CC11, SOUTHWEST PRONG","",34.95,-76.289,"NC","811009","601020100",""
"NCDMF",,1,"Anguillidae","Anguilla rostrata","CC11, SOUTHWEST PRONG","",34.95,-76.289,"NC","870720","601020100",""
"NCDMF",,2,"Anguillidae","Anguilla rostrata","G16, BIG CREEK","",34.95,-76.591,"NC","880518","535220200",""
"NCDMF",,3,"Anguillidae","Anguilla rostrata","G16, BIG CREEK","",34.95,-76.591,"NC","880607","535220200",""
"NCDMF",,9,"Anguillidae","Anguilla rostrata","G16, BIG CREEK","",34.95,-76.591,"NC","900507","535220200",""
"NCDMF",,5,"Anguillidae","Anguilla rostrata","G16, BIG CREEK","",34.95,-76.591,"NC","900605","535220200",""
"NCDMF",,1,"Anguillidae","Anguilla rostrata","G16, BIG CREEK","",34.95,-76.591,"NC","900710","535220200",""
"NCDMF",,5,"Anguillidae","Anguilla rostrata","G16, BIG CREEK","",34.95,-76.591,"NC","920512","535220200",""
"NCDMF",,3,"Anguillidae","Anguilla rostrata","G16, BIG CREEK","",34.95,-76.591,"NC","920616","535220200",""
"NCDMF",,1,"Anguillidae","Anguilla rostrata","G16, BIG CREEK","",34.95,-76.591,"NC","990510","535220200",""
"NCDMF",,2,"Anguillidae","Anguilla rostrata","K4, SLOCUM CREEK","",34.953,-76.902,"NC","730607","535150000",""
"NCDMF",,1,"Anguillidae","Anguilla rostrata","K4, SLOCUM CREEK","",34.953,-76.902,"NC","750630","535150000",""
"NCDMF",,3,"Anguillidae","Anguilla rostrata","NR10, SLOCUM CREEK","",34.954,-76.895,"NC","780808","535150000",""
"NCDMF",,2,"Anguillidae","Anguilla rostrata","NR10, SLOCUM CREEK","",34.954,-76.895,"NC","790630","535150000",""
"NCDMF",,1,"Anguillidae","Anguilla rostrata","NR10, SLOCUM CREEK","",34.954,-76.895,"NC","800331","535150000",""
"NCDMF",,1,"Anguillidae","Anguilla rostrata","NR10, SLOCUM CREEK","",34.954,-76.895,"NC","830512","535150000",""
"NCDMF",,1,"Anguillidae","Anguilla rostrata","NR10, SLOCUM CREEK","",34.954,-76.895,"NC","850815","535150000",""
"NCDMF",,3,"Anguillidae","Anguilla rostrata","M11, MOUTH TO CHERRY PT/WILKINSON PT.","",34.956,-76.761,"NC","730320","535000100",""
"NCDMF",,5,"Anguillidae","Anguilla rostrata","M11, MOUTH TO CHERRY PT/WILKINSON PT.","",34.956,-76.761,"NC","730417","535000100",""
"NCDMF",,12,"Anguillidae","Anguilla rostrata","J13, MERKLE BAY","",34.958,-76.373,"NC","830506","537050000",""
"NCDMF",,2,"Anguillidae","Anguilla rostrata","J13, MERKLE BAY","",34.958,-76.373,"NC","840509","537050000",""
"NCDMF",,1,"Anguillidae","Anguilla rostrata","M12, CHERRY PT/WILK. PT TO NEW BERN","",34.959,-76.832,"NC","730320","535000200",""
"NCDMF",,3,"Anguillidae","Anguilla rostrata","M12, CHERRY PT/WILK. PT TO NEW BERN","",34.959,-76.832,"NC","730417","535000200",""
"NCDMF",,2,"Anguillidae","Anguilla rostrata","M12, CHERRY PT/WILK. PT TO NEW BERN","",34.959,-76.832,"NC","730530","535000200",""
"NCDMF",,1,"Anguillidae","Anguilla rostrata","J12, WEST THOROFARE BAY","",34.961,-76.393,"NC","881103","537040000",""
"NCDMF",,3,"Anguillidae","Anguilla rostrata","G15, HARDY CREEK","",34.962,-76.594,"NC","810810","535220100",""
"NCDMF",,1,"Anguillidae","Anguilla rostrata","G15, HARDY CREEK","",34.962,-76.594,"NC","820810","535220100",""
"NCDMF",,1,"Anguillidae","Anguilla rostrata","G15, HARDY CREEK","",34.962,-76.594,"NC","830809","535220100",""
"NCDMF",,1,"Anguillidae","Anguilla rostrata","CC0, CEDAR ISLAND BAY","",34.977,-76.267,"NC","800707","601010000",""
"NCDMF",,2,"Anguillidae","Anguilla rostrata","G3, PARSON’S CREEK","",34.979,-76.507,"NC","780713","535240600",""
"NCDMF",,1,"Anguillidae","Anguilla rostrata","G3, PARSON’S CREEK","",34.979,-76.507,"NC","791004","535240600",""
"NCDMF",,1,"Anguillidae","Anguilla rostrata","G3, PARSON’S CREEK","",34.979,-76.507,"NC","860513","535240600",""
"NCDMF",,2,"Anguillidae","Anguilla rostrata","M13, CHERRY PT/WILK. PT TO NEW BERN","",34.982,-76.884,"NC","730320","535000200",""
"NCDMF",,1,"Anguillidae","Anguilla rostrata","M13, CHERRY PT/WILK. PT TO NEW BERN","",34.982,-76.884,"NC","730417","535000200",""
"NCDMF",,1,"Anguillidae","Anguilla rostrata","G14, HORTON BAY","",34.99,-76.576,"NC","830512","535220600",""
"NCDMF",,2,"Anguillidae","Anguilla rostrata","G14, HORTON BAY","",34.99,-76.576,"NC","990510","535220600",""
"NCDMF",,4,"Anguillidae","Anguilla rostrata","F24, DAWSON CREEK","",34.994,-76.752,"NC","880518","535090000",""
"NCDMF",,4,"Anguillidae","Anguilla rostrata","F24, DAWSON CREEK","",34.994,-76.752,"NC","880711","535090000",""
"NCDMF",,1,"Anguillidae","Anguilla rostrata","F22, DAWSON CREEK","",34.998,-76.756,"NC","730604","535090000",""
"NCDMF",,1,"Anguillidae","Anguilla rostrata","F22, DAWSON CREEK","",34.998,-76.756,"NC","730824","535090000",""
"NCDMF",,1,"Anguillidae","Anguilla rostrata","F22, DAWSON CREEK","",34.998,-76.756,"NC","750630","535090000",""
"NCDMF",,1,"Anguillidae","Anguilla rostrata","F22, DAWSON CREEK","",34.998,-76.756,"NC","820317","535090000",""
"NCDMF",,1,"Anguillidae","Anguilla rostrata","F22, DAWSON CREEK","",34.998,-76.756,"NC","820716","535090000",""
"NCDMF",,1,"Anguillidae","Anguilla rostrata","F22, DAWSON CREEK","",34.998,-76.756,"NC","820812","535090000",""
"NCDMF",,9,"Anguillidae","Anguilla rostrata","F25, DAWSON CREEK","",35.004,-76.75397,"NC","880518","535090000",""
"NCDMF",,1,"Anguillidae","Anguilla rostrata","M10, GARBACON SHOAL","",35.005,-76.662,"NC","730417","500420000",""
"NCDMF",,1,"Anguillidae","Anguilla rostrata","NR7, BEARD CREEK","",35.005,-76.868,"NC","780808","535100000",""
"NCDMF",,1,"Anguillidae","Anguilla rostrata","NR7, BEARD CREEK","",35.005,-76.868,"NC","780926","535100000",""
"NCDMF",,2,"Anguillidae","Anguilla rostrata","NR7, BEARD CREEK","",35.005,-76.868,"NC","790530","535100000",""
"NCDMF",,1,"Anguillidae","Anguilla rostrata","NR7, BEARD CREEK","",35.005,-76.868,"NC","790630","535100000",""
"NCDMF",,1,"Anguillidae","Anguilla rostrata","NR7, BEARD CREEK","",35.005,-76.868,"NC","790717","535100000",""
"NCDMF",,2,"Anguillidae","Anguilla rostrata","F27, DAWSON CREEK","",35.005,-76.759,"NC","871007","535090000",""
"NCDMF",,3,"Anguillidae","Anguilla rostrata","F27, DAWSON CREEK","",35.005,-76.759,"NC","880808","535090000",""
"NCDMF",,3,"Anguillidae","Anguilla rostrata","F27, DAWSON CREEK","",35.005,-76.759,"NC","890613","535090000",""
"NCDMF",,1,"Anguillidae","Anguilla rostrata","F27, DAWSON CREEK","",35.005,-76.759,"NC","890719","535090000",""
"NCDMF",,4,"Anguillidae","Anguilla rostrata","F27, DAWSON CREEK","",35.005,-76.759,"NC","890811","535090000",""
"NCDMF",,1,"Anguillidae","Anguilla rostrata","F21, DAWSON CREEK","",35.007,-76.778,"NC","730604","535090000",""
"NCDMF",,4,"Anguillidae","Anguilla rostrata","F21, DAWSON CREEK","",35.007,-76.778,"NC","820317","535090000",""
"NCDMF",,2,"Anguillidae","Anguilla rostrata","F21, DAWSON CREEK","",35.007,-76.778,"NC","820716","535090000",""
"NCDMF",,1,"Anguillidae","Anguilla rostrata","F21, DAWSON CREEK","",35.007,-76.778,"NC","820914","535090000",""
"NCDMF",,2,"Anguillidae","Anguilla rostrata","F21, DAWSON CREEK","",35.007,-76.778,"NC","821015","535090000",""
"NCDMF",,1,"Anguillidae","Anguilla rostrata","L2, BEARD CREEK","",35.008,-76.868,"NC","730601","535100000",""
"NCDMF",,5,"Anguillidae","Anguilla rostrata","M14, CHERRY PT/WILK. PT TO NEW BERN","",35.009,-76.933,"NC","730320","535000200",""
"NCDMF",,1,"Anguillidae","Anguilla rostrata","M14, CHERRY PT/WILK. PT TO NEW BERN","",35.009,-76.933,"NC","730417","535000200",""
"NCDMF",,1,"Anguillidae","Anguilla rostrata","F20, TARKILN CREEK","",35.011,-76.76,"NC","730409","535090100",""
"NCDMF",,1,"Anguillidae","Anguilla rostrata","F20, TARKILN CREEK","",35.011,-76.76,"NC","730507","535090100",""
"NCDMF",,1,"Anguillidae","Anguilla rostrata","F20, TARKILN CREEK","",35.011,-76.76,"NC","820616","535090100",""
"NCDMF",,2,"Anguillidae","Anguilla rostrata","F20, TARKILN CREEK","",35.011,-76.76,"NC","820716","535090100",""
"NCDMF",,1,"Anguillidae","Anguilla rostrata","F20, TARKILN CREEK","",35.011,-76.76,"NC","840514","535090100",""
"NCDMF",,1,"Anguillidae","Anguilla rostrata","F20, TARKILN CREEK","",35.011,-76.76,"NC","840719","535090100",""
"NCDMF",,1,"Anguillidae","Anguilla rostrata","L1, BEARD CREEK","",35.017,-76.867,"NC","730601","535100000",""
"NCDMF",,1,"Anguillidae","Anguilla rostrata","L1, BEARD CREEK","",35.017,-76.867,"NC","780523","535100000",""
"NCDMF",,1,"Anguillidae","Anguilla rostrata","L1, BEARD CREEK","",35.017,-76.867,"NC","780628","535100000",""
"NCDMF",,1,"Anguillidae","Anguilla rostrata","F14, GREENS CREEK","",35.025,-76.713,"NC","720906","535080000",""
"NCDMF",,1,"Anguillidae","Anguilla rostrata","M15, CHERRY PT/WILK. PT TO NEW BERN","",35.025,-76.962,"NC","720913","535000200",""
"NCDMF",,3,"Anguillidae","Anguilla rostrata","M15, CHERRY PT/WILK. PT TO NEW BERN","",35.025,-76.962,"NC","730320","535000200",""
"NCDMF",,1,"Anguillidae","Anguilla rostrata","M15, CHERRY PT/WILK. PT TO NEW BERN","",35.025,-76.962,"NC","730417","535000200",""
"NCDMF",,3,"Anguillidae","Anguilla rostrata","F14, GREENS CREEK","",35.025,-76.713,"NC","730614","535080000",""
"NCDMF",,12,"Anguillidae","Anguilla rostrata","F14, GREENS CREEK","",35.025,-76.713,"NC","730711","535080000",""
"NCDMF",,2,"Anguillidae","Anguilla rostrata","F14, GREENS CREEK","",35.025,-76.713,"NC","780417","535080000",""
"NCDMF",,5,"Anguillidae","Anguilla rostrata","F14, GREENS CREEK","",35.025,-76.713,"NC","780511","535080000",""
"NCDMF",,3,"Anguillidae","Anguilla rostrata","F14, GREENS CREEK","",35.025,-76.713,"NC","780612","535080000",""
"NCDMF",,4,"Anguillidae","Anguilla rostrata","F14, GREENS CREEK","",35.025,-76.713,"NC","780717","535080000",""
"NCDMF",,6,"Anguillidae","Anguilla rostrata","F14, GREENS CREEK","",35.025,-76.713,"NC","780815","535080000",""
"NCDMF",,4,"Anguillidae","Anguilla rostrata","F14, GREENS CREEK","",35.025,-76.713,"NC","790518","535080000",""
"NCDMF",,28,"Anguillidae","Anguilla rostrata","F14, GREENS CREEK","",35.025,-76.713,"NC","790622","535080000",""
"NCDMF",,19,"Anguillidae","Anguilla rostrata","F14, GREENS CREEK","",35.025,-76.713,"NC","790718","535080000",""
"NCDMF",,4,"Anguillidae","Anguilla rostrata","F14, GREENS CREEK","",35.025,-76.713,"NC","790823","535080000",""
"NCDMF",,10,"Anguillidae","Anguilla rostrata","F14, GREENS CREEK","",35.025,-76.713,"NC","790926","535080000",""
"NCDMF",,1,"Anguillidae","Anguilla rostrata","F14, GREENS CREEK","",35.025,-76.713,"NC","791025","535080000",""
"NCDMF",,6,"Anguillidae","Anguilla rostrata","F14, GREENS CREEK","",35.025,-76.713,"NC","800528","535080000",""
"NCDMF",,1,"Anguillidae","Anguilla rostrata","F14, GREENS CREEK","",35.025,-76.713,"NC","800613","535080000",""
"NCDMF",,3,"Anguillidae","Anguilla rostrata","F14, GREENS CREEK","",35.025,-76.713,"NC","800813","535080000",""
"NCDMF",,7,"Anguillidae","Anguilla rostrata","F14, GREENS CREEK","",35.025,-76.713,"NC","800910","535080000",""
"NCDMF",,12,"Anguillidae","Anguilla rostrata","F14, GREENS CREEK","",35.025,-76.713,"NC","810609","535080000",""
"NCDMF",,2,"Anguillidae","Anguilla rostrata","F14, GREENS CREEK","",35.025,-76.713,"NC","810813","535080000",""
"NCDMF",,8,"Anguillidae","Anguilla rostrata","F14, GREENS CREEK","",35.025,-76.713,"NC","810911","535080000",""
"NCDMF",,4,"Anguillidae","Anguilla rostrata","F14, GREENS CREEK","",35.025,-76.713,"NC","811015","535080000",""
"NCDMF",,2,"Anguillidae","Anguilla rostrata","F14, GREENS CREEK","",35.025,-76.713,"NC","820616","535080000",""
"NCDMF",,3,"Anguillidae","Anguilla rostrata","F14, GREENS CREEK","",35.025,-76.713,"NC","821015","535080000",""
"NCDMF",,1,"Anguillidae","Anguilla rostrata","F14, GREENS CREEK","",35.025,-76.713,"NC","830518","535080000",""
"NCDMF",,2,"Anguillidae","Anguilla rostrata","F14, GREENS CREEK","",35.025,-76.713,"NC","830613","535080000",""
"NCDMF",,1,"Anguillidae","Anguilla rostrata","F14, GREENS CREEK","",35.025,-76.713,"NC","831109","535080000",""
"NCDMF",,1,"Anguillidae","Anguilla rostrata","F14, GREENS CREEK","",35.025,-76.713,"NC","840514","535080000",""
"NCDMF",,2,"Anguillidae","Anguilla rostrata","F14, GREENS CREEK","",35.025,-76.713,"NC","840611","535080000",""
"NCDMF",,1,"Anguillidae","Anguilla rostrata","F14, GREENS CREEK","",35.025,-76.713,"NC","840817","535080000",""
"NCDMF",,1,"Anguillidae","Anguilla rostrata","F14, GREENS CREEK","",35.025,-76.713,"NC","850816","535080000",""
"NCDMF",,1,"Anguillidae","Anguilla rostrata","F14, GREENS CREEK","",35.025,-76.713,"NC","850910","535080000",""
"NCDMF",,1,"Anguillidae","Anguilla rostrata","F14, GREENS CREEK","",35.025,-76.713,"NC","880808","535080000",""
"NCDMF",,2,"Anguillidae","Anguilla rostrata","F14, GREENS CREEK","",35.025,-76.713,"NC","890512","535080000",""
"NCDMF",,1,"Anguillidae","Anguilla rostrata","F14, GREENS CREEK","",35.025,-76.713,"NC","890613","535080000",""
"NCDMF",,1,"Anguillidae","Anguilla rostrata","F14, GREENS CREEK","",35.025,-76.713,"NC","890907","535080000",""
"NCDMF",,1,"Anguillidae","Anguilla rostrata","F13, GREENS CREEK","",35.02657,-76.73575,"NC","730614","535080000",""
"NCDMF",,5,"Anguillidae","Anguilla rostrata","F13, GREENS CREEK","",35.02657,-76.73575,"NC","820415","535080000",""
"NCDMF",,1,"Anguillidae","Anguilla rostrata","F13, GREENS CREEK","",35.02657,-76.73575,"NC","820518","535080000",""
"NCDMF",,1,"Anguillidae","Anguilla rostrata","F39, UNNAMED GUT ON W. SIDE OF SMITH CREEK","",35.036,-76.707,"NC","900514","535080203",""
"NCDMF",,1,"Anguillidae","Anguilla rostrata","422S, CHERRY PT/WILK. PT TO NEW BERN","",35.037,-76.986,"NC","761012","535000200",""
"NCDMF",,1,"Anguillidae","Anguilla rostrata","F12, KERSHAW CREEK","",35.03845,-76.72517,"NC","730912","535080300",""
"NCDMF",,3,"Anguillidae","Anguilla rostrata","F12, KERSHAW CREEK","",35.03845,-76.72517,"NC","780815","535080300",""
"NCDMF",,1,"Anguillidae","Anguilla rostrata","F12, KERSHAW CREEK","",35.03845,-76.72517,"NC","780912","535080300",""
"NCDMF",,2,"Anguillidae","Anguilla rostrata","F12, KERSHAW CREEK","",35.03845,-76.72517,"NC","810512","535080300",""
"NCDMF",,1,"Anguillidae","Anguilla rostrata","F12, KERSHAW CREEK","",35.03845,-76.72517,"NC","810813","535080300",""
"NCDMF",,3,"Anguillidae","Anguilla rostrata","F12, KERSHAW CREEK","",35.03845,-76.72517,"NC","810911","535080300",""
"NCDMF",,1,"Anguillidae","Anguilla rostrata","F12, KERSHAW CREEK","",35.03845,-76.72517,"NC","850509","535080300",""
"NCDMF",,2,"Anguillidae","Anguilla rostrata","F12, KERSHAW CREEK","",35.03845,-76.72517,"NC","870506","535080300",""
"NCDMF",,1,"Anguillidae","Anguilla rostrata","F12, KERSHAW CREEK","",35.03845,-76.72517,"NC","880422","535080300",""
"NCDMF",,1,"Anguillidae","Anguilla rostrata","F12, KERSHAW CREEK","",35.03845,-76.72517,"NC","890613","535080300",""
"NCDMF",,1,"Anguillidae","Anguilla rostrata","F12, KERSHAW CREEK","",35.03845,-76.72517,"NC","940525","535080300",""
"NCDMF",,1,"Anguillidae","Anguilla rostrata","F12, KERSHAW CREEK","",35.03845,-76.72517,"NC","970508","535080300",""
"NCDMF",,1,"Anguillidae","Anguilla rostrata","F11, SMITH CREEK","",35.039,-76.706,"NC","730614","535080200",""
"NCDMF",,1,"Anguillidae","Anguilla rostrata","F3D, PIERCE CREEK","",35.03977,-76.6694,"NC","780511","535060000",""
"NCDMF",,1,"Anguillidae","Anguilla rostrata","F3D, PIERCE CREEK","",35.03977,-76.6694,"NC","790518","535060000",""
"NCDMF",,1,"Anguillidae","Anguilla rostrata","F3D, PIERCE CREEK","",35.03977,-76.6694,"NC","790823","535060000",""
"NCDMF",,1,"Anguillidae","Anguilla rostrata","F3D, PIERCE CREEK","",35.03977,-76.6694,"NC","800716","535060000",""
"NCDMF",,1,"Anguillidae","Anguilla rostrata","F3D, PIERCE CREEK","",35.03977,-76.6694,"NC","810609","535060000",""
"NCDMF",,1,"Anguillidae","Anguilla rostrata","F3D, PIERCE CREEK","",35.03977,-76.6694,"NC","811015","535060000",""
"NCDMF",,1,"Anguillidae","Anguilla rostrata","F3D, PIERCE CREEK","",35.03977,-76.6694,"NC","820719","535060000",""
"NCDMF",,1,"Anguillidae","Anguilla rostrata","F3D, PIERCE CREEK","",35.03977,-76.6694,"NC","820813","535060000",""
"NCDMF",,1,"Anguillidae","Anguilla rostrata","F3D, PIERCE CREEK","",35.03977,-76.6694,"NC","830712","535060000",""
"NCDMF",,1,"Anguillidae","Anguilla rostrata","F3D, PIERCE CREEK","",35.03977,-76.6694,"NC","830912","535060000",""
"NCDMF",,1,"Anguillidae","Anguilla rostrata","F3D, PIERCE CREEK","",35.03977,-76.6694,"NC","840819","535060000",""
"NCDMF",,1,"Anguillidae","Anguilla rostrata","F3D, PIERCE CREEK","",35.03977,-76.6694,"NC","920603","535060000",""
"NCDMF",,2,"Anguillidae","Anguilla rostrata","F3D, PIERCE CREEK","",35.03977,-76.6694,"NC","960604","535060000",""
"NCDMF",,3,"Anguillidae","Anguilla rostrata","F3, PIERCE CREEK","",35.042,-76.667,"NC","730525","535060000",""
"NCDMF",,1,"Anguillidae","Anguilla rostrata","F3N, PIERCE CREEK","",35.04347,-76.66618,"NC","780417","535060000",""
"NCDMF",,1,"Anguillidae","Anguilla rostrata","F3N, PIERCE CREEK","",35.04347,-76.66618,"NC","780511","535060000",""
"NCDMF",,1,"Anguillidae","Anguilla rostrata","F3N, PIERCE CREEK","",35.04347,-76.66618,"NC","780612","535060000",""
"NCDMF",,2,"Anguillidae","Anguilla rostrata","F3N, PIERCE CREEK","",35.04347,-76.66618,"NC","780717","535060000",""
"NCDMF",,1,"Anguillidae","Anguilla rostrata","F3N, PIERCE CREEK","",35.04347,-76.66618,"NC","810609","535060000",""
"NCDMF",,1,"Anguillidae","Anguilla rostrata","F3N, PIERCE CREEK","",35.04347,-76.66618,"NC","810713","535060000",""
"NCDMF",,1,"Anguillidae","Anguilla rostrata","F10, SMITH CREEK","",35.0468,-76.70997,"NC","730614","535080200",""
"NCDMF",,4,"Anguillidae","Anguilla rostrata","NR6, GOOSE CREEK","",35.047,-76.93,"NC","780707","535110000",""
"NCDMF",,1,"Anguillidae","Anguilla rostrata","NR5, GOOSE CREEK","",35.054,-76.919,"NC","870622","535110000",""
"NCDMF",,1,"Anguillidae","Anguilla rostrata","F2, ORCHARD CREEK","",35.057,-76.64,"NC","720905","535050000",""
"NCDMF",,1,"Anguillidae","Anguilla rostrata","426, GOOSE CREEK","",35.057,-76.917,"NC","770705","535110000",""
"NCDMF",,1,"Anguillidae","Anguilla rostrata","F1, ORCHARD CREEK","",35.06353,-76.64548,"NC","810609","535050000",""
"NCDMF",,1,"Anguillidae","Anguilla rostrata","F1, ORCHARD CREEK","",35.06353,-76.64548,"NC","810713","535050000",""
"NCDMF",,1,"Anguillidae","Anguilla rostrata","F1, ORCHARD CREEK","",35.06353,-76.64548,"NC","820719","535050000",""
"NCDMF",,1,"Anguillidae","Anguilla rostrata","F1, ORCHARD CREEK","",35.06353,-76.64548,"NC","821015","535050000",""
"NCDMF",,1,"Anguillidae","Anguilla rostrata","F1, ORCHARD CREEK","",35.06353,-76.64548,"NC","830518","535050000",""
"NCDMF",,1,"Anguillidae","Anguilla rostrata","F1, ORCHARD CREEK","",35.06353,-76.64548,"NC","850815","535050000",""
"NCDMF",,1,"Anguillidae","Anguilla rostrata","F1, ORCHARD CREEK","",35.06353,-76.64548,"NC","880713","535050000",""
"NCDMF",,3,"Anguillidae","Anguilla rostrata","F1, ORCHARD CREEK","",35.06353,-76.64548,"NC","910604","535050000",""
"NCDMF",,1,"Anguillidae","Anguilla rostrata","F1, ORCHARD CREEK","",35.06353,-76.64548,"NC","920717","535050000",""
"NCDMF",,1,"Anguillidae","Anguilla rostrata","F1, ORCHARD CREEK","",35.06353,-76.64548,"NC","930609","535050000",""
"NCDMF",,1,"Anguillidae","Anguilla rostrata","F1, ORCHARD CREEK","",35.06353,-76.64548,"NC","940615","535050000",""
"NCDMF",,1,"Anguillidae","Anguilla rostrata","F1, ORCHARD CREEK","",35.06353,-76.64548,"NC","940713","535050000",""
"NCDMF",,2,"Anguillidae","Anguilla rostrata","F1, ORCHARD CREEK","",35.06353,-76.64548,"NC","950719","535050000",""
"NCDMF",,2,"Anguillidae","Anguilla rostrata","F1, ORCHARD CREEK","",35.06353,-76.64548,"NC","960515","535050000",""
"NCDMF",,1,"Anguillidae","Anguilla rostrata","F5, ORCHARD CREEK","",35.064,-76.652,"NC","730809","535050000",""
"NCDMF",,1,"Anguillidae","Anguilla rostrata","F43, BRIGHT CREEK","",35.064,-76.64,"NC","970619","535050200",""
"NCDMF",,2,"Anguillidae","Anguilla rostrata","L5, NORTHWEST CREEK","",35.068,-76.971,"NC","730221","535130000",""
"NCDMF",,1,"Anguillidae","Anguilla rostrata","NR15, GOLF COURSE GUT","",35.069,-76.944,"NC","870518","535120100",""
"NCDMF",,3,"Anguillidae","Anguilla rostrata","M16, CHERRY PT/WILK. PT TO NEW BERN","",35.074,-77.003,"NC","730320","535000200",""
"NCDMF",,7,"Anguillidae","Anguilla rostrata","M16, CHERRY PT/WILK. PT TO NEW BERN","",35.074,-77.003,"NC","730417","535000200",""
"NCDMF",,1,"Anguillidae","Anguilla rostrata","M16, CHERRY PT/WILK. PT TO NEW BERN","",35.074,-77.003,"NC","730626","535000200",""
"NCDMF",,1,"Anguillidae","Anguilla rostrata","E10, UPPER BROAD CREEK","",35.08245,-76.6578,"NC","790619","535030600",""
"NCDMF",,2,"Anguillidae","Anguilla rostrata","E10, UPPER BROAD CREEK","",35.08245,-76.6578,"NC","790823","535030600",""
"NCDMF",,1,"Anguillidae","Anguilla rostrata","E10, UPPER BROAD CREEK","",35.08245,-76.6578,"NC","790911","535030600",""
"NCDMF",,2,"Anguillidae","Anguilla rostrata","E10, UPPER BROAD CREEK","",35.08245,-76.6578,"NC","791009","535030600",""
"NCDMF",,1,"Anguillidae","Anguilla rostrata","E10, UPPER BROAD CREEK","",35.08245,-76.6578,"NC","810512","535030600",""
"NCDMF",,1,"Anguillidae","Anguilla rostrata","E10, UPPER BROAD CREEK","",35.08245,-76.6578,"NC","810713","535030600",""
"NCDMF",,3,"Anguillidae","Anguilla rostrata","E10, UPPER BROAD CREEK","",35.08245,-76.6578,"NC","810813","535030600",""
"NCDMF",,1,"Anguillidae","Anguilla rostrata","E10, UPPER BROAD CREEK","",35.08245,-76.6578,"NC","811015","535030600",""
"NCDMF",,1,"Anguillidae","Anguilla rostrata","E10, UPPER BROAD CREEK","",35.08245,-76.6578,"NC","820419","535030600",""
"NCDMF",,1,"Anguillidae","Anguilla rostrata","E10, UPPER BROAD CREEK","",35.08245,-76.6578,"NC","880622","535030600",""
"NCDMF",,1,"Anguillidae","Anguilla rostrata","E10, UPPER BROAD CREEK","",35.08245,-76.6578,"NC","910604","535030600",""
"NCDMF",,1,"Anguillidae","Anguilla rostrata","E25, UPPER UNNAMED GUT E. OF SKATE POINT","",35.087,-76.617,"NC","900517","535031400",""
"NCDMF",,2,"Anguillidae","Anguilla rostrata","NR4, CHERRY PT/WILK. PT TO NEW BERN","",35.088,-77.023,"NC","760810","535000200",""
"NCDMF",,1,"Anguillidae","Anguilla rostrata","NR4, CHERRY PT/WILK. PT TO NEW BERN","",35.088,-77.023,"NC","771117","535000200",""
"NCDMF",,1,"Anguillidae","Anguilla rostrata","NR4, CHERRY PT/WILK. PT TO NEW BERN","",35.088,-77.023,"NC","780612","535000200",""
"NCDMF",,1,"Anguillidae","Anguilla rostrata","NR4, CHERRY PT/WILK. PT TO NEW BERN","",35.088,-77.023,"NC","780707","535000200",""
"NCDMF",,1,"Anguillidae","Anguilla rostrata","NR4, CHERRY PT/WILK. PT TO NEW BERN","",35.088,-77.023,"NC","800331","535000200",""
"NCDMF",,1,"Anguillidae","Anguilla rostrata","E12, BROAD CREEK","",35.089,-76.608,"NC","780419","535030000",""
"NCDMF",,2,"Anguillidae","Anguilla rostrata","E12, BROAD CREEK","",35.089,-76.608,"NC","780517","535030000",""
"NCDMF",,1,"Anguillidae","Anguilla rostrata","E12, BROAD CREEK","",35.089,-76.608,"NC","780613","535030000",""
"NCDMF",,1,"Anguillidae","Anguilla rostrata","E12, BROAD CREEK","",35.089,-76.608,"NC","780717","535030000",""
"NCDMF",,1,"Anguillidae","Anguilla rostrata","E12, BROAD CREEK","",35.089,-76.608,"NC","790529","535030000",""
"NCDMF",,1,"Anguillidae","Anguilla rostrata","E12, BROAD CREEK","",35.089,-76.608,"NC","790619","535030000",""
"NCDMF",,1,"Anguillidae","Anguilla rostrata","E12, BROAD CREEK","",35.089,-76.608,"NC","790712","535030000",""
"NCDMF",,1,"Anguillidae","Anguilla rostrata","E12, BROAD CREEK","",35.089,-76.608,"NC","790911","535030000",""
"NCDMF",,1,"Anguillidae","Anguilla rostrata","E12, BROAD CREEK","",35.089,-76.608,"NC","791009","535030000",""
"NCDMF",,1,"Anguillidae","Anguilla rostrata","E12, BROAD CREEK","",35.089,-76.608,"NC","800716","535030000",""
"NCDMF",,1,"Anguillidae","Anguilla rostrata","E12, BROAD CREEK","",35.089,-76.608,"NC","810609","535030000",""
"NCDMF",,1,"Anguillidae","Anguilla rostrata","E12, BROAD CREEK","",35.089,-76.608,"NC","830620","535030000",""
"NCDMF",,1,"Anguillidae","Anguilla rostrata","E12, BROAD CREEK","",35.089,-76.608,"NC","830812","535030000",""
"NCDMF",,1,"Anguillidae","Anguilla rostrata","E12, BROAD CREEK","",35.089,-76.608,"NC","840718","535030000",""
"NCDMF",,1,"Anguillidae","Anguilla rostrata","E12, BROAD CREEK","",35.089,-76.608,"NC","860611","535030000",""
"NCDMF",,1,"Anguillidae","Anguilla rostrata","E12, BROAD CREEK","",35.089,-76.608,"NC","890612","535030000",""
"NCDMF",,1,"Anguillidae","Anguilla rostrata","E12, BROAD CREEK","",35.089,-76.608,"NC","890811","535030000",""
"NCDMF",,2,"Anguillidae","Anguilla rostrata","E32, FIRST UPSTREAM FROM BURTON CREEK","",35.091,-76.613,"NC","920514","535031600",""
"NCDMF",,1,"Anguillidae","Anguilla rostrata","E34, THIRD UPSTREAM FROM BURTON CREEK","",35.093,-76.621,"NC","920514","535031800",""
"NCDMF",,9,"Anguillidae","Anguilla rostrata","E35, PASTURE CREEK","",35.094,-76.623,"NC","920514","535030800",""
"NCDMF",,1,"Anguillidae","Anguilla rostrata","E35, PASTURE CREEK","",35.094,-76.623,"NC","920603","535030800",""
"NCDMF",,1,"Anguillidae","Anguilla rostrata","E36, COFFEE CREEK","",35.0947,-76.62733,"NC","920514","535031200",""
"NCDMF",,1,"Anguillidae","Anguilla rostrata","NR3S, CHERRY PT/WILK. PT TO NEW BERN","",35.099,-77.037,"NC","760706","535000200",""
"NCDMF",,1,"Anguillidae","Anguilla rostrata","NR2, DUCK CREEK","",35.099,-77.007,"NC","760810","535140000",""
"NCDMF",,1,"Anguillidae","Anguilla rostrata","NR2, DUCK CREEK","",35.099,-77.007,"NC","770912","535140000",""
"NCDMF",,3,"Anguillidae","Anguilla rostrata","NR2, DUCK CREEK","",35.099,-77.007,"NC","780707","535140000",""
"NCDMF",,3,"Anguillidae","Anguilla rostrata","NR3S, CHERRY PT/WILK. PT TO NEW BERN","",35.099,-77.037,"NC","780707","535000200",""
"NCDMF",,1,"Anguillidae","Anguilla rostrata","NR2, DUCK CREEK","",35.099,-77.007,"NC","780808","535140000",""
"NCDMF",,2,"Anguillidae","Anguilla rostrata","NR3S, CHERRY PT/WILK. PT TO NEW BERN","",35.099,-77.037,"NC","790630","535000200",""
"NCDMF",,19,"Anguillidae","Anguilla rostrata","NR3S, CHERRY PT/WILK. PT TO NEW BERN","",35.099,-77.037,"NC","790717","535000200",""
"NCDMF",,1,"Anguillidae","Anguilla rostrata","NR3S, CHERRY PT/WILK. PT TO NEW BERN","",35.099,-77.037,"NC","790824","535000200",""
"NCDMF",,1,"Anguillidae","Anguilla rostrata","NR2, DUCK CREEK","",35.099,-77.007,"NC","800709","535140000",""
"NCDMF",,1,"Anguillidae","Anguilla rostrata","NR3S, CHERRY PT/WILK. PT TO NEW BERN","",35.099,-77.037,"NC","800709","535000200",""
"NCDMF",,2,"Anguillidae","Anguilla rostrata","E15, GREEN CREEK","",35.10932,-76.58575,"NC","780517","535031100",""
"NCDMF",,1,"Anguillidae","Anguilla rostrata","E15, GREEN CREEK","",35.10932,-76.58575,"NC","780816","535031100",""
"NCDMF",,1,"Anguillidae","Anguilla rostrata","E15, GREEN CREEK","",35.10932,-76.58575,"NC","780913","535031100",""
"NCDMF",,1,"Anguillidae","Anguilla rostrata","E15, GREEN CREEK","",35.10932,-76.58575,"NC","800716","535031100",""
"NCDMF",,1,"Anguillidae","Anguilla rostrata","E15, GREEN CREEK","",35.10932,-76.58575,"NC","810512","535031100",""
"NCDMF",,1,"Anguillidae","Anguilla rostrata","E15, GREEN CREEK","",35.10932,-76.58575,"NC","810609","535031100",""
"NCDMF",,3,"Anguillidae","Anguilla rostrata","E15, GREEN CREEK","",35.10932,-76.58575,"NC","830414","535031100",""
"NCDMF",,2,"Anguillidae","Anguilla rostrata","E15, GREEN CREEK","",35.10932,-76.58575,"NC","830516","535031100",""
"NCDMF",,1,"Anguillidae","Anguilla rostrata","E15, GREEN CREEK","",35.10932,-76.58575,"NC","840718","535031100",""
"NCDMF",,1,"Anguillidae","Anguilla rostrata","E15, GREEN CREEK","",35.10932,-76.58575,"NC","860716","535031100",""
"NCDMF",,3,"Anguillidae","Anguilla rostrata","E15, GREEN CREEK","",35.10932,-76.58575,"NC","960515","535031100",""
"NCDMF",,1,"Anguillidae","Anguilla rostrata","E15, GREEN CREEK","",35.10932,-76.58575,"NC","960618","535031100",""
"NCDMF",,1,"Anguillidae","Anguilla rostrata","E3, SWAN CREEK","",35.113,-76.58,"NC","780816","535020000",""
"NCDMF",,1,"Anguillidae","Anguilla rostrata","NR1S, ABOVE NEW BERN","",35.113,-77.018,"NC","790630","535000300",""
"NCDMF",,3,"Anguillidae","Anguilla rostrata","E3, SWAN CREEK","",35.113,-76.58,"NC","800716","535020000",""
"NCDMF",,3,"Anguillidae","Anguilla rostrata","E3, SWAN CREEK","",35.113,-76.58,"NC","800910","535020000",""
"NCDMF",,8,"Anguillidae","Anguilla rostrata","E3, SWAN CREEK","",35.113,-76.58,"NC","810609","535020000",""
"NCDMF",,1,"Anguillidae","Anguilla rostrata","E3, SWAN CREEK","",35.113,-76.58,"NC","830516","535020000",""
"NCDMF",,2,"Anguillidae","Anguilla rostrata","E3, SWAN CREEK","",35.113,-76.58,"NC","840814","535020000",""
"NCDMF",,1,"Anguillidae","Anguilla rostrata","OI9, OCRACOKE ISLAND","",35.11889,-75.97583,"NC","870826","500300200",""
"NCDMF",,1,"Anguillidae","Anguilla rostrata","OI9, OCRACOKE ISLAND","",35.11889,-75.97583,"NC","890711","500300200",""
"NCDMF",,2,"Anguillidae","Anguilla rostrata","E37, SWAN CREEK","",35.119,-76.576,"NC","960515","535020000",""
"NCDMF",,2,"Anguillidae","Anguilla rostrata","OI10, HOWARD REEF","",35.12,-75.971,"NC","900724","500300201",""
"NCDMF",,1,"Anguillidae","Anguilla rostrata","OI10, HOWARD REEF","",35.12,-75.971,"NC","940713","500300201",""
"NCDMF",,1,"Anguillidae","Anguilla rostrata","OI11, OCRACOKE ISLAND","",35.12434,-75.98268,"NC","890711","500300200",""
"NCDMF",,1,"Anguillidae","Anguilla rostrata","CS14, TRENT CREEK","",35.128,-76.729,"NC","820420","534150000",""
"NCDMF",,1,"Anguillidae","Anguilla rostrata","CS14, TRENT CREEK","",35.128,-76.729,"NC","820819","534150000",""
"NCDMF",,1,"Anguillidae","Anguilla rostrata","415, ABOVE NEW BERN","",35.129,-77.049,"NC","760810","535000300",""
"NCDMF",,1,"Anguillidae","Anguilla rostrata","OI7, HOWARD REEF","",35.132,-75.921,"NC","740821","500300201",""
"NCDMF",,1,"Anguillidae","Anguilla rostrata","D5, BRYAN CREEK","",35.13537,-76.5963,"NC","860619","534210204",""
"NCDMF",,2,"Anguillidae","Anguilla rostrata","D5, BRYAN CREEK","",35.13537,-76.5963,"NC","880415","534210204",""
"NCDMF",,3,"Anguillidae","Anguilla rostrata","D5, BRYAN CREEK","",35.13537,-76.5963,"NC","880516","534210204",""
"NCDMF",,1,"Anguillidae","Anguilla rostrata","D5, BRYAN CREEK","",35.13537,-76.5963,"NC","880719","534210204",""
"NCDMF",,3,"Anguillidae","Anguilla rostrata","D5, BRYAN CREEK","",35.13537,-76.5963,"NC","900516","534210204",""
"NCDMF",,1,"Anguillidae","Anguilla rostrata","D5, BRYAN CREEK","",35.13537,-76.5963,"NC","900614","534210204",""
"NCDMF",,5,"Anguillidae","Anguilla rostrata","D5, BRYAN CREEK","",35.13537,-76.5963,"NC","910507","534210204",""
"NCDMF",,1,"Anguillidae","Anguilla rostrata","D5, BRYAN CREEK","",35.13537,-76.5963,"NC","910604","534210204",""
"NCDMF",,1,"Anguillidae","Anguilla rostrata","D5, BRYAN CREEK","",35.13537,-76.5963,"NC","920602","534210204",""
"NCDMF",,1,"Anguillidae","Anguilla rostrata","D5, BRYAN CREEK","",35.13537,-76.5963,"NC","970617","534210204",""
"NCDMF",,2,"Anguillidae","Anguilla rostrata","D5, BRYAN CREEK","",35.13537,-76.5963,"NC","990513","534210204",""
"NCDMF",,2,"Anguillidae","Anguilla rostrata","OI3, HOWARD REEF","",35.137,-75.976,"NC","740607","500300201",""
"NCDMF",,2,"Anguillidae","Anguilla rostrata","OI3, HOWARD REEF","",35.137,-75.976,"NC","780613","500300201",""
"NCDMF",,5,"Anguillidae","Anguilla rostrata","OI3, HOWARD REEF","",35.137,-75.976,"NC","780717","500300201",""
"NCDMF",,2,"Anguillidae","Anguilla rostrata","OI3, HOWARD REEF","",35.137,-75.976,"NC","780807","500300201",""
"NCDMF",,2,"Anguillidae","Anguilla rostrata","OI11A, HOWARD REEF","",35.137,-75.98,"NC","900724","500300201",""
"NCDMF",,1,"Anguillidae","Anguilla rostrata","OI11A, HOWARD REEF","",35.137,-75.98,"NC","900821","500300201",""
"NCDMF",,2,"Anguillidae","Anguilla rostrata","D17, IVES CREEK","",35.137,-76.596,"NC","920512","534210203",""
"NCDMF",,2,"Anguillidae","Anguilla rostrata","D17, IVES CREEK","",35.137,-76.596,"NC","920602","534210203",""
"NCDMF",,1,"Anguillidae","Anguilla rostrata","D6, LONG CREEK","",35.137,-76.561,"NC","940622","534210300",""
"NCDMF",,1,"Anguillidae","Anguilla rostrata","OI11A, HOWARD REEF","",35.137,-75.98,"NC","960819","500300201",""
"NCDMF",,1,"Anguillidae","Anguilla rostrata","OI13, HOWARD REEF","",35.139,-75.939,"NC","970908","500300201",""
"NCDMF",,1,"Anguillidae","Anguilla rostrata","414, ABOVE NEW BERN","",35.143,-77.066,"NC","760813","535000300",""
"NCDMF",,1,"Anguillidae","Anguilla rostrata","M20, BAY RIVER","",35.143,-76.719,"NC","780419","534000000",""
"NCDMF",,8,"Anguillidae","Anguilla rostrata","M20, BAY RIVER","",35.143,-76.719,"NC","780512","534000000",""
"NCDMF",,4,"Anguillidae","Anguilla rostrata","M20, BAY RIVER","",35.143,-76.719,"NC","790319","534000000",""
"NCDMF",,3,"Anguillidae","Anguilla rostrata","M20, BAY RIVER","",35.143,-76.719,"NC","790425","534000000",""
"NCDMF",,1,"Anguillidae","Anguilla rostrata","M20, BAY RIVER","",35.143,-76.719,"NC","790511","534000000",""
"NCDMF",,1,"Anguillidae","Anguilla rostrata","M20, BAY RIVER","",35.143,-76.719,"NC","790607","534000000",""
"NCDMF",,1,"Anguillidae","Anguilla rostrata","M20, BAY RIVER","",35.143,-76.719,"NC","790716","534000000",""
"NCDMF",,2,"Anguillidae","Anguilla rostrata","M20, BAY RIVER","",35.143,-76.719,"NC","791115","534000000",""
"NCDMF",,1,"Anguillidae","Anguilla rostrata","M20, BAY RIVER","",35.143,-76.719,"NC","800319","534000000",""
"NCDMF",,1,"Anguillidae","Anguilla rostrata","M20, BAY RIVER","",35.143,-76.719,"NC","800418","534000000",""
"NCDMF",,2,"Anguillidae","Anguilla rostrata","M20, BAY RIVER","",35.143,-76.719,"NC","800515","534000000",""
"NCDMF",,1,"Anguillidae","Anguilla rostrata","M20, BAY RIVER","",35.143,-76.719,"NC","830322","534000000",""
"NCDMF",,1,"Anguillidae","Anguilla rostrata","CS13, MOORE CREEK","",35.14532,-76.6668,"NC","780817","534170000",""
"NCDMF",,2,"Anguillidae","Anguilla rostrata","CS13, MOORE CREEK","",35.14532,-76.6668,"NC","790607","534170000",""
"NCDMF",,3,"Anguillidae","Anguilla rostrata","CS13, MOORE CREEK","",35.14532,-76.6668,"NC","790820","534170000",""
"NCDMF",,1,"Anguillidae","Anguilla rostrata","CS13, MOORE CREEK","",35.14532,-76.6668,"NC","790913","534170000",""
"NCDMF",,1,"Anguillidae","Anguilla rostrata","CS13, MOORE CREEK","",35.14532,-76.6668,"NC","800618","534170000",""
"NCDMF",,1,"Anguillidae","Anguilla rostrata","CS13, MOORE CREEK","",35.14532,-76.6668,"NC","800916","534170000",""
"NCDMF",,3,"Anguillidae","Anguilla rostrata","CS13, MOORE CREEK","",35.14532,-76.6668,"NC","810617","534170000",""
"NCDMF",,95,"Anguillidae","Anguilla rostrata","CS13, MOORE CREEK","",35.14532,-76.6668,"NC","810717","534170000",""
"NCDMF",,21,"Anguillidae","Anguilla rostrata","CS13, MOORE CREEK","",35.14532,-76.6668,"NC","810821","534170000",""
"NCDMF",,13,"Anguillidae","Anguilla rostrata","CS13, MOORE CREEK","",35.14532,-76.6668,"NC","810923","534170000",""
"NCDMF",,3,"Anguillidae","Anguilla rostrata","CS13, MOORE CREEK","",35.14532,-76.6668,"NC","820819","534170000",""
"NCDMF",,1,"Anguillidae","Anguilla rostrata","CS13, MOORE CREEK","",35.14532,-76.6668,"NC","890613","534170000",""
"NCDMF",,3,"Anguillidae","Anguilla rostrata","CS13, MOORE CREEK","",35.14532,-76.6668,"NC","910604","534170000",""
"NCDMF",,1,"Anguillidae","Anguilla rostrata","CS13, MOORE CREEK","",35.14532,-76.6668,"NC","940622","534170000",""
"NCDMF",,1,"Anguillidae","Anguilla rostrata","CS13, MOORE CREEK","",35.14532,-76.6668,"NC","950619","534170000",""
"NCDMF",,4,"Anguillidae","Anguilla rostrata","CS13, MOORE CREEK","",35.14532,-76.6668,"NC","990511","534170000",""
"NCDMF",,5,"Anguillidae","Anguilla rostrata","CS2, SIMPSON CREEK","",35.14762,-76.63605,"NC","780817","534200200",""
"NCDMF",,1,"Anguillidae","Anguilla rostrata","CS2, SIMPSON CREEK","",35.14762,-76.63605,"NC","790820","534200200",""
"NCDMF",,1,"Anguillidae","Anguilla rostrata","CS2, SIMPSON CREEK","",35.14762,-76.63605,"NC","810617","534200200",""
"NCDMF",,1,"Anguillidae","Anguilla rostrata","CS2, SIMPSON CREEK","",35.14762,-76.63605,"NC","820420","534200200",""
"NCDMF",,1,"Anguillidae","Anguilla rostrata","CS2, SIMPSON CREEK","",35.14762,-76.63605,"NC","820621","534200200",""
"NCDMF",,2,"Anguillidae","Anguilla rostrata","CS2, SIMPSON CREEK","",35.14762,-76.63605,"NC","830812","534200200",""
"NCDMF",,1,"Anguillidae","Anguilla rostrata","CS2, SIMPSON CREEK","",35.14762,-76.63605,"NC","880512","534200200",""
"NCDMF",,1,"Anguillidae","Anguilla rostrata","CS2, SIMPSON CREEK","",35.14762,-76.63605,"NC","890712","534200200",""
"NCDMF",,1,"Anguillidae","Anguilla rostrata","CS2, SIMPSON CREEK","",35.14762,-76.63605,"NC","940622","534200200",""
"NCDMF",,1,"Anguillidae","Anguilla rostrata","CS2, SIMPSON CREEK","",35.14762,-76.63605,"NC","950504","534200200",""
"NCDMF",,1,"Anguillidae","Anguilla rostrata","CS2, SIMPSON CREEK","",35.14762,-76.63605,"NC","960624","534200200",""
"NCDMF",,4,"Anguillidae","Anguilla rostrata","CS2, SIMPSON CREEK","",35.14762,-76.63605,"NC","980605","534200200",""
"NCDMF",,1,"Anguillidae","Anguilla rostrata","CS2, SIMPSON CREEK","",35.14762,-76.63605,"NC","990607","534200200",""
"NCDMF",,1,"Anguillidae","Anguilla rostrata","D7, LONG CREEK","",35.149,-76.575,"NC","790619","534210300",""
"NCDMF",,1,"Anguillidae","Anguilla rostrata","D13, SOUTH PRONG OF DIPPING VAT CREEK","",35.15,-76.565,"NC","900516","534210303",""
"NCDMF",,4,"Anguillidae","Anguilla rostrata","RIGGS CREEK (END BRANCH NEAREST BONNER BAY)","",35.151,-76.601,"NC","920512","534210104",""
"NCDMF",,1,"Anguillidae","Anguilla rostrata","CN37, HARPER CREEK","",35.153,-76.701,"NC","900614","534120000",""
"NCDMF",,3,"Anguillidae","Anguilla rostrata","D18, LONG CREEK","",35.155,-76.578,"NC","970506","534210300",""
"NCDMF",,1,"Anguillidae","Anguilla rostrata","CN14, CHAPEL CREEK","",35.15543,-76.71405,"NC","780503","534130000",""
"NCDMF",,1,"Anguillidae","Anguilla rostrata","CN14, CHAPEL CREEK","",35.15543,-76.71405,"NC","790607","534130000",""
"NCDMF",,2,"Anguillidae","Anguilla rostrata","CN14, CHAPEL CREEK","",35.15543,-76.71405,"NC","790820","534130000",""
"NCDMF",,1,"Anguillidae","Anguilla rostrata","CN14, CHAPEL CREEK","",35.15543,-76.71405,"NC","800515","534130000",""
"NCDMF",,5,"Anguillidae","Anguilla rostrata","CN14, CHAPEL CREEK","",35.15543,-76.71405,"NC","810821","534130000",""
"NCDMF",,1,"Anguillidae","Anguilla rostrata","CN14, CHAPEL CREEK","",35.15543,-76.71405,"NC","830816","534130000",""
"NCDMF",,3,"Anguillidae","Anguilla rostrata","CN14, CHAPEL CREEK","",35.15543,-76.71405,"NC","860616","534130000",""
"NCDMF",,7,"Anguillidae","Anguilla rostrata","D14, SAVANNAH CREEK","",35.156,-76.615,"NC","920512","534210101",""
"NCDMF",,1,"Anguillidae","Anguilla rostrata","CS3, BALL CREEK","",35.157,-76.634,"NC","810617","534200000",""
"NCDMF",,4,"Anguillidae","Anguilla rostrata","CS4, CABIN CREEK","",35.157,-76.625,"NC","940622","534200300",""
"NCDMF",,1,"Anguillidae","Anguilla rostrata","M23, BAY RIVER","",35.158,-76.675,"NC","890614","534000000",""
"NCDMF",,1,"Anguillidae","Anguilla rostrata","CN23, NEWTON CREEK","",35.166,-76.679,"NC","890613","534110200",""
"NCDMF",,1,"Anguillidae","Anguilla rostrata","M5, BAY RIVER","",35.167,-76.533,"NC","810821","534000000",""
"NCDMF",,1,"Anguillidae","Anguilla rostrata","CN1, SMITH CREEK","",35.17642,-76.67548,"NC","730523","534110000",""
"NCDMF",,3,"Anguillidae","Anguilla rostrata","CN1, SMITH CREEK","",35.17642,-76.67548,"NC","730703","534110000",""
"NCDMF",,3,"Anguillidae","Anguilla rostrata","CN1, SMITH CREEK","",35.17642,-76.67548,"NC","730906","534110000",""
"NCDMF",,4,"Anguillidae","Anguilla rostrata","CN1, SMITH CREEK","",35.17642,-76.67548,"NC","790820","534110000",""
"NCDMF",,1,"Anguillidae","Anguilla rostrata","CN1, SMITH CREEK","",35.17642,-76.67548,"NC","800618","534110000",""
"NCDMF",,4,"Anguillidae","Anguilla rostrata","CN1, SMITH CREEK","",35.17642,-76.67548,"NC","910604","534110000",""
"NCDMF",,1,"Anguillidae","Anguilla rostrata","CN1, SMITH CREEK","",35.17642,-76.67548,"NC","920716","534110000",""
"NCDMF",,5,"Anguillidae","Anguilla rostrata","CN47, OYSTER CREEK","",35.183,-76.611,"NC","920504","534070000",""
"NCDMF",,4,"Anguillidae","Anguilla rostrata","D20S, VANDEMERE CREEK","",35.184,-76.658,"NC","840813","534100000",""
"NCDMF",,3,"Anguillidae","Anguilla rostrata","D03C, LONG CREEK","",35.1882,-76.64417,"NC","960506","534100100",""
"NCDMF",,9,"Anguillidae","Anguilla rostrata","D03C, LONG CREEK","",35.1882,-76.64417,"NC","990511","534100100",""
"NCDMF",,4,"Anguillidae","Anguilla rostrata","CN10, BLOSSOM POND CREEK","",35.18917,-76.61223,"NC","990511","534060100",""
"NCDMF",,1,"Anguillidae","Anguilla rostrata","CN3, RIGGS CREEK","",35.19443,-76.6212,"NC","780512","534050100",""
"NCDMF",,1,"Anguillidae","Anguilla rostrata","CN3, RIGGS CREEK","",35.19443,-76.6212,"NC","780818","534050100",""
"NCDMF",,1,"Anguillidae","Anguilla rostrata","CN3, RIGGS CREEK","",35.19443,-76.6212,"NC","790913","534050100",""
"NCDMF",,3,"Anguillidae","Anguilla rostrata","CN3, RIGGS CREEK","",35.19443,-76.6212,"NC","810617","534050100",""
"NCDMF",,2,"Anguillidae","Anguilla rostrata","CN3, RIGGS CREEK","",35.19443,-76.6212,"NC","810821","534050100",""
"NCDMF",,2,"Anguillidae","Anguilla rostrata","CN3, RIGGS CREEK","",35.19443,-76.6212,"NC","810923","534050100",""
"NCDMF",,1,"Anguillidae","Anguilla rostrata","CN3, RIGGS CREEK","",35.19443,-76.6212,"NC","890613","534050100",""
"NCDMF",,1,"Anguillidae","Anguilla rostrata","CN3, RIGGS CREEK","",35.19443,-76.6212,"NC","910604","534050100",""
"NCDMF",,2,"Anguillidae","Anguilla rostrata","CN3, RIGGS CREEK","",35.19443,-76.6212,"NC","920504","534050100",""
"NCDMF",,2,"Anguillidae","Anguilla rostrata","CN3, RIGGS CREEK","",35.19443,-76.6212,"NC","930601","534050100",""
"NCDMF",,2,"Anguillidae","Anguilla rostrata","CN3, RIGGS CREEK","",35.19443,-76.6212,"NC","970617","534050100",""
"NCDMF",,2,"Anguillidae","Anguilla rostrata","CN3, RIGGS CREEK","",35.19443,-76.6212,"NC","980512","534050100",""
"NCDMF",,1,"Anguillidae","Anguilla rostrata","CN3, RIGGS CREEK","",35.19443,-76.6212,"NC","990608","534050100",""
"NCDMF",,1,"Anguillidae","Anguilla rostrata","CN6, DUMP CREEK","",35.2019,-76.55758,"NC","780503","534020000",""
