"Institution.Source","Catalog.Number","Number.of.specimens","Family","Scientific.name","Locality","County","Latitude","Longitude","State","Date.Collected","Field.Locality.number","Collectors"
"AMNH",64750,25,"Aphredoderidae","Aphredoderus sayanus","Cape fear river tributary (Brown Marsh Swamp)  on route 701 bridge, 2.7 miles north of clarkton","Bladen",34.525473,-78.648793,"NC","6/28/1969","R.D. ROSS-VPI-2080","R.D. Ross & R.D. Ross"
"AMNH",78974,7,"Aphredoderidae","Aphredoderus sayanus","Boiling springs lake at boiling springs lake road, first bridge, south side","Brunswick",34.041908,-78.052595,"NC","5/16/1984","PMM-84-23","P.M. Mabee, J.O. Mabee & M.J. Mabee"
"AMNH",62729,4,"Aphredoderidae","Aphredoderus sayanus","Joyce creek (tributary of pasquotank river, an effluent of dismal swamp), 0.8 miles south of tar corner, route 1224 crossing","Camden",36.466352,-76.288106,"NC","6/6/1968","R.D. ROSS-VPI-1325","R.D. Ross, R.D. Ross & P.M. Brady"
"AMNH",62735,30,"Aphredoderidae","Aphredoderus sayanus","Juniper ditch (tributary of pasquotank river), in dismal swamp at Horseshoe","Camden",36.46022,-76.381976,"NC","6/6/1968","R.D. ROSS-VPI-1326","R.D. Ross, R.D. Ross & P.M. Brady"
"AMNH",64866,50,"Aphredoderidae","Aphredoderus sayanus","Juniper ditch (tributary of pasquotank river), in dismal swamp at Horseshoe","Camden",36.46022,-76.381976,"NC","7/15/1971","R.D. ROSS-VPI-2171","R.D. Ross, R.D. Ross, K. Dickson, L. Dole, J. Boaze & C.H. Hocutt"
"AMNH",62616,2,"Aphredoderidae","Aphredoderus sayanus","Pasquotank river swamp, at route 17 bridge, 1.1 mile southwest south mills","Camden",36.433696,-76.338961,"NC","5/23/1968","R.D. ROSS-VPI-1295","R.D. Ross & P.M. Brady"
"AMNH",62605,1,"Aphredoderidae","Aphredoderus sayanus","Pasquotank swamp at us route 17 bridge 1 mile north of morgans corners","Camden",36.430204,-76.340822,"NC","5/22/1968","R.D. ROSS-VPI-1293","R.D. Ross"
"AMNH",62599,9,"Aphredoderidae","Aphredoderus sayanus","Seven bridges (a ditch in dismal swamp) 2 miles northwest South Mills on SR 1219","Camden",36.458219,-76.359391,"NC","5/22/1968","R.D. ROSS-VPI-1292","R.D. Ross"
"AMNH",65182,1,"Aphredoderidae","Aphredoderus sayanus","Seven bridges (a ditch in dismal swamp) 2 miles northwest South Mills on SR 1219","Camden",36.458219,-76.359391,"NC","5/3/1969","R.D. ROSS-VPI-2209","R.D. Ross, R.D. Ross & R.S. Mitchell"
"AMNH",66891,6,"Aphredoderidae","Aphredoderus sayanus","Seven bridges (a ditch in dismal swamp) 2 miles northwest South Mills on SR 1219","Camden",36.458219,-76.359391,"NC","5/7/1971","R.D. ROSS-VPI-2586","M.T. Masnik, W.M. Clay, C. Baker & J. Crossman"
"AMNH",64772,6,"Aphredoderidae","Aphredoderus sayanus","Hunters creek (tributary of white oak river) on county road 1100, ca. 0.5 mile east of junction of route 58","Carteret",34.795768,-77.128145,"NC","6/30/1969","R.D. ROSS-VPI-2087","R.D. Ross & R.D. Ross"
"AMNH",65601,2,"Aphredoderidae","Aphredoderus sayanus","Creek at SR 1100 bridge, 9.2 miles west of Croatan (Black Swamp Creek)","Craven",34.907159,-77.103899,"NC","4/25/1970","R.D. ROSS-VPI-2392","R.D. Ross, H. Zion & M.T. Masnik"
"AMNH",78973,5,"Aphredoderidae","Aphredoderus sayanus","North fork brice creek (West Prong Brice Creek), at SR 1100","Craven",34.937763,-77.065363,"NC","4/14/1986","PMM-86-03","P.M. Mabee & A. Bornbusch"
"AMNH",64378,1,"Aphredoderidae","Aphredoderus sayanus","Small creek, 4 miles northeast of New Bern on US 17","Craven",35.157033,-77.039368,"NC","7/12/1962","R.D. ROSS-VPI-1870","R.D. Ross, G. Clemmer & T. Gomez-ibanez"
"AMNH",248906,2,"Aphredoderidae","Aphredoderus sayanus","Rhodes Pond, impoundment on Black River at US-301, 6 miles south-southwest of Dunn","Cumberland",35.224843,-78.65573,"NC","3/6/2009","ACT-GP-09-III-06a","A.C. Terceira et al."
"AMNH",62522,1,"Aphredoderidae","Aphredoderus sayanus","Folly Swamp on NC 32 crossing","Gates",36.488821,-76.574957,"NC","5/11/1968","R.D. ROSS-VPI-1275","R.D. Ross & R.D. Ross"
"AMNH",62757,4,"Aphredoderidae","Aphredoderus sayanus","Taylor Swamp just below Jones Mill Pond near Corapeake","Gates",36.525237,-76.577303,"NC","6/7/1968","R.D. ROSS-VPI-1329","R.D. Ross, R.D. Ross & P.M. Brady"
"AMNH",62632,3,"Aphredoderidae","Aphredoderus sayanus","Dismal swamp, ditch (at right angles to) the loop road 1.7 miles east parkville","Pasquotank",36.29373,-76.366572,"NC","5/23/1968","R.D. ROSS-VPI-1297","R.D. Ross & P.M. Brady"
"AMNH",66940,4,"Aphredoderidae","Aphredoderus sayanus","Newfoundland Drainage Canal, at junction of routes 158 and 1367, 6-7 miles west of Morgan's Corners","Pasquotank",36.431792,-76.449784,"NC","5/9/1971","R.D. ROSS-VPI-2592","M.T. Masnsik, C. Baker, R.D. Ross & J. Crossman"
"AMNH",62807,40,"Aphredoderidae","Aphredoderus sayanus","Little river on rt 1144 crossing, a concrete bridge on the pasquotank-perquimans co. line, 2.2 airmiles w of norfolk/southern rr station in pasquotank","Perquimans",36.268333,-76.377579,"NC","6/7/1968","R.D. ROSS-VPI-1334","R.D. Ross, R.D. Ross & P.M. Brady"
"AMNH",62626,28,"Aphredoderidae","Aphredoderus sayanus","Little river, on route 1223 crossing, just above a garbage dump, 2 miles north northwest norfolk and southern railroad crossing in chapanoke","Perquimans",36.282795,-76.385991,"NC","5/23/1968","R.D. ROSS-VPI-1296","R.D. Ross & P.M. Brady"
"AMNH",64733,1,"Aphredoderidae","Aphredoderus sayanus","Big Swamp (tributary of lumber river) on NC 211 crossing, 0.7 mile west of Bladen-Robeson county line","Robeson",34.575261,-78.859396,"NC","6/27/1969","R.D. ROSS-VPI-2075","R.D. Ross & R.D. Ross"
"ANSP",176511,2,"Aphredoderidae","Aphredoderus sayanus","Cape Fear River Basin: Colly Creek; NC 41, 1.5 air miles E NC 41 & US 701 intersection.","Bladen",34.655006,-78.467081,"NC","8/27/1996","Z176511","G. B. Mottesi, S. D. Kirk"
"ANSP",176510,2,"Aphredoderidae","Aphredoderus sayanus","Cape Fear River Basin: Colly Creek; SR 1521, 3.0 air miles W Smith's Pond.","Bladen",34.729338,-78.480629,"NC","8/27/1996","Z176510","G. B. Mottesi, S. D. Kirk"
"ANSP",176503,2,"Aphredoderidae","Aphredoderus sayanus","Cape Fear River Basin: Ellis Creek; SR 1324, 9.0 air miles NNW Elizabethtown.","Bladen",34.713375,-78.668497,"NC","8/29/1996","Z176503","G. B. Mottesi, S. D. Kirk"
"ANSP",197153,2,"Aphredoderidae","Aphredoderus sayanus","Flat Branch of Cole Creek (Chowan Dr.) at Sheppard Landing Rd. bridge (Co. Rt. 1225).","Gates",36.466556,-76.799333,"NC","7/26/2014","MHS-2014-NC-2","M.H. Sabaj, M.C. Sabaj Pérez, M.S. Sabaj Pérez"
"ANSP",176517,2,"Aphredoderidae","Aphredoderus sayanus","Cape Fear River Basin: Cedar Creek; upstream from confluence with Cape Fear River.","Harnett",35.483603,-78.94777,"NC","7/10/1996","Z176517","G. B. Mottesi, M. E. Savacool, J. M. Alderman"
"ANSP",176516,1,"Aphredoderidae","Aphredoderus sayanus","Cape Fear River Basin: Fish Creek; SR 1257, 3.0 air miles NE Mamers.","Harnett",35.444466,-78.893978,"NC","7/8/1996","Z176516","G. B. Mottesi, M. E. Savacool"
"ANSP",177527,1,"Aphredoderidae","Aphredoderus sayanus","Lumber River Basin: Buffalo Creek;SR1214, 1.3 air mi ESE Five Points.","Hoke",35.009128,-79.338525,"NC","4/16/1977","Z177527","G. B. Mottesi, M. E. Savacool"
"ANSP",197176,4,"Aphredoderidae","Aphredoderus sayanus","Mill Creek (Neuse Dr.) at Rt. 96 bridge, ca. 1.2 km south of Parkers Mill.","Johnston",35.295528,-78.458556,"NC","7/5/2014","MHS-2014-NC-5","M.H. Sabaj"
"ANSP",70622,2,"Aphredoderidae","Aphredoderus sayanus","Little Crane Creek on US#1 at bridge.","Moore",35.331314,-79.253836,"NC","8/25/1940","40-8-25-LCC","G. A. Coventry, C. B. Peterson, F. A. Ulmer, Jr."
"ANSP",177525,1,"Aphredoderidae","Aphredoderus sayanus","Lumber River Basin: Horse Creek;SR1115, 2.0 air mi NNE Roseland.","Moore",35.1592,-79.494145,"NC","4/2/1997","Z177525","G. B. Mottesi, M. E. Savacool"
"ANSP",204749,1,"Aphredoderidae","Aphredoderus sayanus","Long Creek","Pender",34.582494,-77.963219,"NC","6/6/2009","FW08-NC023","EPA National Streams & Rivers Assessment (NRSA) team"
"ANSP",205090,1,"Aphredoderidae","Aphredoderus sayanus","Gum Swamp Creek","Richmond",34.929444,-79.573056,"NC","6/10/2009","FW08-RNC9085","EPA National Streams & Rivers Assessment (NRSA) team"
"ANSP",177528,1,"Aphredoderidae","Aphredoderus sayanus","Lumber River Basin: tributary to Drowning Creek;SR1412, 5.0 air mi NNW Wagram.","Scotland",34.959486,-79.388955,"NC","4/17/1997","Z177528","G. B. Mottesi, M. E. Savacool"
"ANSP",176375,1,"Aphredoderidae","Aphredoderus sayanus","Tar River Basin: Ben's Creek; SR 1509, 2.3 air miles N Odell.","Warren",36.389501,-77.934567,"NC","8/17/1995","Z176375","G. B. Mottesi, M. E. Savacool"
"ANSP",176374,1,"Aphredoderidae","Aphredoderus sayanus","Tar River Basin: Reedy Creek; SR 1512, 2.25 air miles NE Grove Hill.","Warren",36.348316,-77.976531,"NC","8/15/1995","Z176374","G. B. Mottesi, M. E. Savacool"
"AUM",5781,3,"Aphredoderidae","Aphredoderus sayanus","Back Cr., 2.4 airmi N of Newell, county road","Mecklenburg",35.30526,-80.707144,"NC","6/30/1970","","S Ramsey"
"AUM",36324,9,"Aphredoderidae","Aphredoderus sayanus","Tar River - Pamlico Sound, Chicod Creek, 3 miles SSE of Grimesland","Pitt",35.530019,-77.180502,"NC","5/8/1972","","W Folkerts"
"CAS",76584,1,"Aphredoderidae","Aphredoderus sayanus","Cape Fear River at Southport","Brunswick",33.910801,-78.01338,"NC","","","R. D. SAGE"
"CAS",66834,10,"Aphredoderidae","Aphredoderus sayanus","White Marsh Swamp, Approx. 5 miles south of Hallsboro.","Columbus",34.25409,-78.604738,"NC","6/30/1968","","W.C. Freihofer, M. Korringa & L. Compagno"
"CAS",66856,8,"Aphredoderidae","Aphredoderus sayanus","White Marsh Swamp, Approx. 5 miles south of Hallsboro.","Columbus",34.25409,-78.604738,"NC","7/1/1968","","W.C. Freihofer, J. Davis et al"
"CAS",66839,3,"Aphredoderidae","Aphredoderus sayanus","White Marsh Swamp, Approx. 5 miles south of Hallsboro.","Columbus",34.25409,-78.604738,"NC","7/2/1968","","W.C. Freihofer, M. Korringa & L. Compagno"
"CAS",64297,8,"Aphredoderidae","Aphredoderus sayanus","Smith Creek, nr. Wilmington","NEW HANOVER",34.260003,-77.905068,"NC","5/24/1924","","Myers, George S."
"CAS",66850,7,"Aphredoderidae","Aphredoderus sayanus","Lennon's Marsh, off county route 1002 about 4 miles south of Allentown.","Robeson",34.479798,-78.8781,"NC","7/2/1968","","Freihofer, Warren C."
"CAS",204600,1,"Aphredoderidae","Aphredoderus sayanus","Neuse River, at Millburnie, near Raleigh","Wake",35.800203,-78.539013,"NC","8/27/1888","","Jenkins, Meek"
"CUMV",19242,1,"Aphredoderidae","Aphredoderus sayanus","South Fork Jones Cr. between Wadesboro and Marvin on Rt. 52","Anson",34.891193,-80.017304,"NC","8/7/1942","EEB 46-08","E. Brown"
"CUMV",20625,1,"Aphredoderidae","Aphredoderus sayanus","South Fork Jones Cr. between Wadesboro and Marvin on Rt. 52","Anson",34.891193,-80.017304,"NC","8/7/1942","EEB 46-08","E. Brown"
"CUMV",69934,37,"Aphredoderidae","Aphredoderus sayanus","Roquist Cr. at bridge on Rt. 13/17; 3.9 mi. SW of Windsor; NE of Williamston","Bertie",35.941965,-76.961095,"NC","7/13/1979","LAG 83-12","L. Greenberg;  D. Holtzman"
"CUMV",30158,,"Aphredoderidae","Aphredoderus sayanus","Roquist Cr. on Rt. 17, S of Windsor","Bertie",35.941965,-76.961095,"NC","3/30/1952","RJM 1006","Rudolf Miller;  T. Poulson;  J. Kaufman;  T. Savage"
"CUMV",29912,33,"Aphredoderidae","Aphredoderus sayanus","Trib. of Cashie Cr., 0.3 mi. NE of Lewiston on secondary road","Bertie",36.143265,-77.165054,"NC","3/23/1952","ECR 2754","Edward Raney;  Charles Robins;  John New;  Bruce Collette; et al."
"CUMV",11679,2,"Aphredoderidae","Aphredoderus sayanus","Brown Marsh, 3 mi. N of Clarkton, 7.5 mi. SSW of Elizabethtown on Rt 701.","Bladen",34.526142,-78.649121,"NC","6/25/1942","ECR 1194","Edward Raney;  Robert Ross;  Ernest Lachner"
"CUMV",25252,1,"Aphredoderidae","Aphredoderus sayanus","Hammond Cr., 1 mi. S of Elizabethtown on Rt. 701","Bladen",34.621323,-78.610206,"NC","6/25/1942","ECR 1192","Edward Raney;  Ernest Lachner;  Robert Ross"
"CUMV",31967,2,"Aphredoderidae","Aphredoderus sayanus","Salters Lake","Bladen",34.705036,-78.63,"NC","6/25/1954","DEL 58JUN26","D. Louder"
"CUMV",33705,2,"Aphredoderidae","Aphredoderus sayanus","Salters Lake","Bladen",34.705036,-78.63,"NC","6/16/1955","DEL 59JUN17","D. Louder"
"CUMV",34705,5,"Aphredoderidae","Aphredoderus sayanus","Trib. of Big Swamp R., 5.3 mi. N of Bladenboro on NC 401 & 131","Bladen",34.609511,-78.755913,"NC","9/17/1955","BBC 562","Bruce Collette;  J. Ramsey"
"CUMV",31806,6,"Aphredoderidae","Aphredoderus sayanus","Trib. of Big Swamp R., trib. of Lumber R., 4.7 mi. S of Dublin","Bladen",34.609511,-78.755913,"NC","4/3/1954","BBC 431","Bruce Collette;  H. Howard"
"CUMV",13936,10,"Aphredoderidae","Aphredoderus sayanus","Trib. of Cape Fear R., 5 mi. SSW of Elizabethtown","Bladen",34.559773,-78.641124,"NC","6/25/1942","ECR 1193","Edward Raney;  Robert Ross;  Ernest Lachner"
"CUMV",34528,5,"Aphredoderidae","Aphredoderus sayanus","Turnbull Cr., 0.5 mi. E of NC 242 (between White & Jones Lakes)","Bladen",34.692305,-78.583508,"NC","9/17/1955","BBC 557","Bruce Collette;  Rudolf Miller;  John Ramsey"
"CUMV",14255,3,"Aphredoderidae","Aphredoderus sayanus","Bear Branch of Waccamaw R., 1.3 mi. NW of Ash","Brunswick",34.077555,-78.543199,"NC","3/28/1945","HEE 1520","Edward Raney;  Royal Suttkus;  Howard Evans;  Robert Roecker"
"CUMV",4092,2,"Aphredoderidae","Aphredoderus sayanus","Burnt Coat Swamp, N of Wilmington","Brunswick",36.248335,-77.728333,"NC","2/22/1930","AHW 34FEB23B","Albert Wright;  Anna Wright"
"CUMV",4013,4,"Aphredoderidae","Aphredoderus sayanus","Piney Grove Swamp","Brunswick",34.165844,-78.184416,"NC","2/23/1930","AHW 34FEB24","Albert Wright;  Anna Wright"
"CUMV",30569,10,"Aphredoderidae","Aphredoderus sayanus","White Oak R., 0.6 mi. SE of Maysville (Carteret/Onslow Co. line)","Carteret",34.891795,-77.233573,"NC","7/6/1952","CFC 290","Charles Cole;  Rudolph Miller"
"CUMV",25901,7,"Aphredoderidae","Aphredoderus sayanus","Robeson Cr., 0.25 mi. S of Pittsboro Courthouse on US 15-501","Chatham",35.715982,-79.178739,"NC","4/1/1950","ECR 2517","Edward Raney;  Charles Cole;  Robert Gibbs;  E. Deubler; et al."
"CUMV",14293,4,"Aphredoderidae","Aphredoderus sayanus","Canal off Waccamaw R., 1 mi. N of Waccamaw R. on Rt. 130, near Ash","Columbus",34.077553,-78.543188,"NC","3/28/1945","HEE 1521","Edward Raney;  Royal Suttkus;  Howard Evans;  Robert Roecker"
"CUMV",31942,2,"Aphredoderidae","Aphredoderus sayanus","Lake Waccamaw","Columbus",34.287784,-78.511122,"NC","8/20/1954","DEL 58AUG21","D. Louder"
"CUMV",34375,1,"Aphredoderidae","Aphredoderus sayanus","Lake Waccamaw","Columbus",34.287784,-78.511122,"NC","7/15/1955","DEL 59JUL16","D. Louder"
"CUMV",11509,1,"Aphredoderidae","Aphredoderus sayanus","Small stream 1.5 mi. E of Whiteville","Columbus",34.349763,-78.671272,"NC","6/25/1942","ECR 1198","Edward Raney;  Ernest Lachner;  Robert Ross"
"CUMV",9751,2,"Aphredoderidae","Aphredoderus sayanus","Small trib., 4 mi. E of Bolton on Rt. 74","Columbus",34.319095,-78.334737,"NC","3/29/1937","ECR 0959","Roman Pfeiffer;  Ernest Lachner;  Edward Raney"
"CUMV",16817,3,"Aphredoderidae","Aphredoderus sayanus","Palmetto Swamp, trib. Swift Cr., 3.7 mi. N of Vanceboro","Craven",35.35631,-77.150584,"NC","3/27/1945","HEE 1516","Edward Raney;  Royal Suttkus;  Howard Evans;  Robert Roecker"
"CUMV",9869,3,"Aphredoderidae","Aphredoderus sayanus","Trib. of Trent R., 4.5 mi. WSW of New Bern on Rt. 17","Craven",35.091448,-77.137962,"NC","3/29/1937","ECR 0955","Roman Pfeiffer;  Ernest Lachner;  Edward Raney"
"CUMV",14108,2,"Aphredoderidae","Aphredoderus sayanus","Trib. of Cape Fear R., 9 mi. W of Fayetteville at Fish Hatchery","Cumberland",35.028079,-79.040133,"NC","3/30/1945","HEE 1539","Edward Raney;  Royal Suttkus;  Howard Evans;  Robert Roecker"
"CUMV",9762,2,"Aphredoderidae","Aphredoderus sayanus","Trib. of South R., 1 mi. E of Stedman","Cumberland",35.009895,-78.683902,"NC","3/30/1937","ECR 0965","Roman Pfeiffer;  Ernest Lachner;  Edward Raney"
"CUMV",75092,4,"Aphredoderidae","Aphredoderus sayanus","Cypress Creek, ditch into 9 Mile Cr., 0.2 mi. N Cypress Cr. on County Rd. 1828.","Duplin",34.76115,-77.70943,"NC","10/15/1984","JMH 88-23","Julian Humphries;  Paula Mabee"
"CUMV",75102,4,"Aphredoderidae","Aphredoderus sayanus","Cypress Creek, ditch into 9 Mile Cr., 0.2 mi. N Cypress Cr. on County Rd. 1828.","Duplin",34.76115,-77.70943,"NC","10/15/1984","JMH 88-23","Julian Humphries;  Paula Mabee"
"CUMV",4010,2,"Aphredoderidae","Aphredoderus sayanus","Elder Branch","Duplin",34.886227,-77.978412,"NC","2/22/1930","AHW 34FEB23","Albert Wright;  Anna Wright"
"CUMV",9653,1,"Aphredoderidae","Aphredoderus sayanus","NE Cape Fear R. Swamp, 11.5 mi. NE of Kenansville","Duplin",35.100784,-77.831147,"NC","3/30/1937","ECR 0971","Ernest Lachner;  Roman Pfeiffer;  Edward Raney"
"CUMV",30559,2,"Aphredoderidae","Aphredoderus sayanus","Trib. of Goshen Cr., 0.8 mi. W of Scott on secondary road, approx. 10 mi. N of Keenansville","Duplin",35.114133,-77.982934,"NC","7/20/1952","CFC 297","Charles Cole;  Rudolph Miller"
"CUMV",34521,3,"Aphredoderidae","Aphredoderus sayanus","Mud Cr. on Cornwallis R., W of Durham","Durham",35.992595,-78.972168,"NC","9/16/1955","BBC 554","Bruce Collette;  Rudolf Miller;  John Ramsey"
"CUMV",30144,2,"Aphredoderidae","Aphredoderus sayanus","Creek on NC 32 at Hunters Mill Pond Bridge, Sunbury","Gates",36.436194,-76.610689,"NC","3/30/1952","RJM 56MAR31","Rudolf Miller;  T. Poulson;  J. Kaufman;  T. Savage"
"CUMV",31605,12,"Aphredoderidae","Aphredoderus sayanus","Fishing Cr., 7.9 mi. S of Stovall on US 15","Granville",36.335508,-78.593735,"NC","3/28/1954","BBC 403","Bruce Collette;  H. Howard"
"CUMV",19440,10,"Aphredoderidae","Aphredoderus sayanus","North Fork of Tar R., 6.8 mi. W of Oxford on NC 158","Granville",36.315843,-78.694121,"NC","3/22/1947","ECR 1950","Edward Raney;  Richard Backus;  Charles Robins;  J. Layne; et al."
"CUMV",9630,2,"Aphredoderidae","Aphredoderus sayanus","Small stream 1 mi. N of Oxford","Granville",36.335508,-78.593735,"NC","4/1/1937","ECR 0987","Ernest Lachner;  Roman Pfeiffer;  Edward Raney"
"CUMV",25911,,"Aphredoderidae","Aphredoderus sayanus","Tables Cr., trib. of Tar R., 3.6 mi. E of Oxford on NC 158","Granville",36.314495,-78.532708,"NC","4/1/1950","ECR 2521","Edward Raney;  Charles Cole;  Robert Gibbs;  E. Deubler; et al."
"CUMV",19449,1,"Aphredoderidae","Aphredoderus sayanus","Tar R., 2 mi. NNW of Berea on NC 158","Granville",36.334106,-78.768042,"NC","3/29/1947","ECR 1952","Edward Raney;  Richard Backus;  Charles Robins;  J. Layne; et al."
"CUMV",34546,7,"Aphredoderidae","Aphredoderus sayanus","Haw R., 1.8 mi. N of Oak Ridge on NC 68","Guilford",36.19788,-79.985168,"NC","9/18/1955","BBC 564","Bruce Collette;  Rudolf Miller;  John Ramsey"
"CUMV",29920,16,"Aphredoderidae","Aphredoderus sayanus","Trib. of Roanoke R., 4 mi. SE Tillery on NC 561","Halifax",36.215409,-77.440054,"NC","3/23/1952","ECR 2753","Edward Raney;  Charles Robins;  John New;  Bruce Collette; et al."
"CUMV",19233,2,"Aphredoderidae","Aphredoderus sayanus","Mingo Swamp Bridge just E of Dunn on Rt. 55 (Harnett/Sampson Co. line)","Harnett",35.297832,-78.57242,"NC","6/28/1943","EEB 47-44","E. Brown"
"CUMV",18393,3,"Aphredoderidae","Aphredoderus sayanus","Stewarts Cr. on Rt. 421 about 2 mi. W of Erwin","Harnett",35.345895,-78.684822,"NC","6/28/1943","EEB 47-45","E. Brown"
"CUMV",31829,1,"Aphredoderidae","Aphredoderus sayanus","4.5 mi. W of Rockfish on road to Raeford","Hoke",34.99169,-79.141222,"NC","3/31/1954","BBC 418","Bruce Collette;  H. Howard"
"CUMV",26015,12,"Aphredoderidae","Aphredoderus sayanus","Trib. of Drowning Cr. at S limits of Pine Bluff on US 1","Hoke",35.098432,-79.477051,"NC","4/1/1950","ECR 2515","Edward Raney;  William Woolcott;  Robert Gibbs"
"CUMV",26052,42,"Aphredoderidae","Aphredoderus sayanus","Trib. of Drowning Cr., 1 mi. SW of Aberdeen on US 1","Hoke",35.124358,-79.43808,"NC","4/1/1950","ECR 2514","Edward Raney;  William Woolcott;  Robert Gibbs"
"CUMV",31773,1,"Aphredoderidae","Aphredoderus sayanus","Trib. of Rockfish Cr., 0.6 mi. W of Rockfish on road to Raeford","Hoke",34.991857,-79.077495,"NC","3/31/1954","BBC 416","Bruce Collette;  H. Howard"
"CUMV",26038,2,"Aphredoderidae","Aphredoderus sayanus","Trib. of Rockfish Cr., 4.6 mi. W of Rockfish on Secondary Rd.","Hoke",34.991867,-79.139788,"NC","3/29/1950","ECR 2506","Edward Raney;  William Woolcott;  Robert Gibbs"
"CUMV",30126,18,"Aphredoderidae","Aphredoderus sayanus","Trib. of Rockfish R., 0.7 mi. W of Rockfish","Hoke",34.991857,-79.077495,"NC","3/22/1952","RJM 1004","Rudolf Miller;  T. Poulson;  J. Kaufman;  T. Savage"
"CUMV",25949,5,"Aphredoderidae","Aphredoderus sayanus","Trib. of Rockfish R., 0.7 mi. W of Rockfish on Secondary Rd.","Hoke",34.991857,-79.077495,"NC","3/29/1950","ECR 2504","Edward Raney;  Charles Cole;  Davis;  E. Deubler; et al."
"CUMV",9660,1,"Aphredoderidae","Aphredoderus sayanus","Swift Cr., trib. of Neuse R., 6.5 mi. NW of Smithfield","Johnston",35.55144,-78.460191,"NC","3/31/1937","ECR 0976","Ernest Lachner;  Roman Pfeiffer;  Edward Raney"
"CUMV",30551,1,"Aphredoderidae","Aphredoderus sayanus","Trib. of Trent R. at town limits of Trenton (on SE side), on NC 12","Jones",35.059687,-77.35561,"NC","8/3/1952","CFC 300","Charles Cole;  Rudolph Miller"
"CUMV",9750,5,"Aphredoderidae","Aphredoderus sayanus","Falling Cr., 6 mi. W of Kingsston on Rt. 70","Lenoir",35.260993,-77.692802,"NC","3/30/1937","ECR 0973","Roman Pfeiffer;  Ernest Lachner;  Edward Raney"
"CUMV",9722,3,"Aphredoderidae","Aphredoderus sayanus","Small stream 1 mi. S of Deep Run on Rt. 11","Lenoir",35.130903,-77.709447,"NC","3/30/1937","ECR 0972","Ernest Lachner;  Roman Pfeiffer;  Edward Raney"
"CUMV",19855,1,"Aphredoderidae","Aphredoderus sayanus","Ready Brook, 4.8 mi. S of Williamston on Rt. 17","Martin",35.788784,-77.059262,"NC","3/27/1945","HEE 1513","Edward Raney;  Royal Suttkus;  Howard Evans;  Robert Roecker"
"CUMV",19848,2,"Aphredoderidae","Aphredoderus sayanus","Trib. of Callie Swamp, 2.8 mi. N of Robersonville on Rt.903","Martin",35.863705,-77.243334,"NC","3/27/1945","HEE 1512","Edward Raney;  Royal Suttkus;  Howard Evans;  Robert Roecker"
"CUMV",25238,2,"Aphredoderidae","Aphredoderus sayanus","Trib. of Conoho Cr., 4.9 mi. W of Williamston on Rt. 64","Martin",35.837719,-77.137073,"NC","3/27/1945","HEE 1511","Edward Raney;  Royal Suttkus;  Howard Evans;  Robert Roecker"
"CUMV",29925,2,"Aphredoderidae","Aphredoderus sayanus","Trib. of Conoho Cr., 5 mi. W of Williamston on US 64","Martin",35.828943,-77.123718,"NC","3/23/1952","ECR 2755","Edward Raney;  Charles Robins;  John New;  Bruce Collette; et al."
"CUMV",19770,5,"Aphredoderidae","Aphredoderus sayanus","Aberdeen Cr., below dam in Aberdeen on US 1","Moore",35.127972,-79.432152,"NC","3/28/1947","ECR 1944","Edward Raney;  Richard Backus;  Charles Robins;  J. Layne; et al."
"CUMV",32695,1,"Aphredoderidae","Aphredoderus sayanus","Culvert stream, about 0.5 mi. NE of Pinebluff, 1.5 mi. SW of Aberdeen on US 1 (Beaver Pond outlet)","Moore",35.117118,-79.463529,"NC","4/2/1955","NRF 029","Neal Foster;  W. Davis;  John Ramsey"
"CUMV",32702,19,"Aphredoderidae","Aphredoderus sayanus","Culvert stream, S of Aberdeen city limits on US 1, near large storage sheds","Moore",35.117118,-79.463529,"NC","4/2/1955","NRF 030","Neal Foster;  John Ramsey;  W. Davis;  Turner;  Michener"
"CUMV",36267,1,"Aphredoderidae","Aphredoderus sayanus","Drowning Cr. on US 1, 1.8 mi. SE of Aberdeen","Moore",35.117118,-79.463529,"NC","3/31/1956","NRF 108","Neal Foster;  John Ramsey;  W. Davis"
"CUMV",15670,4,"Aphredoderidae","Aphredoderus sayanus","Little Crane Cr., trib. of Little R., 12.3 mi. S of Sanford","Moore",35.331449,-79.253919,"NC","3/30/1945","HEE 1536","Edward Raney;  Royal Suttkus;  Howard Evans;  Robert Roecker"
"CUMV",35311,1,"Aphredoderidae","Aphredoderus sayanus","Outlet of Beaver Pond, 4.4 mi. NE of jct. of Drowning Cr. & US 1 (1.5 mi. S of Aberdeen)","Moore",35.117118,-79.463529,"NC","3/31/1956","NRF 110","Neal Foster;  John Ramsey;  W. Davis"
"CUMV",37875,1,"Aphredoderidae","Aphredoderus sayanus","Outlet of Watsons Lake below spillway, W of Southern Pines","Moore",35.165394,-79.435416,"NC","6/1/1957","WJR 065","William Richards;  Robert Miller;  Gilbert Bane"
"CUMV",11091,,"Aphredoderidae","Aphredoderus sayanus","Ray's Mill Cr., trib. of Aberdeen Cr. at Aberdeen, just below where it flows under railroad at NE edge of town.","Moore",35.135666,-79.423865,"NC","6/28/1943","EEB 47-42","E. Brown"
"CUMV",35322,48,"Aphredoderidae","Aphredoderus sayanus","Stream and culvert at southern limits of Aberdeen on US 1","Moore",35.117118,-79.463529,"NC","3/31/1956","NRF 109","Neal Foster;  John Ramsey;  W. Davis"
"CUMV",19472,2,"Aphredoderidae","Aphredoderus sayanus","Trib. of Aberdeen Cr., 0.2 mi. S of Aberdeen on US 1","Moore",35.127972,-79.432152,"NC","3/28/1947","ECR 1945","Edward Raney;  Richard Backus;  Charles Robins;  J. Layne; et al."
"CUMV",30108,4,"Aphredoderidae","Aphredoderus sayanus","Trib. of Aberdeen Cr., 0.2 mi. S of Aberdeen on US 1","Moore",35.127972,-79.432152,"NC","3/22/1952","RJM 1002","Rudolf Miller;  T. Poulson;  J. Kaufman;  T. Savage"
"CUMV",19758,15,"Aphredoderidae","Aphredoderus sayanus","Trib. of Aberdeen Cr., 0.9 mi. N of Pine Bluff","Moore",35.117118,-79.463529,"NC","3/28/1947","ECR 1946","Edward Raney;  Richard Backus;  Charles Robins;  J. Layne; et al."
"CUMV",16811,2,"Aphredoderidae","Aphredoderus sayanus","Trib. of Drowning Cr., 1.8 mi. S of Aberdeen City Limits on Rt. 1","Moore",35.117118,-79.463529,"NC","3/29/1945","HEE 1532","Edward Raney;  Royal Suttkus;  Howard Evans;  Robert Roecker"
"CUMV",15491,2,"Aphredoderidae","Aphredoderus sayanus","Trib. of outlet of Aberdeen L. 0.2 mi. S of city limits of Aberdeen on Rt. 1","Moore",35.127972,-79.432152,"NC","3/29/1945","HEE 1533","Edward Raney;  Royal Suttkus;  Howard Evans;  Robert Roecker"
"CUMV",11092,6,"Aphredoderidae","Aphredoderus sayanus","Trib. of Watson's Lake Outlet, just N of Aberdeen","Moore",35.159873,-79.43552,"NC","6/28/1943","EEB 47-40","E. Brown"
"CUMV",11712,8,"Aphredoderidae","Aphredoderus sayanus","Trib. of Tar R., 2.5 mi. N of Rocky Mount","Nash",35.978273,-77.783572,"NC","6/26/1942","ECR 1209","Edward Raney;  Ernest Lachner;  Robert Ross"
"CUMV",31639,23,"Aphredoderidae","Aphredoderus sayanus","Trib. of Roanoke R., 8 mi. SE of Garysburg on US 158","Northampton",36.377049,-77.452343,"NC","4/3/1954","BBC 436","Bruce Collette;  H. Howard"
"CUMV",29882,2,"Aphredoderidae","Aphredoderus sayanus","A small stream about 3 mi. NW of Swainsboro on NC 24","Onslow",34.712323,-77.174002,"NC","3/25/1952","ECR 2761","Edward Raney;  Charles Robins;  John New;  Bruce Collette; et al."
"CUMV",25212,1,"Aphredoderidae","Aphredoderus sayanus","North Carolina Branch New R., 5.6 mi. N of Jacksonville on Rt. 11 (17?)","Onslow",34.806679,-77.352594,"NC","3/27/1945","HEE 1518","Edward Raney;  Royal Suttkus;  Howard Evans;  Robert Roecker"
"CUMV",31681,1,"Aphredoderidae","Aphredoderus sayanus","Eno R., about 2 mi. W of Hillsboro on US 70","Orange",36.082881,-79.140067,"NC","3/29/1954","BBC 404","Bruce Collette;  H. Howard"
"CUMV",30055,1,"Aphredoderidae","Aphredoderus sayanus","Burgaw Creek (trib. of Northeast Cape Fear R., 2.1 mi. SW of Northeast Cape Fear R. Bridge on NC 53)","Pender",34.579099,-77.900274,"NC","3/25/1952","ECR 2763","Edward Raney;  Charles Robins;  Bruce Collette;  John New; et al."
"CUMV",31695,1,"Aphredoderidae","Aphredoderus sayanus","Trib. NE of Cape Fear R., 1.8 mi. NE of Burgaw at jct. of US 1174 & NC 53","Pender",34.579524,-77.900715,"NC","4/3/1954","BBC 432","Bruce Collette;  H. Howard"
"CUMV",30169,5,"Aphredoderidae","Aphredoderus sayanus","Trib. of Holly Shelter Cr., 12 mi. S of Pender Co. line on NC 53, 2.9 mi. NE of NE Cape Fear R.","Pender",34.613417,-77.831265,"NC","3/25/1952","ECR 2762","Edward Raney;  Charles Robins;  John New;  Bruce Collette; et al."
"CUMV",10078,2,"Aphredoderidae","Aphredoderus sayanus","Brush Cr. (trib. of Deep R.), 0.25 mi. W Chatham County line on Route  64, 5 mi. W of Silver City","Randolph",35.743683,-79.549569,"NC","4/5/1936","ECR 0740","Ernest Lachner;  Edward Raney;  James Kezer"
"CUMV",19567,2,"Aphredoderidae","Aphredoderus sayanus","Hitchcock Cr. at Roberdell","Richmond",34.970024,-79.743853,"NC","3/28/1947","ECR 1941","Edward Raney;  Richard Backus;  Charles Robins;  J. Layne; et al."
"CUMV",75085,25,"Aphredoderidae","Aphredoderus sayanus","Gum Swamp Lake at County Rd. 1342","Scotland",34.910293,-79.561803,"NC","10/14/1984","JMH 88-18","Julian Humphries;  Paula Mabee"
"CUMV",44453,2,"Aphredoderidae","Aphredoderus sayanus","Gum Swamp, trib. of Little PeeDee R., 5.4 mi. S of Laurinburg on US 15A","Scotland",34.71213,-79.51661,"NC","12/26/1945","RDS 1200","Royal Suttkus;  Charles Cole;  Ronald Wigley;  Ralph Yerger"
"CUMV",37835,1,"Aphredoderidae","Aphredoderus sayanus","Shoe Heel Cr., W of Maxton on Rt. 74","Scotland",34.750624,-79.386465,"NC","6/1/1957","WJR 066","William Richards;  Robert Miller;  Gilbert Bane"
"CUMV",25957,2,"Aphredoderidae","Aphredoderus sayanus","Shoehill Cr., 2 mi. SW of Wagram on US 15A","Scotland",34.866572,-79.385538,"NC","3/29/1950","ECR 2507","Edward Raney;  Charles Cole;  Davis;  E. Deubler; et al."
"CUMV",19585,5,"Aphredoderidae","Aphredoderus sayanus","Trib. of Drowning Cr., 2.5 mi. S of Hoffman in Sand Hills Game Preserve","Scotland",35.003087,-79.537887,"NC","3/28/1947","ECR 1942","Edward Raney;  Richard Backus;  Charles Robins;  J. Layne; et al."
"CUMV",31659,9,"Aphredoderidae","Aphredoderus sayanus","Trib. of Rocky R. on dirt road between Red Cross & Locust","Stanly",35.261857,-80.403728,"NC","3/30/1954","BBC 409","Bruce Collette;  H. Howard"
"CUMV",9926,1,"Aphredoderidae","Aphredoderus sayanus","Buffalo Cr., 13 mi. W of Raleigh on Rt. 64","Wake",35.811914,-78.410717,"NC","4/5/1936","ECR 0743","Ernest Lachner;  Edward Raney;  James Kezer"
"CUMV",9729,1,"Aphredoderidae","Aphredoderus sayanus","Small trib. 7 mi. NW of Raleigh on Rt. 70A","Wake",35.870399,-78.722734,"NC","3/31/1937","ECR 0977","Ernest Lachner;  Roman Pfeiffer;  Edward Raney"
"CUMV",8526,3,"Aphredoderidae","Aphredoderus sayanus","Small trib. of Little Cr., 1.5 mi. NE of Wendell","Wake",35.79561,-78.347856,"NC","4/5/1936","ECR 0744","Ernest Lachner;  Edward Raney;  James Kezer"
"CUMV",25871,8,"Aphredoderidae","Aphredoderus sayanus","Trib. of Neuse R., 14 mi. S of Creedmore on NC 15A","Wake",36.017861,-78.897188,"NC","4/1/1950","ECR 2518","Edward Raney;  Charles Cole;  Robert Gibbs;  E. Deubler; et al."
"CUMV",25270,1,"Aphredoderidae","Aphredoderus sayanus","Brooks Swamps, 3.5 mi. N of Mt. Olive on Rt. 171","Wayne",35.243478,-78.056892,"NC","6/26/1942","ECR 1204","Edward Raney;  Ernest Lachner;  Robert Ross"
"CUMV",11581,9,"Aphredoderidae","Aphredoderus sayanus","Black Cr. 8.7 mi. N of Fremont","Wilson",35.634738,-77.959483,"NC","6/26/1942","ECR 1206","Edward Raney;  Ernest Lachner;  Robert Ross"
"INHS",46269,2,"Aphredoderidae","Aphredoderus sayanus","Colly Creek, 4.3 air mi ESE Singletary Lake, S.R. 1532, Singletary Lake State Park","Bladen",34.580429,-78.38673,"NC","8/28/1996","","G.B. Mottesi & S.D. Kirk"
"INHS",46183,2,"Aphredoderidae","Aphredoderus sayanus","Colly Creek, 7 air mi N White Lake, S.R. 1524, Singletary Lake State Park","Bladen",34.747139,-78.503341,"NC","8/27/1996","","G.B. Mottesi & S.D. Kirk"
"INHS",45515,2,"Aphredoderidae","Aphredoderus sayanus","Little Colly Creek, 1.6 air mi N jct. NC Rt. 41 & U.S. Rt. 701, Singletary Lake State Park","Bladen",34.678108,-78.490013,"NC","8/27/1996","","G.B. Mottesi & S.D. Kirk"
"INHS",27245,2,"Aphredoderidae","Aphredoderus sayanus","South River, 3 mi SW Garland","Bladen",34.761472,-78.409098,"NC","5/1/1979","","L.M. Page & W.L. Keller"
"INHS",49807,1,"Aphredoderidae","Aphredoderus sayanus","trib. Brown Marsh Creek, 4.8 air mi NNE Clarkton, S.R. 1700","Bladen",34.547201,-78.614866,"NC","7/10/1997","","G.B. Mottesi & M.R. Wood"
"INHS",45519,1,"Aphredoderidae","Aphredoderus sayanus","trib. Colly Creek, 1.5 air mi NW Rowan, S.R. 1548, Singletary Lake State Park","Bladen",34.52698,-78.282359,"NC","3/25/1997","","G.B. Mottesi & M.E. Savacool"
"INHS",46265,1,"Aphredoderidae","Aphredoderus sayanus","trib. Turnbull Creek, 5.3 air mi NNE Elizabethtown, NC 53","Bladen",34.647425,-78.518026,"NC","3/25/1997","","G.B. Mottesi & M.E. Savacool"
"INHS",58953,13,"Aphredoderidae","Aphredoderus sayanus","Royal Oak Swamp, 1.3 mi N Supply, Hwy. 211","Brunswick",34.03363,-78.28017,"NC","6/20/1990","","L.M. Page, P.A. Ceas, D.A. Carney, M.L. Warren & B.M. Burr"
"INHS",82094,1,"Aphredoderidae","Aphredoderus sayanus","swamp, 0.5 mi S Newport","Carteret",34.78124,-76.85984,"NC","9/3/1964","","P.W. Smith & M.M. Hensley"
"INHS",82087,9,"Aphredoderidae","Aphredoderus sayanus","swamp, Godfrey Banch, 1 mi NW Peletier","Carteret",34.744124,-77.104455,"NC","9/2/1964","","P.W. Smith & M.M. Hensley"
"INHS",75106,6,"Aphredoderidae","Aphredoderus sayanus","Lake Waccamaw, Waccamaw","Columbus",34.261294,-78.479959,"NC","6/15/1976","","L.M. Page, B.M. Burr & D.G. Buth"
"INHS",29615,2,"Aphredoderidae","Aphredoderus sayanus","McPherson Creek, Fort Bragg Military Res., downstream of Tank Rd., behind tank wash","Cumberland",35.143517,-79.043608,"NC","10/16/1992","","P.J. Perea, P.B. Bayley, T. Krzyik, J. Stone & C. Dyson"
"INHS",29716,7,"Aphredoderidae","Aphredoderus sayanus","McPherson Creek, Fort Bragg Military Res., downstream of Tank Rd., below tank wash","Cumberland",35.143517,-79.043608,"NC","6/21/1992","","P.J. Perea, P.B. Bayley, T. Krzyik, J. Stone & C. Dyson"
"INHS",74345,1,"Aphredoderidae","Aphredoderus sayanus","Tar River, 4 mi N Franklinton","Franklin",35.143517,-79.043608,"NC","6/16/1971","","L.M. Page & J.A. Tranquilli"
"INHS",32331,2,"Aphredoderidae","Aphredoderus sayanus","Gum Branch, Fort Bragg Military Res., downstream of Chicken Rd.","Hoke",35.07807,-79.293807,"NC","6/18/1992","","P.J. Perea, P.B. Bayley, T. Krzyik, J. Stone & C. Dyson"
"INHS",29711,1,"Aphredoderidae","Aphredoderus sayanus","Gum Branch, Fort Bragg Military Res., upstream of Chicken Rd.","Hoke",35.07823,-79.294021,"NC","6/18/1992","","P.J. Perea, P.B. Bayley, T. Krzyik, J. Stone & C. Dyson"
"INHS",32368,1,"Aphredoderidae","Aphredoderus sayanus","Horse Creek, Fort Bragg Military Res., upstream of bridge on Fire Break 9","Hoke",35.172219,-79.223317,"NC","6/24/1992","","P.J. Perea, P.B. Bayley, T. Krzyik, J. Stone & C. Dyson"
"INHS",32372,6,"Aphredoderidae","Aphredoderus sayanus","James Creek, Fort Bragg Military Res., 7 mi ENE Southern Pines, downstream of Johnson Mill Pond","Hoke",35.212995,-79.241553,"NC","6/17/1992","","P.J. Perea, P.B. Bayley, T. Krzyik, J. Stone & C. Dyson"
"INHS",32344,6,"Aphredoderidae","Aphredoderus sayanus","James Creek, Fort Bragg Military Res., 7 mi ENE Southern Pines, downstream of Johnson Mill Pond","Hoke",35.212995,-79.241553,"NC","6/24/1992","","P.J. Perea, P.B. Bayley, T. Krzyik, J. Stone & C. Dyson"
"INHS",32340,2,"Aphredoderidae","Aphredoderus sayanus","Jumping Run Creek, Fort Bragg Military Res., 7 mi ENE Southern Pines, downstream of Johnson Mill Pond","Hoke",35.212995,-79.241553,"NC","6/21/1992","","P.J. Perea, P.B. Bayley, T. Krzyik, J. Stone & C. Dyson"
"INHS",29744,1,"Aphredoderidae","Aphredoderus sayanus","Juniper Creek, Fort Bragg Military Res., 7 mi ENE Southern Pines, downstream of Johnson Mill Pond","Hoke",35.212995,-79.241553,"NC","6/23/1992","","P.J. Perea, P.B. Bayley, T. Krzyik, J. Stone & C. Dyson"
"INHS",32352,11,"Aphredoderidae","Aphredoderus sayanus","McDuffie Creek, Fort Bragg Military Res., 7 mi ENE Southern Pines, downstream of Johnson Mill Pond","Hoke",35.212995,-79.241553,"NC","6/23/1992","","P.J. Perea, P.B. Bayley, T. Krzyik, J. Stone & C. Dyson"
"INHS",29596,1,"Aphredoderidae","Aphredoderus sayanus","McDuffie Creek, Fort Bragg Military Res., 7 mi ENE Southern Pines, downstream of Johnson Mill Pond","Hoke",35.212995,-79.241553,"NC","10/16/1992","","P.J. Perea, P.B. Bayley, T. Krzyik, J. Stone & C. Dyson"
"INHS",46229,1,"Aphredoderidae","Aphredoderus sayanus","Mountain Creek, 1.5 air mi SW McCain, S.R. 1219","Hoke",35.043594,-79.36622,"NC","4/16/1997","","G.B. Mottesi & M.E. Savacool"
"INHS",32359,4,"Aphredoderidae","Aphredoderus sayanus","Puppy Creek, Fort Bragg Military Res., downstream of Chicken Rd.","Hoke",35.06614,-79.13284,"NC","6/19/1992","","P.J. Perea, P.B. Bayley, T. Krzyik, J. Stone & C. Dyson"
"INHS",29739,2,"Aphredoderidae","Aphredoderus sayanus","trib. Little River (""Rebel Run""), 6 mi W Fort Bragg, upstream of Manchester Rd.","Hoke",35.164863,-79.136693,"NC","6/21/1992","","P.J. Perea, P.B. Bayley, T. Krzyik, J. Stone & C. Dyson"
"INHS",87504,2,"Aphredoderidae","Aphredoderus sayanus","trib. Lumber River, 2.5 mi NE Oak Hill","Hoke",34.975317,-79.358425,"NC","7/25/1981","","D.L. Swofford & R.D. Swofford"
"INHS",32337,4,"Aphredoderidae","Aphredoderus sayanus","Tuckahoe Creek, Fort Bragg Military Res., 0.75 mi below Lake MacArthur","Hoke",35.20028,-79.25367,"NC","6/24/1992","","P.J. Perea, P.B. Bayley, T. Krzyik, J. Stone & C. Dyson"
"INHS",75201,1,"Aphredoderidae","Aphredoderus sayanus","Little Creek, 0.5 mi SW Clayton","Johnston",35.644151,-78.464901,"NC","6/14/1985","","D.G. Buth & B.M. Burr"
"INHS",82102,1,"Aphredoderidae","Aphredoderus sayanus","swamp, 1 mi E Kuhns","Jones",34.796933,-77.113815,"NC","9/2/1964","","P.W. Smith & M.M. Hensley"
"INHS",82126,6,"Aphredoderidae","Aphredoderus sayanus","Collie Swamp, 2 mi E Robersonville","Martin",35.82648,-77.19937,"NC","6/16/1971","","L.M. Page & J.A. Tranquilli"
"INHS",75205,5,"Aphredoderidae","Aphredoderus sayanus","Crane Creek, 2 mi N Vass","Moore",35.28512,-79.27148,"NC","6/13/1976","","L.M. Page, B.M. Burr & D.G. Buth"
"INHS",58978,3,"Aphredoderidae","Aphredoderus sayanus","Deep Creek, 2.5 mi W Roseland","Moore",35.14261,-79.54389,"NC","6/20/1990","","L.M. Page, P.A. Ceas, D.A. Carney, M.L. Warren & B.M. Burr"
"INHS",88253,10,"Aphredoderidae","Aphredoderus sayanus","Little Crane Creek, Cameron, SR 1825","Moore",35.289646,-79.266196,"NC","6/26/1983","","L.M. Page & K.S. Cummings"
"INHS",38349,52,"Aphredoderidae","Aphredoderus sayanus","Swift Creek, 3 mi SW Whitakers, U.S. Rt. 301 bridge","Nash",36.0784,-77.74843,"NC","6/25/1996","","M.H. Sabaj, G.B. Mottesi, J.W. Armbruster, T.J. Near & J.M. Serb"
"INHS",29677,1,"Aphredoderidae","Aphredoderus sayanus","Gumberry Swamp, 7.5 mi SE Garysburg, S.R. 158","Northampton",36.377049,-77.452343,"NC","5/11/1993","","M.H. Sabaj & L. Avella"
"INHS",46214,1,"Aphredoderidae","Aphredoderus sayanus","trib. Naked Creek, 1.5 air mi SE Plainview, S.R. 1458","Richmond",35.12705,-79.698887,"NC","4/15/1997","","G.B. Mottesi & M.E. Savacool"
"INHS",46228,3,"Aphredoderidae","Aphredoderus sayanus","Big Swamp, 7.75 air mi NNE Orrum, S.R. 1002, at boat ramp","Robeson",34.480548,-78.879017,"NC","7/17/1996","","J.M. Alderman, G.B. Mottesi, S.D. Kirk & M.E. Savacool"
"INHS",46212,1,"Aphredoderidae","Aphredoderus sayanus","trib. Gum Swamp Creek, 0.6 air mi E Crossway, S.R. 1108","Scotland",34.75224,-79.51605,"NC","5/15/1997","","G.B. Mottesi & M.E. Savacool"
"INHS",44755,2,"Aphredoderidae","Aphredoderus sayanus","Reedy Creek, 2.5 mi SSW Embro, S.R. 1507, Medoc Mountain State Park","Warren",36.355457,-78.063516,"NC","6/3/1996","","G.B. Mottesi, M.E. Savacool & J.M. Alderman"
"KU",8872,14,"Aphredoderidae","Aphredoderus sayanus","Swamp on Rd. 1124, 4.2 mi. N US 24, 5 mi. W US 70","Carteret",34.776149,-76.959646,"NC","9/3/1964","","Cross, Frank B; Busey, Fred H; Judd, C E; Pflieger, William L"
"KU",8852,1,"Aphredoderidae","Aphredoderus sayanus","Lake Waccamaw","Columbus",34.310764,-78.508022,"NC","8/31/1964","","Cross, Frank B; Busey, Fred H; Judd, C E"
"KU",8859,2,"Aphredoderidae","Aphredoderus sayanus","Waccamaw River on US 76 above Lake Waccamaw","Columbus",34.28296,-78.54355,"NC","8/31/1964","","Cross, Frank B; Busey, Fred H; Judd, C E"
"KU",5308,8,"Aphredoderidae","Aphredoderus sayanus","Goshen Swamp, 3 mi. SW Kornegay on NC Rt. 11","Duplin",35.027879,-77.851691,"NC","7/10/1960","","Metcalf, Artie L"
"KU",8863,4,"Aphredoderidae","Aphredoderus sayanus","Holy Shelter Swamp on NC 50, 10 mi. N of Jct. with US 17","Duplin",34.786304,-77.781379,"NC","8/31/1964","","Cross, Frank B; Busey, Fred H; Judd, C E"
"KU",5349,33,"Aphredoderidae","Aphredoderus sayanus","Trent River at Trenton","Jones",35.064792,-77.351237,"NC","7/10/1960","","Metcalf, Artie L"
"KU",5032,5,"Aphredoderidae","Aphredoderus sayanus","creek in cypress swamp, 5 mi. SE Greenville","Pitt",35.549133,-77.324644,"NC","12/17/1952","","Eaton, Theodore H"
"MCZ",60101,16,"Aphredoderidae","Aphredoderus sayanus","Juniper Creek, on St. Rt. 1340, east of Makatoka, approx. 5 miles west of NC 211.","Brunswick",34.122994,-78.394361,"NC","12/27/1982","","Fred C. Rohde, Chad C. Rohde, Rudolf G. Arndt"
"MCZ",60087,6,"Aphredoderidae","Aphredoderus sayanus","Beaverdam Swamp on St. Rt. 1005, SE of Chadbourn, S of junction with St. Rt. 1004.","Columbus",34.244795,-78.793965,"NC","12/27/1982","","Fred C. Rohde, Rudolf G. Arndt, and party"
"MCZ",60133,25,"Aphredoderidae","Aphredoderus sayanus","Angola Creek, on NC 55, approx. 15 mi. NE of Burgaw.","Pender",34.707385,-77.736883,"NC","1/1/1983","","Fred C. Rohde, Rudolf G. Arndt"
"MCZ",64591,2,"Aphredoderidae","Aphredoderus sayanus","Neuse River Drainage, Buffalo Creek at US 64.","Wake",35.802595,-78.408054,"NC","5/19/1986","","David A. Etnier"
"NCDMF",,5,"Aphredoderidae","Aphredoderus sayanus","27S, HARVEY PT. TO LITTLE R.","",36.103,-76.2,"NC","100804","200110000",""
"NCDMF",,1,"Aphredoderidae","Aphredoderus sayanus","7, NORTH RIVER","",36.269,-75.954,"NC","781115","201000000",""
"NCDMF",,1,"Aphredoderidae","Aphredoderus sayanus","11, INDIANTOWN CREEK","",36.355,-76.041,"NC","040607","201100000",""
"NCDMF",,1,"Aphredoderidae","Aphredoderus sayanus","11, INDIANTOWN CREEK","",36.355,-76.041,"NC","040917","201100000",""
"NCDMF",,11,"Aphredoderidae","Aphredoderus sayanus","11, INDIANTOWN CREEK","",36.355,-76.041,"NC","041012","201100000",""
"NCDMF",,1,"Aphredoderidae","Aphredoderus sayanus","11, INDIANTOWN CREEK","",36.355,-76.041,"NC","060912","201100000",""
"NCDMF",,1,"Aphredoderidae","Aphredoderus sayanus","11, INDIANTOWN CREEK","",36.355,-76.041,"NC","120914","201100000",""
"NCDMF",,27,"Aphredoderidae","Aphredoderus sayanus","11, INDIANTOWN CREEK","",36.355,-76.041,"NC","780629","201100000",""
"NCDMF",,1,"Aphredoderidae","Aphredoderus sayanus","11, INDIANTOWN CREEK","",36.355,-76.041,"NC","780724","201100000",""
"NCDMF",,1,"Aphredoderidae","Aphredoderus sayanus","11, INDIANTOWN CREEK","",36.355,-76.041,"NC","780818","201100000",""
"NCDMF",,1,"Aphredoderidae","Aphredoderus sayanus","11, INDIANTOWN CREEK","",36.355,-76.041,"NC","791004","201100000",""
"NCDMF",,1,"Aphredoderidae","Aphredoderus sayanus","12, INDIANTOWN CREEK","",36.348,-76.067,"NC","721003","201100000",""
"NCDMF",,1,"Aphredoderidae","Aphredoderus sayanus","10, GREAT CREEK","",36.297,-75.989,"NC","720810","201180000",""
"NCDMF",,1,"Aphredoderidae","Aphredoderus sayanus","10, GREAT CREEK","",36.297,-75.989,"NC","730221","201180000",""
"NCDMF",,1,"Aphredoderidae","Aphredoderus sayanus","10, GREAT CREEK","",36.297,-75.989,"NC","730807","201180000",""
"NCDMF",,8,"Aphredoderidae","Aphredoderus sayanus","159, PASQUOTANK RIVER","",36.267,-76.17,"NC","000815","202000000",""
"NCDMF",,2,"Aphredoderidae","Aphredoderus sayanus","159, PASQUOTANK RIVER","",36.267,-76.17,"NC","000831","202000000",""
"NCDMF",,4,"Aphredoderidae","Aphredoderus sayanus","159, PASQUOTANK RIVER","",36.267,-76.17,"NC","030725","202000000",""
"NCDMF",,3,"Aphredoderidae","Aphredoderus sayanus","159, PASQUOTANK RIVER","",36.267,-76.17,"NC","030806","202000000",""
"NCDMF",,10,"Aphredoderidae","Aphredoderus sayanus","159, PASQUOTANK RIVER","",36.267,-76.17,"NC","030821","202000000",""
"NCDMF",,4,"Aphredoderidae","Aphredoderus sayanus","159, PASQUOTANK RIVER","",36.267,-76.17,"NC","030903","202000000",""
"NCDMF",,3,"Aphredoderidae","Aphredoderus sayanus","159, PASQUOTANK RIVER","",36.267,-76.17,"NC","140721","202000000",""
"NCDMF",,1,"Aphredoderidae","Aphredoderus sayanus","159, PASQUOTANK RIVER","",36.267,-76.17,"NC","890724","202000000",""
"NCDMF",,4,"Aphredoderidae","Aphredoderus sayanus","23, PASQUOTANK RIVER","",36.333,-76.218,"NC","730206","202000000",""
"NCDMF",,1,"Aphredoderidae","Aphredoderus sayanus","23, PASQUOTANK RIVER","",36.333,-76.218,"NC","730515","202000000",""
"NCDMF",,1,"Aphredoderidae","Aphredoderus sayanus","23, PASQUOTANK RIVER","",36.333,-76.218,"NC","730606","202000000",""
"NCDMF",,1,"Aphredoderidae","Aphredoderus sayanus","23, PASQUOTANK RIVER","",36.333,-76.218,"NC","730822","202000000",""
"NCDMF",,12,"Aphredoderidae","Aphredoderus sayanus","23, PASQUOTANK RIVER","",36.333,-76.218,"NC","731017","202000000",""
"NCDMF",,5,"Aphredoderidae","Aphredoderus sayanus","24, PASQUOTANK RIVER","",36.318,-76.2,"NC","041006","202000000",""
"NCDMF",,12,"Aphredoderidae","Aphredoderus sayanus","24, PASQUOTANK RIVER","",36.318,-76.2,"NC","050621","202000000",""
"NCDMF",,2,"Aphredoderidae","Aphredoderus sayanus","24, PASQUOTANK RIVER","",36.318,-76.2,"NC","050721","202000000",""
"NCDMF",,12,"Aphredoderidae","Aphredoderus sayanus","24, PASQUOTANK RIVER","",36.318,-76.2,"NC","050809","202000000",""
"NCDMF",,4,"Aphredoderidae","Aphredoderus sayanus","24, PASQUOTANK RIVER","",36.318,-76.2,"NC","051028","202000000",""
"NCDMF",,1,"Aphredoderidae","Aphredoderus sayanus","24, PASQUOTANK RIVER","",36.318,-76.2,"NC","060921","202000000",""
"NCDMF",,3,"Aphredoderidae","Aphredoderus sayanus","24, PASQUOTANK RIVER","",36.318,-76.2,"NC","090610","202000000",""
"NCDMF",,83,"Aphredoderidae","Aphredoderus sayanus","24, PASQUOTANK RIVER","",36.318,-76.2,"NC","100607","202000000",""
"NCDMF",,5,"Aphredoderidae","Aphredoderus sayanus","24, PASQUOTANK RIVER","",36.318,-76.2,"NC","100715","202000000",""
"NCDMF",,1,"Aphredoderidae","Aphredoderus sayanus","24, PASQUOTANK RIVER","",36.318,-76.2,"NC","100915","202000000",""
"NCDMF",,29,"Aphredoderidae","Aphredoderus sayanus","24, PASQUOTANK RIVER","",36.318,-76.2,"NC","140701","202000000",""
"NCDMF",,9,"Aphredoderidae","Aphredoderus sayanus","24, PASQUOTANK RIVER","",36.318,-76.2,"NC","140805","202000000",""
"NCDMF",,10,"Aphredoderidae","Aphredoderus sayanus","24, PASQUOTANK RIVER","",36.318,-76.2,"NC","140904","202000000",""
"NCDMF",,8,"Aphredoderidae","Aphredoderus sayanus","24, PASQUOTANK RIVER","",36.318,-76.2,"NC","141001","202000000",""
"NCDMF",,83,"Aphredoderidae","Aphredoderus sayanus","24, PASQUOTANK RIVER","",36.318,-76.2,"NC","150603","202000000",""
"NCDMF",,2,"Aphredoderidae","Aphredoderus sayanus","24, PASQUOTANK RIVER","",36.318,-76.2,"NC","150707","202000000",""
"NCDMF",,2,"Aphredoderidae","Aphredoderus sayanus","24, PASQUOTANK RIVER","",36.318,-76.2,"NC","150805","202000000",""
"NCDMF",,6,"Aphredoderidae","Aphredoderus sayanus","24, PASQUOTANK RIVER","",36.318,-76.2,"NC","150901","202000000",""
"NCDMF",,8,"Aphredoderidae","Aphredoderus sayanus","24, PASQUOTANK RIVER","",36.318,-76.2,"NC","160616","202000000",""
"NCDMF",,17,"Aphredoderidae","Aphredoderus sayanus","24, PASQUOTANK RIVER","",36.318,-76.2,"NC","160809","202000000",""
"NCDMF",,1,"Aphredoderidae","Aphredoderus sayanus","24, PASQUOTANK RIVER","",36.318,-76.2,"NC","160913","202000000",""
"NCDMF",,1,"Aphredoderidae","Aphredoderus sayanus","24, PASQUOTANK RIVER","",36.318,-76.2,"NC","170920","202000000",""
"NCDMF",,1,"Aphredoderidae","Aphredoderus sayanus","24, PASQUOTANK RIVER","",36.318,-76.2,"NC","720807","202000000",""
"NCDMF",,1,"Aphredoderidae","Aphredoderus sayanus","24, PASQUOTANK RIVER","",36.318,-76.2,"NC","740328","202000000",""
"NCDMF",,2,"Aphredoderidae","Aphredoderus sayanus","24, PASQUOTANK RIVER","",36.318,-76.2,"NC","740410","202000000",""
"NCDMF",,2,"Aphredoderidae","Aphredoderus sayanus","24, PASQUOTANK RIVER","",36.318,-76.2,"NC","740619","202000000",""
"NCDMF",,7,"Aphredoderidae","Aphredoderus sayanus","24, PASQUOTANK RIVER","",36.318,-76.2,"NC","780619","202000000",""
"NCDMF",,14,"Aphredoderidae","Aphredoderus sayanus","24, PASQUOTANK RIVER","",36.318,-76.2,"NC","780727","202000000",""
"NCDMF",,17,"Aphredoderidae","Aphredoderus sayanus","24, PASQUOTANK RIVER","",36.318,-76.2,"NC","780818","202000000",""
"NCDMF",,23,"Aphredoderidae","Aphredoderus sayanus","24, PASQUOTANK RIVER","",36.318,-76.2,"NC","780912","202000000",""
"NCDMF",,5,"Aphredoderidae","Aphredoderus sayanus","24, PASQUOTANK RIVER","",36.318,-76.2,"NC","781011","202000000",""
"NCDMF",,2,"Aphredoderidae","Aphredoderus sayanus","24, PASQUOTANK RIVER","",36.318,-76.2,"NC","781115","202000000",""
"NCDMF",,1,"Aphredoderidae","Aphredoderus sayanus","C9, PASQUOTANK RIVER","",36.402,-76.311,"NC","720808","202000000",""
"NCDMF",,10,"Aphredoderidae","Aphredoderus sayanus","19, NEW BEGUN CREEK","",36.213,-76.157,"NC","140603","202060000",""
"NCDMF",,1,"Aphredoderidae","Aphredoderus sayanus","24, DISMAL SWAMP CANAL (LAKE DRUMMOND CANAL)","",36.433,-76.325,"NC","721004","202140000",""
"NCDMF",,5,"Aphredoderidae","Aphredoderus sayanus","24, DISMAL SWAMP CANAL (LAKE DRUMMOND CANAL)","",36.433,-76.325,"NC","730515","202140000",""
"NCDMF",,4,"Aphredoderidae","Aphredoderus sayanus","24, DISMAL SWAMP CANAL (LAKE DRUMMOND CANAL)","",36.433,-76.325,"NC","730606","202140000",""
"NCDMF",,2,"Aphredoderidae","Aphredoderus sayanus","24, DISMAL SWAMP CANAL (LAKE DRUMMOND CANAL)","",36.433,-76.325,"NC","730713","202140000",""
"NCDMF",,2,"Aphredoderidae","Aphredoderus sayanus","24, DISMAL SWAMP CANAL (LAKE DRUMMOND CANAL)","",36.433,-76.325,"NC","730822","202140000",""
"NCDMF",,10,"Aphredoderidae","Aphredoderus sayanus","24, DISMAL SWAMP CANAL (LAKE DRUMMOND CANAL)","",36.433,-76.325,"NC","731017","202140000",""
"NCDMF",,1,"Aphredoderidae","Aphredoderus sayanus","24, DISMAL SWAMP CANAL (LAKE DRUMMOND CANAL)","",36.433,-76.325,"NC","731128","202140000",""
"NCDMF",,2,"Aphredoderidae","Aphredoderus sayanus","24, DISMAL SWAMP CANAL (LAKE DRUMMOND CANAL)","",36.433,-76.325,"NC","731207","202140000",""
"NCDMF",,1,"Aphredoderidae","Aphredoderus sayanus","36, PERQUIMANS RIVER","",36.205,-76.473,"NC","041020","205000000",""
"NCDMF",,1,"Aphredoderidae","Aphredoderus sayanus","36, PERQUIMANS RIVER","",36.205,-76.473,"NC","050811","205000000",""
"NCDMF",,7,"Aphredoderidae","Aphredoderus sayanus","36, PERQUIMANS RIVER","",36.205,-76.473,"NC","051011","205000000",""
"NCDMF",,4,"Aphredoderidae","Aphredoderus sayanus","36, PERQUIMANS RIVER","",36.205,-76.473,"NC","100701","205000000",""
"NCDMF",,4,"Aphredoderidae","Aphredoderus sayanus","36, PERQUIMANS RIVER","",36.205,-76.473,"NC","100908","205000000",""
"NCDMF",,3,"Aphredoderidae","Aphredoderus sayanus","36, PERQUIMANS RIVER","",36.205,-76.473,"NC","101004","205000000",""
"NCDMF",,1,"Aphredoderidae","Aphredoderus sayanus","36, PERQUIMANS RIVER","",36.205,-76.473,"NC","140721","205000000",""
"NCDMF",,3,"Aphredoderidae","Aphredoderus sayanus","36, PERQUIMANS RIVER","",36.205,-76.473,"NC","140813","205000000",""
"NCDMF",,2,"Aphredoderidae","Aphredoderus sayanus","36, PERQUIMANS RIVER","",36.205,-76.473,"NC","150813","205000000",""
"NCDMF",,2,"Aphredoderidae","Aphredoderus sayanus","36, PERQUIMANS RIVER","",36.205,-76.473,"NC","171010","205000000",""
"NCDMF",,4,"Aphredoderidae","Aphredoderus sayanus","36, PERQUIMANS RIVER","",36.205,-76.473,"NC","750523","205000000",""
"NCDMF",,1,"Aphredoderidae","Aphredoderus sayanus","36, PERQUIMANS RIVER","",36.205,-76.473,"NC","751215","205000000",""
"NCDMF",,1,"Aphredoderidae","Aphredoderus sayanus","36, PERQUIMANS RIVER","",36.205,-76.473,"NC","790904","205000000",""
"NCDMF",,4,"Aphredoderidae","Aphredoderus sayanus","38S, PERQUIMANS RIVER","",36.186,-76.458,"NC","100701","205000000",""
"NCDMF",,3,"Aphredoderidae","Aphredoderus sayanus","7, PERQUIMANS RIVER","",36.266,-76.544,"NC","720810","205000000",""
"NCDMF",,1,"Aphredoderidae","Aphredoderus sayanus","41, YEOPIM RIVER","",36.083,-76.458,"NC","780623","206000000",""
"NCDMF",,1,"Aphredoderidae","Aphredoderus sayanus","56, COLER./CHOW.B./N.HOLIDAY IS.","",36.225,-76.71,"NC","150727","208000300",""
"NCDMF",,2,"Aphredoderidae","Aphredoderus sayanus","56S, COLER./CHOW.B./N.HOLIDAY IS.","",36.228,-76.706,"NC","110906","208000300",""
"NCDMF",,1,"Aphredoderidae","Aphredoderus sayanus","48S, MOUTH BARNES CK-HWY 158/13 BR.","",36.39,-76.91,"NC","141002","208000500",""
"NCDMF",,1,"Aphredoderidae","Aphredoderus sayanus","70, HWY 158/13 BR TO VA. ST.LINE","",36.479,-76.936,"NC","751118","208000600",""
"NCDMF",,1,"Aphredoderidae","Aphredoderus sayanus","59, BENNETTS CREEK","",36.305,-76.697,"NC","100813","208050000",""
"NCDMF",,1,"Aphredoderidae","Aphredoderus sayanus","59, BENNETTS CREEK","",36.305,-76.697,"NC","141008","208050000",""
"NCDMF",,1,"Aphredoderidae","Aphredoderus sayanus","65, WICCACON RIVER","",36.307,-76.836,"NC","730711","208140000",""
"NCDMF",,1,"Aphredoderidae","Aphredoderus sayanus","72, CASHIE RIVER","",35.923,-76.736,"NC","781208","209010000",""
"NCDMF",,1,"Aphredoderidae","Aphredoderus sayanus","74, CASHIE RIVER","",35.926,-76.833,"NC","781208","209010000",""
"NCDMF",,2,"Aphredoderidae","Aphredoderus sayanus","75, CASHIE RIVER","",35.96,-76.925,"NC","720914","209010000",""
"NCDMF",,8,"Aphredoderidae","Aphredoderus sayanus","80, LEFT FORK","",35.868,-76.847,"NC","781023","210050100",""
"NCDMF",,28,"Aphredoderidae","Aphredoderus sayanus","80, LEFT FORK","",35.868,-76.847,"NC","781208","210050100",""
"NCDMF",,5,"Aphredoderidae","Aphredoderus sayanus","86, SCUPPERNONG RIVER","",35.908,-76.261,"NC","751114","213010000",""
"NCDMF",,12,"Aphredoderidae","Aphredoderus sayanus","86, SCUPPERNONG RIVER","",35.908,-76.261,"NC","760127","213010000",""
"NCDMF",,3,"Aphredoderidae","Aphredoderus sayanus","86, SCUPPERNONG RIVER","",35.908,-76.261,"NC","791026","213010000",""
"NCDMF",,11,"Aphredoderidae","Aphredoderus sayanus","86, SCUPPERNONG RIVER","",35.908,-76.261,"NC","800710","213010000",""
"NCDMF",,1,"Aphredoderidae","Aphredoderus sayanus","86, SCUPPERNONG RIVER","",35.908,-76.261,"NC","800902","213010000",""
"NCDMF",,1,"Aphredoderidae","Aphredoderus sayanus","US3, SCUPPERNONG RIVER","",35.878,-76.337,"NC","720829","213010000",""
"NCDMF",,8,"Aphredoderidae","Aphredoderus sayanus","US4, SCUPPERNONG RIVER","",35.886,-76.333,"NC","720829","213010000",""
"NCDMF",,1,"Aphredoderidae","Aphredoderus sayanus","97, GRPVB-PPLR RDG-NWPTNWS PT-MKR10","",35.681,-76.036,"NC","720911","214000500",""
"NCDMF",,14,"Aphredoderidae","Aphredoderus sayanus","100, PT LKOUT-GA BAY-THE FORKS","",35.697,-76.166,"NC","050616","214000700",""
"NCDMF",,8,"Aphredoderidae","Aphredoderus sayanus","100, PT LKOUT-GA BAY-THE FORKS","",35.697,-76.166,"NC","050712","214000700",""
"NCDMF",,3,"Aphredoderidae","Aphredoderus sayanus","100, PT LKOUT-GA BAY-THE FORKS","",35.697,-76.166,"NC","051018","214000700",""
"NCDMF",,2,"Aphredoderidae","Aphredoderus sayanus","100, PT LKOUT-GA BAY-THE FORKS","",35.697,-76.166,"NC","060926","214000700",""
"NCDMF",,28,"Aphredoderidae","Aphredoderus sayanus","100, PT LKOUT-GA BAY-THE FORKS","",35.697,-76.166,"NC","101027","214000700",""
"NCDMF",,1,"Aphredoderidae","Aphredoderus sayanus","100, PT LKOUT-GA BAY-THE FORKS","",35.697,-76.166,"NC","130827","214000700",""
"NCDMF",,2,"Aphredoderidae","Aphredoderus sayanus","100, PT LKOUT-GA BAY-THE FORKS","",35.697,-76.166,"NC","130925","214000700",""
"NCDMF",,2,"Aphredoderidae","Aphredoderus sayanus","100, PT LKOUT-GA BAY-THE FORKS","",35.697,-76.166,"NC","150611","214000700",""
"NCDMF",,1,"Aphredoderidae","Aphredoderus sayanus","100, PT LKOUT-GA BAY-THE FORKS","",35.697,-76.166,"NC","730131","214000700",""
"NCDMF",,1,"Aphredoderidae","Aphredoderus sayanus","100, PT LKOUT-GA BAY-THE FORKS","",35.697,-76.166,"NC","730620","214000700",""
"NCDMF",,1,"Aphredoderidae","Aphredoderus sayanus","100, PT LKOUT-GA BAY-THE FORKS","",35.697,-76.166,"NC","750206","214000700",""
"NCDMF",,1,"Aphredoderidae","Aphredoderus sayanus","100, PT LKOUT-GA BAY-THE FORKS","",35.697,-76.166,"NC","750908","214000700",""
"NCDMF",,21,"Aphredoderidae","Aphredoderus sayanus","100, PT LKOUT-GA BAY-THE FORKS","",35.697,-76.166,"NC","780609","214000700",""
"NCDMF",,30,"Aphredoderidae","Aphredoderus sayanus","100, PT LKOUT-GA BAY-THE FORKS","",35.697,-76.166,"NC","780725","214000700",""
"NCDMF",,3,"Aphredoderidae","Aphredoderus sayanus","100, PT LKOUT-GA BAY-THE FORKS","",35.697,-76.166,"NC","780816","214000700",""
"NCDMF",,7,"Aphredoderidae","Aphredoderus sayanus","100, PT LKOUT-GA BAY-THE FORKS","",35.697,-76.166,"NC","780908","214000700",""
"NCDMF",,1,"Aphredoderidae","Aphredoderus sayanus","100, PT LKOUT-GA BAY-THE FORKS","",35.697,-76.166,"NC","781101","214000700",""
"NCDMF",,1,"Aphredoderidae","Aphredoderus sayanus","99, PT LKOUT-GA BAY-THE FORKS","",35.675,-76.107,"NC","051018","214000700",""
"NCDMF",,1,"Aphredoderidae","Aphredoderus sayanus","99, PT LKOUT-GA BAY-THE FORKS","",35.675,-76.107,"NC","150611","214000700",""
"NCDMF",,3,"Aphredoderidae","Aphredoderus sayanus","99, PT LKOUT-GA BAY-THE FORKS","",35.675,-76.107,"NC","740812","214000700",""
"NCDMF",,1,"Aphredoderidae","Aphredoderus sayanus","99, PT LKOUT-GA BAY-THE FORKS","",35.675,-76.107,"NC","740909","214000700",""
"NCDMF",,35,"Aphredoderidae","Aphredoderus sayanus","99, PT LKOUT-GA BAY-THE FORKS","",35.675,-76.107,"NC","780725","214000700",""
"NCDMF",,9,"Aphredoderidae","Aphredoderus sayanus","99, PT LKOUT-GA BAY-THE FORKS","",35.675,-76.107,"NC","780908","214000700",""
"NCDMF",,1,"Aphredoderidae","Aphredoderus sayanus","99, PT LKOUT-GA BAY-THE FORKS","",35.675,-76.107,"NC","781101","214000700",""
"NCDMF",,1,"Aphredoderidae","Aphredoderus sayanus","90, LITTLE ALLIGATOR CREEK (RIVER)","",35.948,-76.124,"NC","720824","214010000",""
"NCDMF",,1,"Aphredoderidae","Aphredoderus sayanus","90, LITTLE ALLIGATOR CREEK (RIVER)","",35.948,-76.124,"NC","730613","214010000",""
"NCDMF",,2,"Aphredoderidae","Aphredoderus sayanus","90, LITTLE ALLIGATOR CREEK (RIVER)","",35.948,-76.124,"NC","730716","214010000",""
"NCDMF",,33,"Aphredoderidae","Aphredoderus sayanus","90, LITTLE ALLIGATOR CREEK (RIVER)","",35.948,-76.124,"NC","730823","214010000",""
"NCDMF",,1,"Aphredoderidae","Aphredoderus sayanus","93, MILLTAIL CREEK & LAKE","",35.84,-75.963,"NC","730507","214040000",""
"NCDMF",,1,"Aphredoderidae","Aphredoderus sayanus","93, MILLTAIL CREEK & LAKE","",35.84,-75.963,"NC","731005","214040000",""
"NCDMF",,1,"Aphredoderidae","Aphredoderus sayanus","AR15, MILLTAIL CREEK & LAKE","",35.834,-75.92,"NC","720911","214040000",""
"NCDMF",,1,"Aphredoderidae","Aphredoderus sayanus","103, NORTHEAST PRONG","",35.893,-75.859,"NC","730823","214050300",""
"NCDMF",,2,"Aphredoderidae","Aphredoderus sayanus","103, NORTHEAST PRONG","",35.893,-75.859,"NC","730917","214050300",""
"NCDMF",,1,"Aphredoderidae","Aphredoderus sayanus","102, SOUTHEAST PRONG","",35.878,-75.863,"NC","720822","214050600",""
"NCDMF",,9,"Aphredoderidae","Aphredoderus sayanus","102, SOUTHEAST PRONG","",35.878,-75.863,"NC","730823","214050600",""
"NCDMF",,4,"Aphredoderidae","Aphredoderus sayanus","102, SOUTHEAST PRONG","",35.878,-75.863,"NC","730917","214050600",""
"NCDMF",,3,"Aphredoderidae","Aphredoderus sayanus","102, SOUTHEAST PRONG","",35.878,-75.863,"NC","731010","214050600",""
"NCDMF",,3,"Aphredoderidae","Aphredoderus sayanus","88S, EAST LAKE","",35.977,-75.861,"NC","110622","214060000",""
"NCDMF",,15,"Aphredoderidae","Aphredoderus sayanus","98, WHIPPING CREEKS & LAKE","",35.683,-75.978,"NC","720911","214070000",""
"NCDMF",,10,"Aphredoderidae","Aphredoderus sayanus","98, WHIPPING CREEKS & LAKE","",35.683,-75.978,"NC","721018","214070000",""
"NCDMF",,1,"Aphredoderidae","Aphredoderus sayanus","98, WHIPPING CREEKS & LAKE","",35.683,-75.978,"NC","721101","214070000",""
"NCDMF",,1,"Aphredoderidae","Aphredoderus sayanus","98, WHIPPING CREEKS & LAKE","",35.683,-75.978,"NC","721201","214070000",""
"NCDMF",,1,"Aphredoderidae","Aphredoderus sayanus","98, WHIPPING CREEKS & LAKE","",35.683,-75.978,"NC","730102","214070000",""
"NCDMF",,2,"Aphredoderidae","Aphredoderus sayanus","98, WHIPPING CREEKS & LAKE","",35.683,-75.978,"NC","730430","214070000",""
"NCDMF",,1,"Aphredoderidae","Aphredoderus sayanus","98, WHIPPING CREEKS & LAKE","",35.683,-75.978,"NC","730620","214070000",""
"NCDMF",,11,"Aphredoderidae","Aphredoderus sayanus","98, WHIPPING CREEKS & LAKE","",35.683,-75.978,"NC","730824","214070000",""
"NCDMF",,1,"Aphredoderidae","Aphredoderus sayanus","98, WHIPPING CREEKS & LAKE","",35.683,-75.978,"NC","731019","214070000",""
"NCDMF",,1,"Aphredoderidae","Aphredoderus sayanus","98, WHIPPING CREEKS & LAKE","",35.683,-75.978,"NC","731114","214070000",""
"NCDMF",,2,"Aphredoderidae","Aphredoderus sayanus","98, WHIPPING CREEKS & LAKE","",35.683,-75.978,"NC","731214","214070000",""
"NCDMF",,5,"Aphredoderidae","Aphredoderus sayanus","PAR28, NORTH CREEK","",35.423,-76.663,"NC","750408","528070000",""
"NCDMF",,1,"Aphredoderidae","Aphredoderus sayanus","UCF5, CAPE FEAR RIVER, WILMINGTON AND ABOVE","",34.367,-78.14,"NC","010511","1902000000",""
"NCDMF",,1,"Aphredoderidae","Aphredoderus sayanus","UCF5, CAPE FEAR RIVER, WILMINGTON AND ABOVE","",34.367,-78.14,"NC","030609","1902000000",""
"NCDMF",,1,"Aphredoderidae","Aphredoderus sayanus","UCF6, CAPE FEAR RIVER, WILMINGTON AND ABOVE","",34.40694,-78.27833,"NC","030822","1902000000",""
"NCDMF",,1,"Aphredoderidae","Aphredoderus sayanus","UCF6, CAPE FEAR RIVER, WILMINGTON AND ABOVE","",34.40694,-78.27833,"NC","031030","1902000000",""
"NCDMF",,1,"Aphredoderidae","Aphredoderus sayanus","UCF6, CAPE FEAR RIVER, WILMINGTON AND ABOVE","",34.40694,-78.27833,"NC","031121","1902000000",""
"NCDMF",,1,"Aphredoderidae","Aphredoderus sayanus","UCF2, INDIAN CREEK","",34.286,-78.008,"NC","980424","1902010101",""
"NCDMF",,1,"Aphredoderidae","Aphredoderus sayanus","NE42, SMITH CREEK TO LANE FERRY","",34.33778,-77.98139,"NC","041020","1902030100",""
"NCDMF",,1,"Aphredoderidae","Aphredoderus sayanus","NE43, SMITH CREEK TO LANE FERRY","",34.3675,-77.93333,"NC","030814","1902030100",""
"NCDMF",,9,"Aphredoderidae","Aphredoderus sayanus","NE43, SMITH CREEK TO LANE FERRY","",34.3675,-77.93333,"NC","031120","1902030100",""
"NCDMF",,9,"Aphredoderidae","Aphredoderus sayanus","NE43, SMITH CREEK TO LANE FERRY","",34.3675,-77.93333,"NC","040202","1902030100",""
"NCDMF",,2,"Aphredoderidae","Aphredoderus sayanus","NE43, SMITH CREEK TO LANE FERRY","",34.3675,-77.93333,"NC","040709","1902030100",""
"NCDMF",,1,"Aphredoderidae","Aphredoderus sayanus","NE43, SMITH CREEK TO LANE FERRY","",34.3675,-77.93333,"NC","041007","1902030100",""
"NCDMF",,2,"Aphredoderidae","Aphredoderus sayanus","NE43, SMITH CREEK TO LANE FERRY","",34.3675,-77.93333,"NC","050802","1902030100",""
"NCDMF",,1,"Aphredoderidae","Aphredoderus sayanus","NE43, SMITH CREEK TO LANE FERRY","",34.368,-77.932,"NC","991109","1902030100",""
"NCDMF",,1,"Aphredoderidae","Aphredoderus sayanus","NE44, SMITH CREEK TO LANE FERRY","",34.37583,-77.86389,"NC","030530","1902030100",""
"NCDMF",,1,"Aphredoderidae","Aphredoderus sayanus","NE44, SMITH CREEK TO LANE FERRY","",34.37583,-77.86389,"NC","030602","1902030100",""
"NCDMF",,2,"Aphredoderidae","Aphredoderus sayanus","NE44, SMITH CREEK TO LANE FERRY","",34.37583,-77.86389,"NC","030728","1902030100",""
"NCDMF",,1,"Aphredoderidae","Aphredoderus sayanus","NE45, SMITH CREEK TO LANE FERRY","",34.43889,-77.82917,"NC","020829","1902030100",""
"NCDMF",,7,"Aphredoderidae","Aphredoderus sayanus","NE45, SMITH CREEK TO LANE FERRY","",34.43889,-77.82917,"NC","030728","1902030100",""
"NCDMF",,2,"Aphredoderidae","Aphredoderus sayanus","UCF7, BELOW HWY 210","",34.37333,-78.07833,"NC","030731","1902040100",""
"NCDMF",,3,"Aphredoderidae","Aphredoderus sayanus","UCF7, BELOW HWY 210","",34.37333,-78.07833,"NC","031017","1902040100",""
"NCDMF",,1,"Aphredoderidae","Aphredoderus sayanus","UCF7, BELOW HWY 210","",34.37333,-78.07833,"NC","050104","1902040100",""
"NCDMF",,1,"Aphredoderidae","Aphredoderus sayanus","UCF7, BELOW HWY 210","",34.37333,-78.07833,"NC","050708","1902040100",""
"NCDWR",,1,"Aphredoderidae","Aphredoderus sayanus","Haw Cr, SR 2158","Alamance",36.000362,-79.342724,"NC","4/23/2003","2003-09",""
"NCDWR",,1,"Aphredoderidae","Aphredoderus sayanus","Haw Cr, SR 2158","Alamance",36.0003619,-79.342724,"NC","4/13/2009","2009-09",""
"NCDWR",,2,"Aphredoderidae","Aphredoderus sayanus","Haw Cr, SR 2158","Alamance",36.0003619,-79.342724,"NC","4/18/2013","2013-06",""
"NCDWR",,1,"Aphredoderidae","Aphredoderus sayanus","Jordan Cr, SR 1754","Alamance",36.188911,-79.394761,"NC","4/22/2013","2013-09",""
"NCDWR",,2,"Aphredoderidae","Aphredoderus sayanus","Little Alamance Cr, SR 2309","Alamance",36.0346453,-79.4089905,"NC","4/23/2003","2003-08",""
"NCDWR",,17,"Aphredoderidae","Aphredoderus sayanus","Marys Cr, SR 2174","Alamance",35.9159732,-79.3066838,"NC","6/9/2004","2004-78",""
"NCDWR",,7,"Aphredoderidae","Aphredoderus sayanus","Marys Cr, SR 2174","Alamance",35.915973,-79.306684,"NC","4/13/2009","2009-08",""
"NCDWR",,5,"Aphredoderidae","Aphredoderus sayanus","Marys Cr, SR 2174","Alamance",35.915973,-79.306684,"NC","4/18/2013","2013-05",""
"NCDWR",,3,"Aphredoderidae","Aphredoderus sayanus","N Pr Stinking Quarter Cr, SR 1113","Alamance",36.00388889,-79.4925,"NC","4/24/2003","2003-10",""
"NCDWR",,5,"Aphredoderidae","Aphredoderus sayanus","N Pr Stinking Quarter Cr, SR 1129","Alamance",35.993487,-79.514609,"NC","6/4/2009","2009-54",""
"NCDWR",,3,"Aphredoderidae","Aphredoderus sayanus","Rock Cr, off SR 2409","Alamance",35.99533,-79.4393339,"NC","7/30/1992","92-34",""
"NCDWR",,5,"Aphredoderidae","Aphredoderus sayanus","S Pr Stinking Quarter Cr, SR 1117","Alamance",35.98928,-79.496674,"NC","4/24/2003","2003-11",""
"NCDWR",,3,"Aphredoderidae","Aphredoderus sayanus","S Pr Stinking Quarter Cr, SR 1117","Alamance",35.9892801,-79.496674,"NC","6/4/2009","2009-53",""
"NCDWR",,4,"Aphredoderidae","Aphredoderus sayanus","S Pr Stinking Quarter Cr, SR 1117","Alamance",35.9892801,-79.496674,"NC","4/24/2013","2013-14",""
"NCDWR",,1,"Aphredoderidae","Aphredoderus sayanus","Stinking Quarter Cr, SR 1136","Alamance",36.01388889,-79.43222222,"NC","4/8/1998","98-13",""
"NCDWR",,1,"Aphredoderidae","Aphredoderus sayanus","Varnals Cr, SR 2116","Alamance",35.98721,-79.358785,"NC","6/9/2004","2004-77",""
"NCDWR",,4,"Aphredoderidae","Aphredoderus sayanus","Bailey Cr, SR 1811","Anson",34.92277778,-80.01861111,"NC","4/15/1996","96-14",""
"NCDWR",,5,"Aphredoderidae","Aphredoderus sayanus","Bailey Cr, SR 1811","Anson",34.92277778,-80.01861111,"NC","4/6/2001","2001-06",""
"NCDWR",,5,"Aphredoderidae","Aphredoderus sayanus","Bailey Cr, SR 1811","Anson",34.92277778,-80.01861111,"NC","4/10/2006","2006-08",""
"NCDWR",,13,"Aphredoderidae","Aphredoderus sayanus","Bailey Cr, SR 1811","Anson",34.92277778,-80.01861111,"NC","4/6/2011","2011-02",""
"NCDWR",,1,"Aphredoderidae","Aphredoderus sayanus","Bailey Cr, SR 1811","Anson",34.92277778,-80.01861111,"NC","4/11/2016","2016-02",""
"NCDWR",,10,"Aphredoderidae","Aphredoderus sayanus","Brown Cr, SR 1230","Anson",34.88111111,-80.30166667,"NC","4/16/1996","96-16",""
"NCDWR",,33,"Aphredoderidae","Aphredoderus sayanus","Brown Cr, SR 1230","Anson",34.88111111,-80.30166667,"NC","4/10/2001","2001-09",""
"NCDWR",,9,"Aphredoderidae","Aphredoderus sayanus","Brown Cr, SR 1230","Anson",34.88111111,-80.30166667,"NC","4/12/2006","2006-14",""
"NCDWR",,6,"Aphredoderidae","Aphredoderus sayanus","Brown Cr, SR 1230","Anson",34.88111111,-80.30166667,"NC","4/7/2011","2011-05",""
"NCDWR",,4,"Aphredoderidae","Aphredoderus sayanus","Brown Cr, SR 1230","Anson",34.88111111,-80.30166667,"NC","4/12/2016","2016-06",""
"NCDWR",,9,"Aphredoderidae","Aphredoderus sayanus","Cedar Cr, SR 1709","Anson",35.04361111,-80.00555556,"NC","6/10/1996","96-67",""
"NCDWR",,5,"Aphredoderidae","Aphredoderus sayanus","Cedar Cr, SR 1709","Anson",35.04361111,-80.00555556,"NC","4/10/2001","2001-07",""
"NCDWR",,11,"Aphredoderidae","Aphredoderus sayanus","Cedar Cr, SR 1709","Anson",35.04361111,-80.00555556,"NC","4/10/2006","2006-07",""
"NCDWR",,1,"Aphredoderidae","Aphredoderus sayanus","Deadfall Cr, SR 1109","Anson",34.81388889,-80.17388889,"NC","4/11/2006","2006-12",""
"NCDWR",,6,"Aphredoderidae","Aphredoderus sayanus","Jones Cr, SR 1812","Anson",34.89666667,-79.98277778,"NC","4/16/1996","96-15",""
"NCDWR",,7,"Aphredoderidae","Aphredoderus sayanus","Lanes Cr, SR 1415","Anson",35.04361111,-80.20694444,"NC","4/16/1996","96-17",""
"NCDWR",,4,"Aphredoderidae","Aphredoderus sayanus","Mill Cr, SR 1826","Anson",34.85638889,-79.91666667,"NC","4/11/2006","2006-11",""
"NCDWR",,7,"Aphredoderidae","Aphredoderus sayanus","Mill Cr, SR 1826","Anson",34.85638889,-79.91666667,"NC","4/7/2011","2011-04",""
"NCDWR",,4,"Aphredoderidae","Aphredoderus sayanus","N Fk Jones Cr, SR 1121","Anson",34.90416667,-79.99916667,"NC","4/11/2006","2006-09",""
"NCDWR",,1,"Aphredoderidae","Aphredoderus sayanus","N Fk Jones Cr, SR 1121","Anson",34.90416667,-79.99916667,"NC","4/12/2016","2016-04",""
"NCDWR",,7,"Aphredoderidae","Aphredoderus sayanus","S Fk Jones Cr, SR 1821","Anson",34.89611111,-80.01138889,"NC","4/10/2001","2001-08",""
"NCDWR",,3,"Aphredoderidae","Aphredoderus sayanus","S Fk Jones Cr, SR 1821","Anson",34.89611111,-80.01138889,"NC","4/11/2006","2006-10",""
"NCDWR",,7,"Aphredoderidae","Aphredoderus sayanus","S Fk Jones Cr, SR 1821","Anson",34.89611111,-80.01138889,"NC","4/7/2011","2011-03",""
"NCDWR",,2,"Aphredoderidae","Aphredoderus sayanus","Acre Swp, NC 32","Beaufort",35.584262,-76.839035,"NC","3/31/1997","97-02",""
"NCDWR",,1,"Aphredoderidae","Aphredoderus sayanus","Acre Swp, NC 32","Beaufort",35.584262,-76.839035,"NC","4/15/2002","2002-15",""
"NCDWR",,5,"Aphredoderidae","Aphredoderus sayanus","Durham Cr, SR 1932","Beaufort",35.271849,-76.871869,"NC","3/31/1997","97-01",""
"NCDWR",,6,"Aphredoderidae","Aphredoderus sayanus","Durham Cr, SR 1932","Beaufort",35.271849,-76.871869,"NC","4/15/2002","2002-14",""
"NCDWR",,29,"Aphredoderidae","Aphredoderus sayanus","Horse Br, SR 1136","Beaufort",35.468014,-77.090217,"NC","5/6/1993","93-13",""
"NCDWR",,4,"Aphredoderidae","Aphredoderus sayanus","Horsepen Swp, SR 1001","Beaufort",35.675,-77.15888889,"NC","4/1/1997","97-04",""
"NCDWR",,2,"Aphredoderidae","Aphredoderus sayanus","Cashie R, SR 1257","Bertie",36.048153,-76.985159,"NC","10/26/1994","94-47",""
"NCDWR",,3,"Aphredoderidae","Aphredoderus sayanus","Brown Marsh Swp, SR 1700","Bladen",34.52222222,-78.64333333,"NC","3/27/1996","96-07",""
"NCDWR",,3,"Aphredoderidae","Aphredoderus sayanus","Brown Marsh Swp, SR 1760","Bladen",34.475,-78.63277778,"NC","8/11/1992","92-35",""
"NCDWR",,1,"Aphredoderidae","Aphredoderus sayanus","Browns Cr, NC 87","Bladen",34.613695,-78.585275,"NC","8/11/1992","92-36",""
"NCDWR",,5,"Aphredoderidae","Aphredoderus sayanus","Browns Cr, NC 87","Bladen",34.613695,-78.585275,"NC","4/21/2008","2008-21",""
"NCDWR",,3,"Aphredoderidae","Aphredoderus sayanus","Colly Cr, US 701","Bladen",34.7108478,-78.4568252,"NC","5/19/1998","98-41",""
"NCDWR",,2,"Aphredoderidae","Aphredoderus sayanus","Colly Cr, US 701","Bladen",34.7108478,-78.4568252,"NC","6/4/2008","2008-57",""
"NCDWR",,9,"Aphredoderidae","Aphredoderus sayanus","Diversion Canal, off SR 1536","Bladen",34.490336,-78.332238,"NC","4/22/2008","2008-24",""
"NCDWR",,3,"Aphredoderidae","Aphredoderus sayanus","Harrison Cr, SR 1318","Bladen",34.7472233,-78.708919,"NC","5/3/1994","94-13",""
"NCDWR",,3,"Aphredoderidae","Aphredoderus sayanus","Harrison Cr, SR 1318","Bladen",34.7472233,-78.708919,"NC","5/20/1998","98-44",""
"NCDWR",,6,"Aphredoderidae","Aphredoderus sayanus","Harrison Cr, SR 1318","Bladen",34.7472233,-78.708919,"NC","6/4/2008","2008-58",""
"NCDWR",,3,"Aphredoderidae","Aphredoderus sayanus","Turnbull Cr, NC 242","Bladen",34.7935061,-78.586403,"NC","5/20/1998","98-43",""
"NCDWR",,2,"Aphredoderidae","Aphredoderus sayanus","Whites Cr, SR 1704","Bladen",34.5457637,-78.5055919,"NC","5/20/1998","98-45",""
"NCDWR",,3,"Aphredoderidae","Aphredoderus sayanus","Whites Cr, SR 1704","Bladen",34.5457637,-78.5055919,"NC","4/22/2008","2008-23",""
"NCDWR",,17,"Aphredoderidae","Aphredoderus sayanus","Cool Run, US 17","Brunswick",33.95222222,-78.465,"NC","4/28/1992","92-10",""
"NCDWR",,1,"Aphredoderidae","Aphredoderus sayanus","Cool Run, US 17","Brunswick",33.95222222,-78.465,"NC","4/2/1996","96-10",""
"NCDWR",,9,"Aphredoderidae","Aphredoderus sayanus","Lockwoods Folly R, US 17","Brunswick",34.046759,-78.178549,"NC","4/28/1992","92-09",""
"NCDWR",,27,"Aphredoderidae","Aphredoderus sayanus","Royal Oak Swp, NC 211","Brunswick",34.033609,-78.280088,"NC","4/25/1992","92-11",""
"NCDWR",,10,"Aphredoderidae","Aphredoderus sayanus","Royal Oak Swp, NC 211","Brunswick",34.033609,-78.280088,"NC","5/21/2001","2001-44",""
"NCDWR",,8,"Aphredoderidae","Aphredoderus sayanus","SW Pr Newport R, SR 1124","Carteret",34.779409,-76.933352,"NC","4/18/1995","95-21",""
"NCDWR",,6,"Aphredoderidae","Aphredoderus sayanus","Bear Cr, SR 2187","Chatham",35.6255875,-79.298785,"NC","4/23/1998","98-21",""
"NCDWR",,35,"Aphredoderidae","Aphredoderus sayanus","Bear Cr, SR 2187","Chatham",35.6255875,-79.298785,"NC","4/7/1999","99-03",""
"NCDWR",,5,"Aphredoderidae","Aphredoderus sayanus","Bear Cr, SR 2187","Chatham",35.6255875,-79.298785,"NC","10/29/1999","99-75",""
"NCDWR",,5,"Aphredoderidae","Aphredoderus sayanus","Bear Cr, SR 2187","Chatham",35.6255875,-79.298785,"NC","3/13/2008","2008-03",""
"NCDWR",,5,"Aphredoderidae","Aphredoderus sayanus","Bear Cr, SR 2187","Chatham",35.6255875,-79.298785,"NC","4/17/2008","2008-19",""
"NCDWR",,4,"Aphredoderidae","Aphredoderus sayanus","Bear Cr, SR 2187","Chatham",35.6255875,-79.298785,"NC","5/15/2008","2008-40",""
"NCDWR",,2,"Aphredoderidae","Aphredoderus sayanus","Bear Cr, SR 2187","Chatham",35.6255875,-79.298785,"NC","6/12/2008","2008-60",""
"NCDWR",,2,"Aphredoderidae","Aphredoderus sayanus","Bear Cr, SR 2187","Chatham",35.6255875,-79.298785,"NC","5/16/2013","2013-27",""
"NCDWR",,1,"Aphredoderidae","Aphredoderus sayanus","Brush Cr, SR 1102","Chatham",35.7093087,-79.5400259,"NC","6/8/2009","2009-56",""
"NCDWR",,3,"Aphredoderidae","Aphredoderus sayanus","Brush Cr, SR 1102","Chatham",35.7093087,-79.5400259,"NC","5/15/2013","2013-24",""
"NCDWR",,5,"Aphredoderidae","Aphredoderus sayanus","Ferrels Cr, SR 1525","Chatham",35.8268265,-79.1911773,"NC","5/2/2003","2003-14",""
"NCDWR",,1,"Aphredoderidae","Aphredoderus sayanus","Ferrels Cr, SR 1525","Chatham",35.826827,-79.191177,"NC","3/13/2008","2008-01",""
"NCDWR",,4,"Aphredoderidae","Aphredoderus sayanus","Ferrels Cr, SR 1525","Chatham",35.826827,-79.191177,"NC","5/15/2008","2008-39",""
"NCDWR",,4,"Aphredoderidae","Aphredoderus sayanus","Ferrels Cr, SR 1525","Chatham",35.826827,-79.191177,"NC","5/16/2013","2013-29",""
"NCDWR",,1,"Aphredoderidae","Aphredoderus sayanus","Gulf Cr, off SR 1916","Chatham",35.57361111,-79.02111111,"NC","4/22/1993","93-12",""
"NCDWR",,10,"Aphredoderidae","Aphredoderus sayanus","Indian Cr, SR 2306","Chatham",35.53833333,-79.33583333,"NC","4/23/1998","98-22",""
"NCDWR",,3,"Aphredoderidae","Aphredoderus sayanus","Indian Cr, SR 2306","Chatham",35.53833333,-79.33583333,"NC","4/26/2005","2005-35",""
"NCDWR",,3,"Aphredoderidae","Aphredoderus sayanus","Loves Cr, SR 2229","Chatham",35.729184,-79.428752,"NC","7/31/2014","2014-68",""
"NCDWR",,22,"Aphredoderidae","Aphredoderus sayanus","Pokeberry Cr, SR 1711","Chatham",35.774035,-79.120013,"NC","7/19/2004","2004-130",""
"NCDWR",,9,"Aphredoderidae","Aphredoderus sayanus","Pokeberry Cr, SR 1711","Chatham",35.7740351,-79.1200126,"NC","4/15/2009","2009-12",""
"NCDWR",,1,"Aphredoderidae","Aphredoderus sayanus","Pokeberry Cr, SR 1711","Chatham",35.7740351,-79.1200126,"NC","4/17/2013","2013-03",""
"NCDWR",,7,"Aphredoderidae","Aphredoderus sayanus","Robeson Cr, off SR 1943","Chatham",35.70666667,-79.13361111,"NC","5/5/2003","2003-16",""
"NCDWR",,1,"Aphredoderidae","Aphredoderus sayanus","Rocky R, SR 1300","Chatham",35.807006,-79.52769,"NC","5/6/2003","2003-18",""
"NCDWR",,3,"Aphredoderidae","Aphredoderus sayanus","Rocky R, SR 1300","Chatham",35.8070059,-79.5276896,"NC","4/15/2009","2009-10",""
"NCDWR",,12,"Aphredoderidae","Aphredoderus sayanus","Rocky R, SR 1300","Chatham",35.807006,-79.52769,"NC","4/17/2013","2013-01",""
"NCDWR",,2,"Aphredoderidae","Aphredoderus sayanus","Terrells Cr, NC 87","Chatham",35.821916,-79.255539,"NC","4/19/1994","94-10",""
"NCDWR",,1,"Aphredoderidae","Aphredoderus sayanus","Terrells Cr, NC 87","Chatham",35.821916,-79.255539,"NC","4/21/1998","98-15",""
"NCDWR",,5,"Aphredoderidae","Aphredoderus sayanus","Terrells Cr, NC 87","Chatham",35.821916,-79.255539,"NC","4/24/2003","2003-12",""
"NCDWR",,16,"Aphredoderidae","Aphredoderus sayanus","Terrells Cr, NC 87","Chatham",35.8219159,-79.2555392,"NC","3/13/2008","2008-02",""
"NCDWR",,6,"Aphredoderidae","Aphredoderus sayanus","Terrells Cr, NC 87","Chatham",35.821916,-79.255539,"NC","4/17/2008","2008-18",""
"NCDWR",,7,"Aphredoderidae","Aphredoderus sayanus","Terrells Cr, NC 87","Chatham",35.821916,-79.255539,"NC","5/15/2008","2008-38",""
"NCDWR",,17,"Aphredoderidae","Aphredoderus sayanus","Terrells Cr, NC 87","Chatham",35.821916,-79.255539,"NC","6/12/2008","2008-59",""
"NCDWR",,9,"Aphredoderidae","Aphredoderus sayanus","Terrells Cr, NC 87","Chatham",35.821916,-79.255539,"NC","5/16/2013","2013-28",""
"NCDWR",,7,"Aphredoderidae","Aphredoderus sayanus","Tick Cr, SR 2170","Chatham",35.67346,-79.365912,"NC","6/11/2009","2009-65",""
"NCDWR",,3,"Aphredoderidae","Aphredoderus sayanus","Tick Cr, SR 2170","Chatham",35.67346,-79.365912,"NC","5/15/2013","2013-25",""
"NCDWR",,11,"Aphredoderidae","Aphredoderus sayanus","Tick Cr, US 421","Chatham",35.66027778,-79.40222222,"NC","4/19/1994","94-09",""
"NCDWR",,3,"Aphredoderidae","Aphredoderus sayanus","Tick Cr, US 421","Chatham",35.66027778,-79.40222222,"NC","6/13/2003","2003-24",""
"NCDWR",,1,"Aphredoderidae","Aphredoderus sayanus","Burnt Mill Cr, NC 37","Chowan",36.0965481,-76.533925,"NC","2/27/1995","95-02",""
"NCDWR",,4,"Aphredoderidae","Aphredoderus sayanus","Friar Swp, SR 1740","Columbus",34.36777778,-78.46055556,"NC","3/27/1996","96-08",""
"NCDWR",,3,"Aphredoderidae","Aphredoderus sayanus","Gapway Swp, SR 1356","Columbus",34.26972222,-79.005,"NC","5/22/2001","2001-45",""
"NCDWR",,5,"Aphredoderidae","Aphredoderus sayanus","Grissett Swp, SR 1141","Columbus",34.08472222,-78.71444444,"NC","4/29/1992","92-13",""
"NCDWR",,10,"Aphredoderidae","Aphredoderus sayanus","Juniper Cr, SR 1928","Columbus",34.15416667,-78.53222222,"NC","12/11/1991","91-32",""
"NCDWR",,9,"Aphredoderidae","Aphredoderus sayanus","Monie Swp, SR 1006","Columbus",34.12361111,-78.705,"NC","4/29/1992","92-12",""
"NCDWR",,3,"Aphredoderidae","Aphredoderus sayanus","Porter Swp, SR 1503","Columbus",34.36027778,-78.9625,"NC","4/29/1992","92-15",""
"NCDWR",,8,"Aphredoderidae","Aphredoderus sayanus","Porter Swp, SR 1503","Columbus",34.36027778,-78.9625,"NC","3/27/1996","96-09",""
"NCDWR",,15,"Aphredoderidae","Aphredoderus sayanus","Toms Fork Cr, SR 1118","Columbus",34.12194444,-78.77194444,"NC","4/29/1992","92-14",""
"NCDWR",,3,"Aphredoderidae","Aphredoderus sayanus","Core Cr, SR 1001","Craven",35.1799481,-77.319333,"NC","4/19/1995","95-27",""
"NCDWR",,2,"Aphredoderidae","Aphredoderus sayanus","Core Cr, SR 1001","Craven",35.1799481,-77.319333,"NC","10/28/1996","96-76",""
"NCDWR",,9,"Aphredoderidae","Aphredoderus sayanus","Fisher Swp, SR 1621","Craven",35.244202,-77.061264,"NC","3/22/1995","95-06",""
"NCDWR",,52,"Aphredoderidae","Aphredoderus sayanus","Fisher Swp, SR 1621","Craven",35.244202,-77.061264,"NC","8/14/1995","95-77",""
"NCDWR",,1,"Aphredoderidae","Aphredoderus sayanus","Mosley Cr, SR 1475","Craven",35.329877,-77.426656,"NC","6/13/2000","2000-42",""
"NCDWR",,1,"Aphredoderidae","Aphredoderus sayanus","Mosley Cr, SR 1475","Craven",35.329877,-77.426656,"NC","5/17/2005","2005-55",""
"NCDWR",,4,"Aphredoderidae","Aphredoderus sayanus","Blounts Cr, Person Street","Cumberland",35.04981,-78.8706,"NC","6/24/2014","2014-57",""
"NCDWR",,3,"Aphredoderidae","Aphredoderus sayanus","Bones Cr, SR 1400","Cumberland",35.06333333,-79.03888889,"NC","10/20/2003","2003-66",""
"NCDWR",,21,"Aphredoderidae","Aphredoderus sayanus","Bones Cr, SR 1400","Cumberland",35.06333333,-79.03888889,"NC","4/11/2008","2008-10",""
"NCDWR",,6,"Aphredoderidae","Aphredoderus sayanus","Cross Cr, Langdon Street","Cumberland",35.0796,-78.8885,"NC","6/24/2014","2014-58",""
"NCDWR",,9,"Aphredoderidae","Aphredoderus sayanus","Cross Cr, NC 87/210","Cumberland",35.06666667,-78.89166667,"NC","5/3/1994","94-14",""
"NCDWR",,2,"Aphredoderidae","Aphredoderus sayanus","Cross Cr, NC 87/210/24","Cumberland",35.05833333,-78.88444444,"NC","5/21/1998","98-46",""
"NCDWR",,4,"Aphredoderidae","Aphredoderus sayanus","Cross Cr, NC 87/210/24","Cumberland",35.05833333,-78.88444444,"NC","10/20/2003","2003-69",""
"NCDWR",,12,"Aphredoderidae","Aphredoderus sayanus","Gum Log Canal, SR 1728","Cumberland",35.06444444,-78.8425,"NC","4/16/2008","2008-15",""
"NCDWR",,1,"Aphredoderidae","Aphredoderus sayanus","Jumping Run Cr, NC 210","Cumberland",35.21722222,-78.94305556,"NC","10/2/2003","2003-64",""
"NCDWR",,5,"Aphredoderidae","Aphredoderus sayanus","Muddy Cr, SR 1001","Cumberland",35.19666667,-78.99861111,"NC","9/16/2003","2003-59",""
"NCDWR",,3,"Aphredoderidae","Aphredoderus sayanus","Muddy Cr, SR 1001","Cumberland",35.19666667,-78.99861111,"NC","4/18/2008","2008-20",""
"NCDWR",,2,"Aphredoderidae","Aphredoderus sayanus","Cabin Cr, SR 2536","Davidson",35.56833333,-80.17944444,"NC","5/1/2001","2001-34",""
"NCDWR",,1,"Aphredoderidae","Aphredoderus sayanus","Cabin Cr, SR 2536","Davidson",35.56833333,-80.17944444,"NC","5/11/2006","2006-41",""
"NCDWR",,1,"Aphredoderidae","Aphredoderus sayanus","Lick Cr, NC 8","Davidson",35.61305556,-80.17333333,"NC","4/19/2001","2001-27",""
"NCDWR",,1,"Aphredoderidae","Aphredoderus sayanus","Lick Cr, NC 8","Davidson",35.61305556,-80.17333333,"NC","5/10/2006","2006-40",""
"NCDWR",,4,"Aphredoderidae","Aphredoderus sayanus","Lick Cr, NC 8","Davidson",35.61305556,-80.17333333,"NC","4/28/2011","2011-12",""
"NCDWR",,12,"Aphredoderidae","Aphredoderus sayanus","Duff Cr, SR 1170","Duplin",34.755,-78.05555556,"NC","5/22/1998","98-50",""
"NCDWR",,35,"Aphredoderidae","Aphredoderus sayanus","Grove Cr, NC 11/903","Duplin",34.97055556,-77.95861111,"NC","6/1/1994","94-24",""
"NCDWR",,13,"Aphredoderidae","Aphredoderus sayanus","Grove Cr, NC 11/903","Duplin",34.97055556,-77.95861111,"NC","5/22/1998","98-49",""
"NCDWR",,3,"Aphredoderidae","Aphredoderus sayanus","Halls Marsh Run, SR 1306","Duplin",35.085134,-77.993944,"NC","11/18/1992","92-42",""
"NCDWR",,2,"Aphredoderidae","Aphredoderus sayanus","Herrings Marsh Run, SR 1306","Duplin",35.074969,-77.914066,"NC","11/18/1992","92-41",""
"NCDWR",,5,"Aphredoderidae","Aphredoderus sayanus","Island Cr, NC 11","Duplin",34.8023657,-77.9419113,"NC","6/2/2008","2008-53",""
"NCDWR",,24,"Aphredoderidae","Aphredoderus sayanus","Mathews Cr, NC 111/NC 903","Duplin",35.098287,-77.819274,"NC","5/22/1998","98-48",""
"NCDWR",,5,"Aphredoderidae","Aphredoderus sayanus","Muddy Cr, NC 41/NC 111","Duplin",34.842698,-77.7973039,"NC","6/3/2008","2008-56",""
"NCDWR",,1,"Aphredoderidae","Aphredoderus sayanus","Stockinghead Cr, NC 50","Duplin",34.8795866,-77.8942068,"NC","6/3/2008","2008-54",""
"NCDWR",,1,"Aphredoderidae","Aphredoderus sayanus","Crooked Cr, off US 501","Durham",36.07444444,-78.91166667,"NC","4/28/2005","2005-37",""
"NCDWR",,2,"Aphredoderidae","Aphredoderus sayanus","N Fk Little R, SR 1461","Durham",36.1638,-78.948898,"NC","4/14/2015","2015-11",""
"NCDWR",,5,"Aphredoderidae","Aphredoderus sayanus","Northeast Cr, SR 1102","Durham",35.88666667,-78.9,"NC","6/16/1993","93-25",""
"NCDWR",,2,"Aphredoderidae","Aphredoderus sayanus","S Fk Little R, SR 1461","Durham",36.149998,-78.946276,"NC","4/7/2000","2000-12",""
"NCDWR",,1,"Aphredoderidae","Aphredoderus sayanus","S Fk Little R, SR 1461","Durham",36.149998,-78.946276,"NC","4/7/2005","2005-16",""
"NCDWR",,1,"Aphredoderidae","Aphredoderus sayanus","S Fk Little R, SR 1461","Durham",36.149998,-78.946276,"NC","4/27/2010","2010-15",""
"NCDWR",,1,"Aphredoderidae","Aphredoderus sayanus","S Fk Little R, SR 1461","Durham",36.14972222,-78.94638889,"NC","4/14/2015","2015-12",""
"NCDWR",,1,"Aphredoderidae","Aphredoderus sayanus","Third Fork Cr, NC 751","Durham",35.91055556,-78.96083333,"NC","6/16/1993","93-24",""
"NCDWR",,4,"Aphredoderidae","Aphredoderus sayanus","Ballahack Canal, NC 42","Edgecombe",35.817456,-77.453887,"NC","5/9/2007","2007-49",""
"NCDWR",,7,"Aphredoderidae","Aphredoderus sayanus","Beech Br, NC 97","Edgecombe",35.964918,-77.675076,"NC","4/17/2002","2002-22",""
"NCDWR",,32,"Aphredoderidae","Aphredoderus sayanus","Beech Br, NC 97","Edgecombe",35.964918,-77.675076,"NC","5/8/2007","2007-45",""
"NCDWR",,27,"Aphredoderidae","Aphredoderus sayanus","Cokey Swp, SR 1135","Edgecombe",35.890092,-77.75821,"NC","4/2/1997","97-08",""
"NCDWR",,18,"Aphredoderidae","Aphredoderus sayanus","Cokey Swp, SR 1135","Edgecombe",35.890092,-77.75821,"NC","5/9/2007","2007-50",""
"NCDWR",,2,"Aphredoderidae","Aphredoderus sayanus","Compass Cr, NC 97","Edgecombe",35.977145,-77.766907,"NC","5/8/2007","2007-44",""
"NCDWR",,12,"Aphredoderidae","Aphredoderus sayanus","Conetoe Cr, SR 1510","Edgecombe",35.875856,-77.393434,"NC","5/9/2007","2007-47",""
"NCDWR",,6,"Aphredoderidae","Aphredoderus sayanus","Crisp Cr, SR 1527","Edgecombe",35.838656,-77.381202,"NC","5/9/2007","2007-48",""
"NCDWR",,5,"Aphredoderidae","Aphredoderus sayanus","Deep Cr, SR 1506","Edgecombe",35.974008,-77.452097,"NC","5/11/2007","2007-55",""
"NCDWR",,26,"Aphredoderidae","Aphredoderus sayanus","Otter Cr, SR 1614","Edgecombe",35.72666667,-77.59694444,"NC","7/8/1992","92-24",""
"NCDWR",,16,"Aphredoderidae","Aphredoderus sayanus","Otter Cr, SR 1614","Edgecombe",35.72666667,-77.59694444,"NC","10/29/1996","96-78",""
"NCDWR",,10,"Aphredoderidae","Aphredoderus sayanus","Otter Cr, SR 1614","Edgecombe",35.72666667,-77.59694444,"NC","4/2/1997","97-07",""
"NCDWR",,3,"Aphredoderidae","Aphredoderus sayanus","Otter Cr, SR 1614","Edgecombe",35.72666667,-77.59694444,"NC","4/17/2002","2002-20",""
"NCDWR",,35,"Aphredoderidae","Aphredoderus sayanus","Town Cr, NC 43","Edgecombe",35.821088,-77.659535,"NC","7/8/1992","92-25",""
"NCDWR",,5,"Aphredoderidae","Aphredoderus sayanus","Town Cr, NC 43","Edgecombe",35.821088,-77.659535,"NC","8/28/1997","97-71",""
"NCDWR",,7,"Aphredoderidae","Aphredoderus sayanus","White Oak Swp, SR 1428","Edgecombe",36.004195,-77.61953,"NC","4/17/2002","2002-21",""
"NCDWR",,6,"Aphredoderidae","Aphredoderus sayanus","White Oak Swp, SR 1428","Edgecombe",36.004195,-77.61953,"NC","5/9/2007","2007-46",""
"NCDWR",,4,"Aphredoderidae","Aphredoderus sayanus","Cedar Cr, SR 1105","Franklin",36.07166667,-78.40916667,"NC","6/10/2004","2004-80",""
"NCDWR",,1,"Aphredoderidae","Aphredoderus sayanus","Cedar Cr, SR 1109","Franklin",36.06,-78.35388889,"NC","4/8/1992","92-08",""
"NCDWR",,1,"Aphredoderidae","Aphredoderus sayanus","Cedar Cr, SR 1109","Franklin",36.06,-78.35388889,"NC","4/16/1997","97-26",""
"NCDWR",,1,"Aphredoderidae","Aphredoderus sayanus","Cedar Cr, SR 1109","Franklin",36.06,-78.35388889,"NC","4/10/2002","2002-09",""
"NCDWR",,2,"Aphredoderidae","Aphredoderus sayanus","Crooked Cr, NC 98","Franklin",35.93833333,-78.20916667,"NC","4/17/1997","97-30",""
"NCDWR",,1,"Aphredoderidae","Aphredoderus sayanus","Crooked Cr, NC 98","Franklin",35.93833333,-78.20916667,"NC","4/10/2002","2002-08",""
"NCDWR",,1,"Aphredoderidae","Aphredoderus sayanus","Flatrock Cr, SR 1412","Franklin",36.20083333,-78.23861111,"NC","4/9/2002","2002-05",""
"NCDWR",,3,"Aphredoderidae","Aphredoderus sayanus","Lynch Cr, SR 1235","Franklin",36.14861111,-78.34166667,"NC","4/15/1997","97-25",""
"NCDWR",,3,"Aphredoderidae","Aphredoderus sayanus","Lynch Cr, SR 1235","Franklin",36.14861111,-78.34166667,"NC","4/17/2012","2012-06",""
"NCDWR",,5,"Aphredoderidae","Aphredoderus sayanus","Middle Cr, SR 1203","Franklin",36.17194444,-78.4875,"NC","4/8/2002","2002-01",""
"NCDWR",,2,"Aphredoderidae","Aphredoderus sayanus","Middle Cr, SR 1203","Franklin",36.17194444,-78.4875,"NC","4/9/2007","2007-09",""
"NCDWR",,3,"Aphredoderidae","Aphredoderus sayanus","Middle Cr, SR 1203","Franklin",36.17194444,-78.4875,"NC","4/17/2012","2012-04",""
"NCDWR",,9,"Aphredoderidae","Aphredoderus sayanus","Sandy Cr, SR 1412","Franklin",36.21111111,-78.22777778,"NC","4/15/1997","97-24",""
"NCDWR",,1,"Aphredoderidae","Aphredoderus sayanus","Sandy Cr, SR 1412","Franklin",36.21111111,-78.22777778,"NC","4/9/2002","2002-04",""
"NCDWR",,3,"Aphredoderidae","Aphredoderus sayanus","Tar R, US 1","Franklin",36.16861111,-78.45,"NC","9/9/1997","97-74",""
"NCDWR",,1,"Aphredoderidae","Aphredoderus sayanus","Aarons Cr, SR 1400","Granville",36.531701,-78.739194,"NC","5/26/2009","2009-45",""
"NCDWR",,1,"Aphredoderidae","Aphredoderus sayanus","Aarons Cr, SR 1400","Granville",36.531701,-78.739194,"NC","6/10/2014","2014-41",""
"NCDWR",,1,"Aphredoderidae","Aphredoderus sayanus","Coon Cr, SR 1609","Granville",36.26805556,-78.56777778,"NC","4/8/2002","2002-03",""
"NCDWR",,1,"Aphredoderidae","Aphredoderus sayanus","Coon Cr, SR 1609","Granville",36.26805556,-78.56777778,"NC","5/18/2006","2006-51",""
"NCDWR",,3,"Aphredoderidae","Aphredoderus sayanus","Coon Cr, SR 1609","Granville",36.26805556,-78.56777778,"NC","4/16/2012","2012-03",""
"NCDWR",,6,"Aphredoderidae","Aphredoderus sayanus","Fishing Cr, above SR 1607","Granville",36.2775,-78.59083333,"NC","5/17/2006","2006-50",""
"NCDWR",,4,"Aphredoderidae","Aphredoderus sayanus","Fishing Cr, SR 1643","Granville",36.223112,-78.575604,"NC","4/7/1992","92-06",""
"NCDWR",,1,"Aphredoderidae","Aphredoderus sayanus","Fishing Cr, SR 1643","Granville",36.2231124,-78.5756037,"NC","4/14/1997","97-22",""
"NCDWR",,1,"Aphredoderidae","Aphredoderus sayanus","Fishing Cr, SR 1643","Granville",36.223112,-78.575604,"NC","4/8/2002","2002-02",""
"NCDWR",,1,"Aphredoderidae","Aphredoderus sayanus","Fishing Cr, SR 1643","Granville",36.223112,-78.575604,"NC","5/18/2006","2006-52",""
"NCDWR",,1,"Aphredoderidae","Aphredoderus sayanus","Fishing Cr, SR 1643","Granville",36.223112,-78.575604,"NC","4/18/2012","2012-08",""
"NCDWR",,2,"Aphredoderidae","Aphredoderus sayanus","Gibbs Cr, SR 1620","Granville",36.19194444,-78.51416667,"NC","5/18/2006","2006-53",""
"NCDWR",,5,"Aphredoderidae","Aphredoderus sayanus","Grassy Cr, SR 1300","Granville",36.472456,-78.664216,"NC","6/9/1999","99-43",""
"NCDWR",,1,"Aphredoderidae","Aphredoderus sayanus","Grassy Cr, SR 1300","Granville",36.472456,-78.6642159,"NC","5/26/2009","2009-47",""
"NCDWR",,4,"Aphredoderidae","Aphredoderus sayanus","Grassy Cr, SR 1300","Granville",36.472456,-78.664216,"NC","6/10/2014","2014-39",""
"NCDWR",,3,"Aphredoderidae","Aphredoderus sayanus","Island Cr, SR 1445","Granville",36.4951744,-78.5040091,"NC","6/2/1994","94-25",""
"NCDWR",,13,"Aphredoderidae","Aphredoderus sayanus","Island Cr, SR 1445","Granville",36.495174,-78.504009,"NC","5/27/2009","2009-49",""
"NCDWR",,4,"Aphredoderidae","Aphredoderus sayanus","Island Cr, SR 1445","Granville",36.495174,-78.504009,"NC","6/16/2010","2010-49",""
"NCDWR",,6,"Aphredoderidae","Aphredoderus sayanus","Island Cr, SR 1445","Granville",36.495174,-78.504009,"NC","6/11/2014","2014-42",""
"NCDWR",,3,"Aphredoderidae","Aphredoderus sayanus","Johnson Cr, SR 1440","Granville",36.532364,-78.658336,"NC","4/28/2004","2004-26",""
"NCDWR",,2,"Aphredoderidae","Aphredoderus sayanus","Johnson Cr, SR 1440","Granville",36.5323636,-78.6583364,"NC","5/26/2009","2009-46",""
"NCDWR",,1,"Aphredoderidae","Aphredoderus sayanus","Johnson Cr, SR 1440","Granville",36.5323636,-78.6583364,"NC","6/10/2014","2014-40",""
"NCDWR",,1,"Aphredoderidae","Aphredoderus sayanus","N Fk Tar R, SR 1151","Granville",36.299579,-78.7007895,"NC","4/16/2012","2012-01",""
"NCDWR",,3,"Aphredoderidae","Aphredoderus sayanus","N Fk Tar R, US 158","Granville",36.31583333,-78.69416667,"NC","4/7/1992","92-05",""
"NCDWR",,3,"Aphredoderidae","Aphredoderus sayanus","N Fk Tar R, US 158","Granville",36.31583333,-78.69416667,"NC","4/14/1997","97-21",""
"NCDWR",,2,"Aphredoderidae","Aphredoderus sayanus","N Fk Tar R, US 158","Granville",36.31583333,-78.69416667,"NC","6/24/1999","99-54",""
"NCDWR",,4,"Aphredoderidae","Aphredoderus sayanus","Shelton Cr, US 158","Granville",36.312973,-78.721157,"NC","4/7/1992","92-04",""
"NCDWR",,1,"Aphredoderidae","Aphredoderus sayanus","Shelton Cr, US 158","Granville",36.3129726,-78.7211572,"NC","4/6/1999","99-01",""
"NCDWR",,2,"Aphredoderidae","Aphredoderus sayanus","Shelton Cr, US 158","Granville",36.312973,-78.721157,"NC","5/17/2006","2006-49",""
"NCDWR",,15,"Aphredoderidae","Aphredoderus sayanus","Smith Cr, SR 1710","Granville",36.08833333,-78.60222222,"NC","4/11/1995","95-18",""
"NCDWR",,4,"Aphredoderidae","Aphredoderus sayanus","Smith Cr, SR 1710","Granville",36.08833333,-78.60222222,"NC","4/4/2000","2000-03",""
"NCDWR",,1,"Aphredoderidae","Aphredoderus sayanus","Smith Cr, SR 1710","Granville",36.08833333,-78.60222222,"NC","4/4/2005","2005-06",""
"NCDWR",,1,"Aphredoderidae","Aphredoderus sayanus","Smith Cr, SR 1710","Granville",36.08833333,-78.60222222,"NC","4/6/2010","2010-02",""
"NCDWR",,1,"Aphredoderidae","Aphredoderus sayanus","Smith Cr, SR 1710","Granville",36.08833333,-78.60222222,"NC","3/30/2015","2015-01",""
"NCDWR",,1,"Aphredoderidae","Aphredoderus sayanus","Tar R, NC 96","Granville",36.19472222,-78.58333333,"NC","9/2/1992","92-37",""
"NCDWR",,7,"Aphredoderidae","Aphredoderus sayanus","Tar R, US 158","Granville",36.33333333,-78.76833333,"NC","4/9/2007","2007-07",""
"NCDWR",,8,"Aphredoderidae","Aphredoderus sayanus","Tar R, US 158","Granville",36.33333333,-78.76833333,"NC","4/18/2012","2012-07",""
"NCDWR",,6,"Aphredoderidae","Aphredoderus sayanus","Appletree Swp, SR 1216","Greene",35.506189,-77.77569,"NC","4/22/2005","2005-33",""
"NCDWR",,18,"Aphredoderidae","Aphredoderus sayanus","Appletree Swp, SR 1216","Greene",35.506189,-77.77569,"NC","5/28/2015","2015-38",""
"NCDWR",,7,"Aphredoderidae","Aphredoderus sayanus","Fort Run, NC 58","Greene",35.493616,-77.730425,"NC","4/21/2005","2005-32",""
"NCDWR",,19,"Aphredoderidae","Aphredoderus sayanus","Fort Run, NC 58","Greene",35.493616,-77.730425,"NC","8/20/2015","2015-86",""
"NCDWR",,2,"Aphredoderidae","Aphredoderus sayanus","Rainbow Cr, SR 1091","Greene",35.413025,-77.601504,"NC","5/5/2005","2005-48",""
"NCDWR",,2,"Aphredoderidae","Aphredoderus sayanus","Rainbow Cr, SR 1091","Greene",35.413025,-77.601504,"NC","5/28/2015","2015-40",""
"NCDWR",,1,"Aphredoderidae","Aphredoderus sayanus","Sandy Run, US 258/13","Greene",35.51611111,-77.61611111,"NC","5/23/1995","95-53",""
"NCDWR",,12,"Aphredoderidae","Aphredoderus sayanus","Tyson Marsh, US 13/NC 58","Greene",35.457967,-77.698801,"NC","5/23/1995","95-54",""
"NCDWR",,1,"Aphredoderidae","Aphredoderus sayanus","Watery Br, NC 58","Greene",35.571295,-77.808865,"NC","4/21/2005","2005-31",""
"NCDWR",,9,"Aphredoderidae","Aphredoderus sayanus","Watery Br, NC 58","Greene",35.571295,-77.808865,"NC","5/28/2015","2015-39",""
"NCDWR",,1,"Aphredoderidae","Aphredoderus sayanus","Big Alamance Cr, SR 3088","Guilford",35.998854,-79.642911,"NC","4/20/1999","99-21",""
"NCDWR",,1,"Aphredoderidae","Aphredoderus sayanus","Big Alamance Cr, SR 3088","Guilford",35.9988542,-79.642911,"NC","4/16/2009","2009-14",""
"NCDWR",,2,"Aphredoderidae","Aphredoderus sayanus","Reedy Fk, SR 2128","Guilford",36.179722,-79.953093,"NC","9/20/1999","99-78",""
"NCDWR",,6,"Aphredoderidae","Aphredoderus sayanus","Reedy Fk, SR 2128","Guilford",36.179722,-79.907222,"NC","6/18/2004","2004-148",""
"NCDWR",,2,"Aphredoderidae","Aphredoderus sayanus","Reedy Fk, SR 2128","Guilford",36.179722,-79.953093,"NC","6/24/2009","2009-132",""
"NCDWR",,1,"Aphredoderidae","Aphredoderus sayanus","Bear Swp, NC 561","Halifax",36.2779312,-77.8841524,"NC","4/11/2002","2002-10",""
"NCDWR",,8,"Aphredoderidae","Aphredoderus sayanus","Bear Swp, NC 561","Halifax",36.2779312,-77.8841524,"NC","5/7/2007","2007-40",""
"NCDWR",,11,"Aphredoderidae","Aphredoderus sayanus","Bear Swp, NC 561","Halifax",36.2779312,-77.8841524,"NC","6/20/2012","2012-66",""
"NCDWR",,9,"Aphredoderidae","Aphredoderus sayanus","Beaverdam Swp, NC 561","Halifax",36.27305556,-77.70611111,"NC","4/3/1997","97-10",""
"NCDWR",,4,"Aphredoderidae","Aphredoderus sayanus","Breeches Swp, SR 1002","Halifax",36.2066781,-77.7300272,"NC","4/13/2007","2007-20",""
"NCDWR",,10,"Aphredoderidae","Aphredoderus sayanus","Burnt Coat Swp, SR 1216","Halifax",36.25521,-77.75957,"NC","4/13/2007","2007-18",""
"NCDWR",,21,"Aphredoderidae","Aphredoderus sayanus","Chockoyotte Cr, US 158","Halifax",36.43055556,-77.60805556,"NC","5/26/2004","2004-60",""
"NCDWR",,4,"Aphredoderidae","Aphredoderus sayanus","Conoconnara Swp, NC 561","Halifax",36.26916667,-77.48416667,"NC","9/21/1994","94-37",""
"NCDWR",,16,"Aphredoderidae","Aphredoderus sayanus","Deep Cr, US 158","Halifax",36.451475,-77.782253,"NC","9/21/1994","94-39",""
"NCDWR",,20,"Aphredoderidae","Aphredoderus sayanus","Deep Cr, US 158","Halifax",36.4514745,-77.7822531,"NC","5/26/2004","2004-59",""
"NCDWR",,11,"Aphredoderidae","Aphredoderus sayanus","Deep Cr, US 158","Halifax",36.451475,-77.782253,"NC","5/27/2009","2009-48",""
"NCDWR",,12,"Aphredoderidae","Aphredoderus sayanus","Deep Cr, US 158","Halifax",36.451475,-77.782253,"NC","6/16/2010","2010-50",""
"NCDWR",,8,"Aphredoderidae","Aphredoderus sayanus","Deep Cr, US 158","Halifax",36.451475,-77.782253,"NC","6/12/2014","2014-46",""
"NCDWR",,34,"Aphredoderidae","Aphredoderus sayanus","Jacket Swp, SR 1216","Halifax",36.2280903,-77.7708477,"NC","4/13/2007","2007-19",""
"NCDWR",,36,"Aphredoderidae","Aphredoderus sayanus","Kehukee Swp, SR 1804","Halifax",36.12972222,-77.36305556,"NC","10/27/1994","94-49",""
"NCDWR",,4,"Aphredoderidae","Aphredoderus sayanus","Little Fishing Cr, SR 1338","Halifax",36.18555556,-77.87611111,"NC","8/28/1997","97-72",""
"NCDWR",,5,"Aphredoderidae","Aphredoderus sayanus","Marsh Swp, SR 1210","Halifax",36.379309,-77.728805,"NC","5/8/2007","2007-42",""
"NCDWR",,5,"Aphredoderidae","Aphredoderus sayanus","Quankey Cr, SR 1619","Halifax",36.32833333,-77.60472222,"NC","9/21/1994","94-38",""
"NCDWR",,14,"Aphredoderidae","Aphredoderus sayanus","Rocky Swp, SR 1002","Halifax",36.22638889,-77.80916667,"NC","4/3/1997","97-11",""
"NCDWR",,1,"Aphredoderidae","Aphredoderus sayanus","Rocky Swp, SR 1002","Halifax",36.22638889,-77.80916667,"NC","4/12/2002","2002-13",""
"NCDWR",,7,"Aphredoderidae","Aphredoderus sayanus","Rocky Swp, SR 1002","Halifax",36.22638889,-77.80916667,"NC","5/7/2007","2007-41",""
"NCDWR",,8,"Aphredoderidae","Aphredoderus sayanus","Rocky Swp, SR 1002","Halifax",36.22638889,-77.80916667,"NC","6/20/2012","2012-67",""
"NCDWR",,13,"Aphredoderidae","Aphredoderus sayanus","Avents Cr, SR 1418","Harnett",35.4872014,-78.90999,"NC","9/21/1998","98-68",""
"NCDWR",,7,"Aphredoderidae","Aphredoderus sayanus","Avents Cr, SR 1418","Harnett",35.4872014,-78.9099895,"NC","6/6/2003","2003-22",""
"NCDWR",,2,"Aphredoderidae","Aphredoderus sayanus","Avents Cr, SR 1418","Harnett",35.4872014,-78.90999,"NC","6/10/2009","2009-63",""
"NCDWR",,9,"Aphredoderidae","Aphredoderus sayanus","Avents Cr, SR 1418","Harnett",35.4872014,-78.90999,"NC","8/14/2013","2013-50",""
"NCDWR",,3,"Aphredoderidae","Aphredoderus sayanus","Barbeque Cr, SR 1285","Harnett",35.3379652,-79.0455437,"NC","4/16/2008","2008-17",""
"NCDWR",,1,"Aphredoderidae","Aphredoderus sayanus","Buies Cr, off SR 1519","Harnett",35.39888889,-78.74972222,"NC","6/6/2003","2003-23",""
"NCDWR",,35,"Aphredoderidae","Aphredoderus sayanus","Cypress Cr, SR 1103","Harnett",35.25944444,-79.17694444,"NC","4/22/2002","2002-25",""
"NCDWR",,1,"Aphredoderidae","Aphredoderus sayanus","Hector Cr, SR 1403","Harnett",35.48777778,-78.84666667,"NC","2/9/1994","94-02",""
"NCDWR",,1,"Aphredoderidae","Aphredoderus sayanus","Hector Cr, SR 1412","Harnett",35.466821,-78.8583038,"NC","5/6/1998","98-32",""
"NCDWR",,4,"Aphredoderidae","Aphredoderus sayanus","Hector Cr, SR 1412","Harnett",35.466821,-78.8583038,"NC","6/6/2003","2003-21",""
"NCDWR",,1,"Aphredoderidae","Aphredoderus sayanus","Hector Cr, SR 1412","Harnett",35.466821,-78.8583038,"NC","8/13/2013","2013-49",""
