"Institution.Source","Catalog.Number","Number.of.specimens","Family","Scientific.name","Locality","County","Latitude","Longitude","State","Date.Collected","Field.Locality.number","Collectors"
"AMNH",30138,350,"Atherinopsidae","Menidia beryllina","Currituck sound, kitty hawk","Dare",36.114536,-75.744037,"NC","8/1/1971","GJN-71-14","G.J. Nelson"
"ANSP",152968,12,"Atherinopsidae","Menidia extensa","Lake Waccamaw, North Public Beach (adjacent to north shore restaurant & near foot of main road*","Columbus",34.310343,-78.539117,"NC","3/15/1984","Z152968","B. M. Burr, et al."
"AUM",45913,9,"Atherinopsidae","Menidia beryllina","North Atlantic Ocean, Long Point Ferry Landing, Core Sound, Cape Lookout National Seashore","Carteret",34.89916,-76.25769,"NC","7/9/2004","","E Johnston, P Cleveland, T Wilkes, M Farmer, R Henderson, C Knight, A Kennon"
"AUM",45840,4,"Atherinopsidae","Menidia beryllina","North Atlantic Ocean, Mullet Pond outlet, 1 mile SE of mooring pier","Carteret",34.68425,-76.63278,"NC","8/5/2003","","Castro, G Thomas, A Kennon"
"AUM",45987,33,"Atherinopsidae","Menidia beryllina","North Atlantic Ocean, Old Drum Inlet, Cape Lookout National Seashore","Carteret",34.88067,-76.28136,"NC","7/8/2004","","C Knight, T Wilkes, M Farmer"
"AUM",45965,3,"Atherinopsidae","Menidia beryllina","North Atlantic Ocean, Pamlico Sound, N end of Cape Lookout National Seashore near Portsmouth Village","Carteret",35.06515,-76.07588,"NC","7/8/2004","","E Johnston, P Cleveland, R Henderson, A Kennon"
"AUM",45955,2,"Atherinopsidae","Menidia beryllina","North Atlantic Ocean, Portsmouth Inlet, N end of Cape Lookout National Seashore","Carteret",35.06505,-76.03991,"NC","7/8/2004","","E Johnston, P Cleveland, R Henderson, A Kennon"
"AUM",45903,2,"Atherinopsidae","Menidia beryllina","North Atlantic Ocean, tidal creek, N end of Cape Lookout National Seashore","Carteret",34.97847,-76.1614,"NC","7/8/2004","","E Johnston, P Cleveland, T Wilkes, M Farmer"
"AUM",45999,8,"Atherinopsidae","Menidia beryllina","North Atlantic Ocean, tidal creek, N end of Cape Lookout National Seashore","Carteret",34.95175,-76.19828,"NC","7/8/2004","","E Johnston, P Cleveland, T Wilkes, M Farmer"
"AUM",45712,7,"Atherinopsidae","Menidia beryllina","North Atlantic Ocean, Bald Point, 0.2 miles N Buxton, hwy 12, Cape Hatteras National Seashore","Dare",35.27083,-75.51944,"NC","7/30/2003","","Castro, A Kennon, G Thomas"
"AUM",45702,1,"Atherinopsidae","Menidia beryllina","North Atlantic Ocean, bay at Oregon Inlet Fishing Center, 0.3 miles NNW Oregon Inlet, hwy 12, Cape Hatteras National Seashore","Dare",35.79397,-75.54861,"NC","7/29/2003","","Castro, A Kennon, G Thomas"
"AUM",45649,9,"Atherinopsidae","Menidia beryllina","North Atlantic Ocean, marsh channel, 0.3 miles SSE of park entrance, hwy 12, Cape Hatteras National Seashore","Dare",35.89433,-75.59375,"NC","7/30/2003","","Castro, A Kennon, G Thomas"
"AUM",45657,3,"Atherinopsidae","Menidia beryllina","North Atlantic Ocean, marsh pond, 1.5 miles SSE of park entrance, hwy 12, Cape Hatteras National Seashore","Dare",35.84769,-75.57,"NC","7/30/2003","","Castro, A Kennon, G Thomas"
"AUM",45674,8,"Atherinopsidae","Menidia beryllina","North Atlantic Ocean, marsh pond, 3.0 miles NNW of Oregon inlet, hwy 12, Cape Hatteras National Park","Dare",35.81986,-75.56241,"NC","7/29/2003","","Castro, A Kennon, G Thomas"
"AUM",45721,1,"Atherinopsidae","Menidia beryllina","North Atlantic Ocean, Turtle Pond, 1.0 miles SE Buxton, Cape Hatteras National Seashore","Dare",35.25514,-75.52236,"NC","7/31/2003","","Castro, A Kennon, G Thomas"
"AUM",45733,2,"Atherinopsidae","Menidia beryllina","North Atlantic Ocean, marsh pond, Ocracoke Island.0.05 miles S ferry dock, Cape Hatteras National Seashore","Hyde",35.11664,-75.98103,"NC","8/1/2003","","Castro, A Kennon, G Thomas"
"AUM",53361,11,"Atherinopsidae","Menidia extensa","Waccamaw River - Winyah Bay - North Atlantic Ocean, Lake Waccamaw, 0.5 miles S of Lake Waccamaw","Columbus",34.26333,-78.48972,"NC","10/18/2001","","E Johnston, D.C. Werneke,  Atlantic Slope Class"
"CAS",8402,4,"Atherinopsidae","Menidia beryllina","Albemarle Sound, Edenton.","Chowan",36.031394,-76.614577,"NC","","","Smith, Hugh M."
"CUMV",33570,188,"Atherinopsidae","Menidia beryllina","Pamlico R., ±4.5 mi. SE of Wichard's Beach","Beaufort",35.462273,-76.956653,"NC","7/11/1955","EED NC-495","E. Deubler;  Brian Rothchild;  Neal Foster"
"CUMV",25243,21,"Atherinopsidae","Menidia beryllina","Tar R., 3.3 mi. of Washington","Beaufort",35.559768,-77.117105,"NC","3/27/1945","HEE 1515","Edward Raney;  Royal Suttkus;  Howard Evans;  Robert Roecker"
"CUMV",30072,1,"Atherinopsidae","Menidia beryllina","Bogue Sound near Atlantic Beach","Carteret",34.711279,-76.735968,"NC","3/24/1952","ECR 2760","Edward Raney;  Charles Robins;  Bruce Collette;  John New; et al."
"CUMV",23546,5,"Atherinopsidae","Menidia beryllina","Albemarle Sound at N end of bridge at Rt. 32","Chowan",35.994288,-76.471354,"NC","8/27/1949","ECR 2413","Edward Raney;  Charles Robins;  William Woolcott"
"CUMV",50441,1,"Atherinopsidae","Menidia beryllina","Albemarle Sound at N end of bridge at Rt. 32","Chowan",35.994288,-76.471354,"NC","8/27/1949","ECR 2413","Edward Raney;  Charles Robins;  William Woolcott"
"CUMV",28929,20,"Atherinopsidae","Menidia beryllina","Albermarle Sound at bridge on north side, S of Edenton","Chowan",36.047921,-76.694641,"NC","8/29/1950","ECR 2598","Edward Raney;  William Woolcott;  E. Deubler"
"CUMV",30199,31,"Atherinopsidae","Menidia beryllina","Flanners Beach, 6 mi. N of Havelock","Craven",34.985541,-76.943926,"NC","3/24/1952","ECR 2758","Edward Raney;  Charles Robins;  Bruce Collette;  John New; et al."
"CUMV",30544,141,"Atherinopsidae","Menidia beryllina","Mouth of Trent R. at New Bern","Craven",35.100536,-77.042037,"NC","8/3/1952","CFC 299","Charles Cole;  Rudolph Miller"
"CUMV",33477,83,"Atherinopsidae","Menidia beryllina","Neuse R. at New Bern","Craven",35.101895,-77.025023,"NC","7/11/1955","EED NC-496","E. Deubler;  Brian Rothchild;  Neal Foster"
"CUMV",74926,22,"Atherinopsidae","Menidia beryllina","Knott's Island Ferry slip, Knotts Island at rt. 615 end","Currituck",36.483301,-75.926716,"NC","7/31/1963","TZ 160","Timothy Zorach;  E. Buckley"
"CUMV",15469,3,"Atherinopsidae","Menidia extensa","Lake Waccamaw","Columbus",34.287784,-78.511122,"NC","8/7/1943","EH 47AUG08","E. Hueske; North Carolina Lake Survey"
"CUMV",31939,8,"Atherinopsidae","Menidia extensa","Lake Waccamaw","Columbus",34.287784,-78.511122,"NC","8/20/1954","DEL 58AUG21","D. Louder"
"CUMV",34371,87,"Atherinopsidae","Menidia extensa","Lake Waccamaw","Columbus",34.287784,-78.511122,"NC","7/15/1955","DEL 59JUL16","D. Louder"
"CUMV",11814,3,"Atherinopsidae","Menidia extensa","Lake Waccamaw, N Shore","Columbus",34.310343,-78.539117,"NC","6/25/1942","ECR 1200","Edward Raney;  Ernest Lachner;  Robert Ross"
"CUMV",49599,2,"Atherinopsidae","Menidia extensa","Lake Waccamaw, N shore, in front of Goldston Hotel","Columbus",34.307932,-78.526672,"NC","9/5/1960","TWR 063","Timothy Robbins;  Neal Foster"
"CUMV",31866,66,"Atherinopsidae","Menidia extensa","North end of Lake Waccamaw","Columbus",34.310343,-78.539117,"NC","4/2/1954","BBC 428","Bruce Collette;  H. Howard"
"CUMV",9289,236,"Atherinopsidae","Menidia extensa","North shore Lake Waccamaw","Columbus",34.310343,-78.539117,"NC","3/29/1937","ECR 0960","Ernest Lachner;  Roman Pfeiffer;  Edward Raney"
"FMNH",40385,1,"Atherinopsidae","Menidia beryllina","Beaufort","Carteret",34.71125,-76.644043,"NC","9/16/1941","","A. C. Weed"
"INHS",82147,1,"Atherinopsidae","Menidia extensa","Lake Waccamaw, 0.5 mi S town of Lake Waccamaw","Columbus",34.313034,-78.542087,"NC","7/26/1967","","Palmer, Hunt, et al."
"INHS",27240,12,"Atherinopsidae","Menidia extensa","Lake Waccamaw, N shore off NC 214","Columbus",34.316842,-78.526523,"NC","5/2/1979","","L.M. Page & W.L. Keller"
"INHS",87528,25,"Atherinopsidae","Menidia extensa","Lake Waccamaw, Waccamaw","Columbus",34.261294,-78.479959,"NC","7/25/1981","","D.L. Swofford & R.D. Swofford"
"KU",15377,29,"Atherinopsidae","Menidia beryllina","21 mi. W Morehead City","Carteret",34.693462,-77.056728,"NC","8/23/1967","","Rising, Jim D"
"KU",15389,249,"Atherinopsidae","Menidia beryllina","Beaufort, Pilot Island","Carteret",34.718228,-76.673552,"NC","7/25/1967","","Rising, Jim D"
"KU",5369,1,"Atherinopsidae","Menidia beryllina","North River Estuary, 3.5 mi. NE Beaufort","Carteret",34.765222,-76.620492,"NC","7/8/1960","","Metcalf, Artie L"
"KU",8856,2,"Atherinopsidae","Menidia extensa","Lake Waccamaw","Columbus",34.310764,-78.508022,"NC","8/31/1964","","Cross, Frank B; Busey, Fred H; Judd, C E"
"KU",14073,157,"Atherinopsidae","Menidia extensa","Lake Waccamaw","Columbus",34.310764,-78.508022,"NC","8/6/1967","","Rising, Jim D"
"NCDMF",,1,"Atherinopsidae","Menidia beryllina","NR1, NEW RIVER","",34.756,-77.436,"NC","000504","1201030100",""
"NCDMF",,2,"Atherinopsidae","Menidia beryllina","NR2, NEW RIVER","",34.738,-77.426,"NC","000504","1201030100",""
"NCDMF",,37,"Atherinopsidae","Menidia beryllina","B43, DITCH CREEK","",35.21447,-76.572,"NC","000516","533040000",""
"NCDMF",,20,"Atherinopsidae","Menidia beryllina","AB4, BELL CREEK","",35.407,-76.5,"NC","000517","528030201",""
"NCDMF",,1,"Atherinopsidae","Menidia beryllina","CS13, MOORE CREEK","",35.14532,-76.6668,"NC","000517","534170000",""
"NCDMF",,1,"Atherinopsidae","Menidia beryllina","PUR3, BRADLEY GUT","",35.404,-76.596,"NC","000517","528063803",""
"NCDMF",,2,"Atherinopsidae","Menidia beryllina","PUR32, SLADE CREEK","",35.457,-76.497,"NC","000517","528060200",""
"NCDMF",,2,"Atherinopsidae","Menidia beryllina","PAR13, MUDDY CREEK","",35.331,-76.685,"NC","000518","528371203",""
"NCDMF",,4,"Atherinopsidae","Menidia beryllina","PAR16, EAST PRONG","",35.34,-76.644,"NC","000518","528390101",""
"NCDMF",,1,"Atherinopsidae","Menidia beryllina","PAR27, TOOLEY CREEK","",35.347,-76.749,"NC","000518","528370100",""
"NCDMF",,1,"Atherinopsidae","Menidia beryllina","PAR30, JACKS CREEK","",35.327,-76.784,"NC","000518","528370300",""
"NCDMF",,7,"Atherinopsidae","Menidia beryllina","PAR31, JACOBS CREEK","",35.336,-76.765,"NC","000518","528370200",""
"NCDMF",,1,"Atherinopsidae","Menidia beryllina","PAR63, SHORT CREEK","",35.334,-76.743,"NC","000518","528371000",""
"NCDMF",,9,"Atherinopsidae","Menidia beryllina","F12, KERSHAW CREEK","",35.03845,-76.72517,"NC","000523","535080300",""
"NCDMF",,4,"Atherinopsidae","Menidia beryllina","F3N, PIERCE CREEK","",35.04347,-76.66618,"NC","000523","535060000",""
"NCDMF",,1,"Atherinopsidae","Menidia beryllina","F4, WHITTAKER CREEK","",35.03862,-76.6807,"NC","000523","535070000",""
"NCDMF",,9,"Atherinopsidae","Menidia beryllina","RB1, UNNAMED WESTERN TRIBUTARY","",35.442,-76.431,"NC","000523","526070000",""
"NCDMF",,2,"Atherinopsidae","Menidia beryllina","RB3, TOOLEY CREEK","",35.425,-76.434,"NC","000523","526050000",""
"NCDMF",,6,"Atherinopsidae","Menidia beryllina","NR20, CARAWAY CREEK","",35.014,-76.865,"NC","000524","535100100",""
"NCDMF",,1,"Atherinopsidae","Menidia beryllina","KHB2, KITTY HAWK BAY","",36.03552,-75.70538,"NC","000526","215000000",""
"NCDMF",,2,"Atherinopsidae","Menidia beryllina","PAR20, EAST FORK","",35.432,-76.654,"NC","000531","528070200",""
"NCDMF",,1,"Atherinopsidae","Menidia beryllina","PAR9, MIXON CREEK","",35.428,-76.761,"NC","000531","528100000",""
"NCDMF",,1,"Atherinopsidae","Menidia beryllina","AB4, BELL CREEK","",35.407,-76.5,"NC","000605","528030201",""
"NCDMF",,6,"Atherinopsidae","Menidia beryllina","RB3, TOOLEY CREEK","",35.425,-76.434,"NC","000605","526050000",""
"NCDMF",,11,"Atherinopsidae","Menidia beryllina","128S, BATCHELOR BAY","",35.972,-76.708,"NC","000608","209000000",""
"NCDMF",,1,"Atherinopsidae","Menidia beryllina","152S, ROANOKE R. TO RAILROAD BR.","",35.936,-76.644,"NC","000608","200040000",""
"NCDMF",,1,"Atherinopsidae","Menidia beryllina","153S, EDENTON BAY TO RAILROAD BR.","",36.012,-76.582,"NC","000608","200030000",""
"NCDMF",,1,"Atherinopsidae","Menidia beryllina","162S, ROANOKE R. TO US17 BR.","",35.979,-76.694,"NC","000608","200020000",""
"NCDMF",,5,"Atherinopsidae","Menidia beryllina","163S, RAILROAD BR. TO HWY. 32 NORTHSIDE","",36.003,-76.525,"NC","000608","200050000",""
"NCDMF",,2,"Atherinopsidae","Menidia beryllina","46S, ROANOKE R. TO US17 BR.","",36.043,-76.705,"NC","000608","200020000",""
"NCDMF",,58,"Atherinopsidae","Menidia beryllina","49S, EDENTON BAY","",36.045,-76.603,"NC","000608","207000000",""
"NCDMF",,2,"Atherinopsidae","Menidia beryllina","NR10, SLOCUM CREEK","",34.954,-76.895,"NC","000609","535150000",""
"NCDMF",,3,"Atherinopsidae","Menidia beryllina","126S, DRUMMOND PT. TO HARVEY PT.","",36.088,-76.341,"NC","000612","200090000",""
"NCDMF",,15,"Atherinopsidae","Menidia beryllina","127S, HWY.32 TO DRUMMOND PT.","",36.007,-76.513,"NC","000612","200070000",""
"NCDMF",,42,"Atherinopsidae","Menidia beryllina","128S, BATCHELOR BAY","",35.972,-76.708,"NC","000612","209000000",""
"NCDMF",,1,"Atherinopsidae","Menidia beryllina","129S, ROANOKE R. TO RAILROAD BR.","",35.936,-76.608,"NC","000612","200040000",""
"NCDMF",,19,"Atherinopsidae","Menidia beryllina","153S, EDENTON BAY TO RAILROAD BR.","",36.012,-76.582,"NC","000612","200030000",""
"NCDMF",,11,"Atherinopsidae","Menidia beryllina","163S, RAILROAD BR. TO HWY. 32 NORTHSIDE","",36.003,-76.525,"NC","000612","200050000",""
"NCDMF",,163,"Atherinopsidae","Menidia beryllina","49S, EDENTON BAY","",36.045,-76.603,"NC","000612","207000000",""
"NCDMF",,1,"Atherinopsidae","Menidia beryllina","PAR8, BATH CREEK","",35.454,-76.818,"NC","000620","528120000",""
"NCDMF",,1,"Atherinopsidae","Menidia beryllina","128S, BATCHELOR BAY","",35.972,-76.708,"NC","000621","209000000",""
"NCDMF",,6,"Atherinopsidae","Menidia beryllina","129S, ROANOKE R. TO RAILROAD BR.","",35.936,-76.608,"NC","000621","200040000",""
"NCDMF",,1,"Atherinopsidae","Menidia beryllina","139S, ROANOKE R. TO US17 BR.","",36.003,-76.685,"NC","000621","200020000",""
"NCDMF",,4,"Atherinopsidae","Menidia beryllina","153S, EDENTON BAY TO RAILROAD BR.","",36.012,-76.582,"NC","000621","200030000",""
"NCDMF",,102,"Atherinopsidae","Menidia beryllina","163S, RAILROAD BR. TO HWY. 32 NORTHSIDE","",36.003,-76.525,"NC","000621","200050000",""
"NCDMF",,11,"Atherinopsidae","Menidia beryllina","46S, ROANOKE R. TO US17 BR.","",36.043,-76.705,"NC","000621","200020000",""
"NCDMF",,70,"Atherinopsidae","Menidia beryllina","39S, YEOPIM RIVER","",36.08,-76.411,"NC","000626","206000000",""
"NCDMF",,149,"Atherinopsidae","Menidia beryllina","84S, SCUPPERNONG RIVER","",35.94,-76.298,"NC","000626","213010000",""
"NCDMF",,20,"Atherinopsidae","Menidia beryllina","85S, BULL BAY","",35.939,-76.334,"NC","000626","213000000",""
"NCDMF",,78,"Atherinopsidae","Menidia beryllina","128S, BATCHELOR BAY","",35.972,-76.708,"NC","000628","209000000",""
"NCDMF",,2,"Atherinopsidae","Menidia beryllina","129S, ROANOKE R. TO RAILROAD BR.","",35.936,-76.608,"NC","000628","200040000",""
"NCDMF",,1,"Atherinopsidae","Menidia beryllina","139S, ROANOKE R. TO US17 BR.","",36.003,-76.685,"NC","000628","200020000",""
"NCDMF",,1,"Atherinopsidae","Menidia beryllina","152S, ROANOKE R. TO RAILROAD BR.","",35.936,-76.644,"NC","000628","200040000",""
"NCDMF",,22,"Atherinopsidae","Menidia beryllina","153S, EDENTON BAY TO RAILROAD BR.","",36.012,-76.582,"NC","000628","200030000",""
"NCDMF",,94,"Atherinopsidae","Menidia beryllina","163S, RAILROAD BR. TO HWY. 32 NORTHSIDE","",36.003,-76.525,"NC","000628","200050000",""
"NCDMF",,68,"Atherinopsidae","Menidia beryllina","49S, EDENTON BAY","",36.045,-76.603,"NC","000628","207000000",""
"NCDMF",,17,"Atherinopsidae","Menidia beryllina","128S, BATCHELOR BAY","",35.972,-76.708,"NC","000703","209000000",""
"NCDMF",,98,"Atherinopsidae","Menidia beryllina","129S, ROANOKE R. TO RAILROAD BR.","",35.936,-76.608,"NC","000703","200040000",""
"NCDMF",,12,"Atherinopsidae","Menidia beryllina","152S, ROANOKE R. TO RAILROAD BR.","",35.936,-76.644,"NC","000703","200040000",""
"NCDMF",,70,"Atherinopsidae","Menidia beryllina","153S, EDENTON BAY TO RAILROAD BR.","",36.012,-76.582,"NC","000703","200030000",""
"NCDMF",,1,"Atherinopsidae","Menidia beryllina","162S, ROANOKE R. TO US17 BR.","",35.979,-76.694,"NC","000703","200020000",""
"NCDMF",,35,"Atherinopsidae","Menidia beryllina","163S, RAILROAD BR. TO HWY. 32 NORTHSIDE","",36.003,-76.525,"NC","000703","200050000",""
"NCDMF",,408,"Atherinopsidae","Menidia beryllina","49S, EDENTON BAY","",36.045,-76.603,"NC","000703","207000000",""
"NCDMF",,3,"Atherinopsidae","Menidia beryllina","130S, HWY.32 TO LAUREL PT.","",35.96,-76.489,"NC","000705","200080000",""
"NCDMF",,49,"Atherinopsidae","Menidia beryllina","39S, YEOPIM RIVER","",36.08,-76.411,"NC","000710","206000000",""
"NCDMF",,34,"Atherinopsidae","Menidia beryllina","84S, SCUPPERNONG RIVER","",35.94,-76.298,"NC","000710","213010000",""
"NCDMF",,91,"Atherinopsidae","Menidia beryllina","85S, BULL BAY","",35.939,-76.334,"NC","000710","213000000",""
"NCDMF",,8,"Atherinopsidae","Menidia beryllina","128S, BATCHELOR BAY","",35.972,-76.708,"NC","000712","209000000",""
"NCDMF",,115,"Atherinopsidae","Menidia beryllina","129S, ROANOKE R. TO RAILROAD BR.","",35.936,-76.608,"NC","000712","200040000",""
"NCDMF",,51,"Atherinopsidae","Menidia beryllina","139S, ROANOKE R. TO US17 BR.","",36.003,-76.685,"NC","000712","200020000",""
"NCDMF",,184,"Atherinopsidae","Menidia beryllina","152S, ROANOKE R. TO RAILROAD BR.","",35.936,-76.644,"NC","000712","200040000",""
"NCDMF",,6,"Atherinopsidae","Menidia beryllina","153S, EDENTON BAY TO RAILROAD BR.","",36.012,-76.582,"NC","000712","200030000",""
"NCDMF",,21,"Atherinopsidae","Menidia beryllina","162S, ROANOKE R. TO US17 BR.","",35.979,-76.694,"NC","000712","200020000",""
"NCDMF",,68,"Atherinopsidae","Menidia beryllina","163S, RAILROAD BR. TO HWY. 32 NORTHSIDE","",36.003,-76.525,"NC","000712","200050000",""
"NCDMF",,31,"Atherinopsidae","Menidia beryllina","46S, ROANOKE R. TO US17 BR.","",36.043,-76.705,"NC","000712","200020000",""
"NCDMF",,47,"Atherinopsidae","Menidia beryllina","49S, EDENTON BAY","",36.045,-76.603,"NC","000712","207000000",""
"NCDMF",,17,"Atherinopsidae","Menidia beryllina","127S, HWY.32 TO DRUMMOND PT.","",36.007,-76.513,"NC","000809","200070000",""
"NCDMF",,58,"Atherinopsidae","Menidia beryllina","128S, BATCHELOR BAY","",35.972,-76.708,"NC","000809","209000000",""
"NCDMF",,42,"Atherinopsidae","Menidia beryllina","130S, HWY.32 TO LAUREL PT.","",35.96,-76.489,"NC","000809","200080000",""
"NCDMF",,24,"Atherinopsidae","Menidia beryllina","47S, MT GLD L./HARR.L.-COLER./CHOW.B.","",36.111,-76.737,"NC","000809","208000200",""
"NCDMF",,28,"Atherinopsidae","Menidia beryllina","56S, COLER./CHOW.B./N.HOLIDAY IS.","",36.228,-76.706,"NC","000809","208000300",""
"NCDMF",,235,"Atherinopsidae","Menidia beryllina","129S, ROANOKE R. TO RAILROAD BR.","",35.936,-76.608,"NC","000810","200040000",""
"NCDMF",,5,"Atherinopsidae","Menidia beryllina","139S, ROANOKE R. TO US17 BR.","",36.003,-76.685,"NC","000810","200020000",""
"NCDMF",,8,"Atherinopsidae","Menidia beryllina","152S, ROANOKE R. TO RAILROAD BR.","",35.936,-76.644,"NC","000810","200040000",""
"NCDMF",,33,"Atherinopsidae","Menidia beryllina","163S, RAILROAD BR. TO HWY. 32 NORTHSIDE","",36.003,-76.525,"NC","000810","200050000",""
"NCDMF",,3,"Atherinopsidae","Menidia beryllina","49S, EDENTON BAY","",36.045,-76.603,"NC","000810","207000000",""
"NCDMF",,192,"Atherinopsidae","Menidia beryllina","39S, YEOPIM RIVER","",36.08,-76.411,"NC","000817","206000000",""
"NCDMF",,17,"Atherinopsidae","Menidia beryllina","84S, SCUPPERNONG RIVER","",35.94,-76.298,"NC","000817","213010000",""
"NCDMF",,20,"Atherinopsidae","Menidia beryllina","85S, BULL BAY","",35.939,-76.334,"NC","000817","213000000",""
"NCDMF",,117,"Atherinopsidae","Menidia beryllina","129S, ROANOKE R. TO RAILROAD BR.","",35.936,-76.608,"NC","000911","200040000",""
"NCDMF",,30,"Atherinopsidae","Menidia beryllina","139S, ROANOKE R. TO US17 BR.","",36.003,-76.685,"NC","000911","200020000",""
"NCDMF",,3,"Atherinopsidae","Menidia beryllina","163S, RAILROAD BR. TO HWY. 32 NORTHSIDE","",36.003,-76.525,"NC","000911","200050000",""
"NCDMF",,10,"Atherinopsidae","Menidia beryllina","49S, EDENTON BAY","",36.045,-76.603,"NC","000911","207000000",""
"NCDMF",,235,"Atherinopsidae","Menidia beryllina","107S, CROATAN SOUND","",35.884,-75.749,"NC","000912","300000000",""
"NCDMF",,10,"Atherinopsidae","Menidia beryllina","126S, DRUMMOND PT. TO HARVEY PT.","",36.088,-76.341,"NC","000912","200090000",""
"NCDMF",,78,"Atherinopsidae","Menidia beryllina","128S, BATCHELOR BAY","",35.972,-76.708,"NC","000912","209000000",""
"NCDMF",,6,"Atherinopsidae","Menidia beryllina","130S, HWY.32 TO LAUREL PT.","",35.96,-76.489,"NC","000912","200080000",""
"NCDMF",,27,"Atherinopsidae","Menidia beryllina","147S, NED BEES PT. TO CAROON PT.","",35.96,-75.814,"NC","000912","200180000",""
"NCDMF",,2,"Atherinopsidae","Menidia beryllina","46S, ROANOKE R. TO US17 BR.","",36.043,-76.705,"NC","000912","200020000",""
"NCDMF",,2,"Atherinopsidae","Menidia beryllina","47S, MT GLD L./HARR.L.-COLER./CHOW.B.","",36.111,-76.737,"NC","000912","208000200",""
"NCDMF",,66,"Atherinopsidae","Menidia beryllina","56S, COLER./CHOW.B./N.HOLIDAY IS.","",36.228,-76.706,"NC","000912","208000300",""
"NCDMF",,27,"Atherinopsidae","Menidia beryllina","110S, ROANOKE SOUND","",35.955,-75.636,"NC","000913","400000000",""
"NCDMF",,42,"Atherinopsidae","Menidia beryllina","108S, CROATAN SOUND","",35.925,-75.724,"NC","000922","300000000",""
"NCDMF",,27,"Atherinopsidae","Menidia beryllina","109S, ROANOKE SOUND","",35.937,-75.7,"NC","000922","400000000",""
"NCDMF",,5,"Atherinopsidae","Menidia beryllina","14S, PASQUOTANK RIVER","",36.242,-76.082,"NC","000927","202000000",""
"NCDMF",,11,"Atherinopsidae","Menidia beryllina","32S, LITTLE RIVER","",36.164,-76.257,"NC","000927","204000000",""
"NCDMF",,27,"Atherinopsidae","Menidia beryllina","39S, YEOPIM RIVER","",36.08,-76.411,"NC","000928","206000000",""
"NCDMF",,54,"Atherinopsidae","Menidia beryllina","84S, SCUPPERNONG RIVER","",35.94,-76.298,"NC","000928","213010000",""
"NCDMF",,13,"Atherinopsidae","Menidia beryllina","85S, BULL BAY","",35.939,-76.334,"NC","000928","213000000",""
"NCDMF",,30,"Atherinopsidae","Menidia beryllina","38S, PERQUIMANS RIVER","",36.186,-76.458,"NC","000929","205000000",""
"NCDMF",,10,"Atherinopsidae","Menidia beryllina","126S, DRUMMOND PT. TO HARVEY PT.","",36.088,-76.341,"NC","001018","200090000",""
"NCDMF",,25,"Atherinopsidae","Menidia beryllina","127S, HWY.32 TO DRUMMOND PT.","",36.007,-76.513,"NC","001018","200070000",""
"NCDMF",,2,"Atherinopsidae","Menidia beryllina","128S, BATCHELOR BAY","",35.972,-76.708,"NC","001018","209000000",""
"NCDMF",,20,"Atherinopsidae","Menidia beryllina","47S, MT GLD L./HARR.L.-COLER./CHOW.B.","",36.111,-76.737,"NC","001018","208000200",""
"NCDMF",,11,"Atherinopsidae","Menidia beryllina","56S, COLER./CHOW.B./N.HOLIDAY IS.","",36.228,-76.706,"NC","001018","208000300",""
"NCDMF",,5,"Atherinopsidae","Menidia beryllina","129S, ROANOKE R. TO RAILROAD BR.","",35.936,-76.608,"NC","001019","200040000",""
"NCDMF",,5,"Atherinopsidae","Menidia beryllina","139S, ROANOKE R. TO US17 BR.","",36.003,-76.685,"NC","001019","200020000",""
"NCDMF",,7,"Atherinopsidae","Menidia beryllina","163S, RAILROAD BR. TO HWY. 32 NORTHSIDE","",36.003,-76.525,"NC","001019","200050000",""
"NCDMF",,60,"Atherinopsidae","Menidia beryllina","39S, YEOPIM RIVER","",36.08,-76.411,"NC","001020","206000000",""
"NCDMF",,10,"Atherinopsidae","Menidia beryllina","84S, SCUPPERNONG RIVER","",35.94,-76.298,"NC","001020","213010000",""
"NCDMF",,12,"Atherinopsidae","Menidia beryllina","85S, BULL BAY","",35.939,-76.334,"NC","001020","213000000",""
"NCDMF",,3,"Atherinopsidae","Menidia beryllina","NE42, SMITH CREEK TO LANE FERRY","",34.332,-77.98,"NC","001213","1902030100",""
"NCDMF",,3,"Atherinopsidae","Menidia beryllina","CF11, BRUNSWICK RIVER","",34.219,-77.979,"NC","001228","1902020000",""
"NCDMF",,7,"Atherinopsidae","Menidia beryllina","CFR1, CAPE FEAR RIVER, WILMINGTON AND ABOVE","",34.252,-77.968,"NC","001228","1902000000",""
"NCDMF",,2,"Atherinopsidae","Menidia beryllina","CFR2, SMITH CREEK TO LANE FERRY","",34.266,-77.947,"NC","010119","1902030100",""
"NCDMF",,1,"Atherinopsidae","Menidia beryllina","CF11, BRUNSWICK RIVER","",34.219,-77.979,"NC","010123","1902020000",""
"NCDMF",,1,"Atherinopsidae","Menidia beryllina","UCF5, CAPE FEAR RIVER, WILMINGTON AND ABOVE","",34.367,-78.14,"NC","010129","1902000000",""
"NCDMF",,8,"Atherinopsidae","Menidia beryllina","CFR1, CAPE FEAR RIVER, WILMINGTON AND ABOVE","",34.252,-77.968,"NC","010220","1902000000",""
"NCDMF",,16,"Atherinopsidae","Menidia beryllina","A12, MALLARD CREEK","",35.2996,-76.60137,"NC","010508","528400702",""
"NCDMF",,3,"Atherinopsidae","Menidia beryllina","B40, UPPER JONES BAY CREEK","",35.24023,-76.5918,"NC","010508","533050000",""
"NCDMF",,6,"Atherinopsidae","Menidia beryllina","PUR16, SATTERTHWAITE CREEK","",35.429,-76.597,"NC","010508","528063700",""
"NCDMF",,10,"Atherinopsidae","Menidia beryllina","PUR30, CROOKED CREEK","",35.41,-76.536,"NC","010508","528050000",""
"NCDMF",,2,"Atherinopsidae","Menidia beryllina","PUR32, SLADE CREEK","",35.457,-76.497,"NC","010508","528060200",""
"NCDMF",,2,"Atherinopsidae","Menidia beryllina","PUR7, WOOD CREEK","",35.481,-76.541,"NC","010508","528060209",""
"NCDMF",,22,"Atherinopsidae","Menidia beryllina","B10, LONG CREEK","",35.3145,-76.50117,"NC","010509","529010000",""
"NCDMF",,9,"Atherinopsidae","Menidia beryllina","CN3, RIGGS CREEK","",35.19443,-76.6212,"NC","010509","534050100",""
"NCDMF",,1,"Atherinopsidae","Menidia beryllina","CN13, BAY RIVER","",35.14732,-76.7367,"NC","010510","534000000",""
"NCDMF",,12,"Atherinopsidae","Menidia beryllina","CS13, MOORE CREEK","",35.14532,-76.6668,"NC","010510","534170000",""
"NCDMF",,2,"Atherinopsidae","Menidia beryllina","E10, UPPER BROAD CREEK","",35.08245,-76.6578,"NC","010511","535030600",""
"NCDMF",,12,"Atherinopsidae","Menidia beryllina","E36, COFFEE CREEK","",35.0947,-76.62733,"NC","010511","535031200",""
"NCDMF",,3,"Atherinopsidae","Menidia beryllina","PAR7, PORTER CREEK","",35.379,-76.817,"NC","010511","528350400",""
"NCDMF",,12,"Atherinopsidae","Menidia beryllina","PAR8, BATH CREEK","",35.454,-76.818,"NC","010511","528120000",""
"NCDMF",,4,"Atherinopsidae","Menidia beryllina","F1, ORCHARD CREEK","",35.06353,-76.64548,"NC","010514","535050000",""
"NCDMF",,4,"Atherinopsidae","Menidia beryllina","F3D, PIERCE CREEK","",35.03977,-76.6694,"NC","010514","535060000",""
"NCDMF",,3,"Atherinopsidae","Menidia beryllina","F3N, PIERCE CREEK","",35.04347,-76.66618,"NC","010514","535060000",""
"NCDMF",,1,"Atherinopsidae","Menidia beryllina","F10, SMITH CREEK","",35.0468,-76.70997,"NC","010515","535080200",""
"NCDMF",,2,"Atherinopsidae","Menidia beryllina","PAR26, LONG CREEK","",35.332,-76.734,"NC","010518","528371100",""
"NCDMF",,1,"Atherinopsidae","Menidia beryllina","SSI1, ALLIGATOR BAY","",34.517,-77.424,"NC","010522","1301010000",""
"NCDMF",,7,"Atherinopsidae","Menidia beryllina","A12, MALLARD CREEK","",35.2996,-76.60137,"NC","010604","528400702",""
"NCDMF",,1,"Atherinopsidae","Menidia beryllina","A2, BETTY CREEK(DOG CREEK)","",35.31783,-76.63667,"NC","010604","528400201",""
"NCDMF",,1,"Atherinopsidae","Menidia beryllina","A25, CAMPBELL CREEK","",35.28672,-76.64753,"NC","010604","528400500",""
"NCDMF",,1,"Atherinopsidae","Menidia beryllina","B40, UPPER JONES BAY CREEK","",35.24023,-76.5918,"NC","010604","533050000",""
"NCDMF",,12,"Atherinopsidae","Menidia beryllina","128S, BATCHELOR BAY","",35.972,-76.708,"NC","010605","209000000",""
"NCDMF",,8,"Atherinopsidae","Menidia beryllina","129S, ROANOKE R. TO RAILROAD BR.","",35.936,-76.608,"NC","010605","200040000",""
"NCDMF",,5,"Atherinopsidae","Menidia beryllina","139S, ROANOKE R. TO US17 BR.","",36.003,-76.685,"NC","010605","200020000",""
"NCDMF",,1,"Atherinopsidae","Menidia beryllina","152S, ROANOKE R. TO RAILROAD BR.","",35.936,-76.644,"NC","010605","200040000",""
"NCDMF",,13,"Atherinopsidae","Menidia beryllina","153S, EDENTON BAY TO RAILROAD BR.","",36.012,-76.582,"NC","010605","200030000",""
"NCDMF",,3,"Atherinopsidae","Menidia beryllina","163S, RAILROAD BR. TO HWY. 32 NORTHSIDE","",36.003,-76.525,"NC","010605","200050000",""
"NCDMF",,5,"Atherinopsidae","Menidia beryllina","46S, ROANOKE R. TO US17 BR.","",36.043,-76.705,"NC","010605","200020000",""
"NCDMF",,1,"Atherinopsidae","Menidia beryllina","RB1, UNNAMED WESTERN TRIBUTARY","",35.442,-76.431,"NC","010605","526070000",""
"NCDMF",,1,"Atherinopsidae","Menidia beryllina","RB3, TOOLEY CREEK","",35.425,-76.434,"NC","010605","526050000",""
"NCDMF",,3,"Atherinopsidae","Menidia beryllina","RB7, UNNAMED NORTHERN TRIBUTARY","",35.458,-76.432,"NC","010605","526080000",""
"NCDMF",,4,"Atherinopsidae","Menidia beryllina","F12, KERSHAW CREEK","",35.03845,-76.72517,"NC","010606","535080300",""
"NCDMF",,1,"Atherinopsidae","Menidia beryllina","FC6, OYSTER CREEK","",35.501,-75.969,"NC","010606","506030000",""
"NCDMF",,1,"Atherinopsidae","Menidia beryllina","PUR16, SATTERTHWAITE CREEK","",35.429,-76.597,"NC","010607","528063700",""
"NCDMF",,1,"Atherinopsidae","Menidia beryllina","PUR30, CROOKED CREEK","",35.41,-76.536,"NC","010607","528050000",""
"NCDMF",,9,"Atherinopsidae","Menidia beryllina","PUR32, SLADE CREEK","",35.457,-76.497,"NC","010607","528060200",""
"NCDMF",,1,"Atherinopsidae","Menidia beryllina","PUR65, SATTERTHWAITE CREEK","",35.426,-76.609,"NC","010607","528063703",""
"NCDMF",,1,"Atherinopsidae","Menidia beryllina","F25, DAWSON CREEK","",35.004,-76.75397,"NC","010608","535090000",""
"NCDMF",,2,"Atherinopsidae","Menidia beryllina","PAR13, MUDDY CREEK","",35.331,-76.685,"NC","010608","528371203",""
"NCDMF",,1,"Atherinopsidae","Menidia beryllina","PAR24, FLANNIGAN GUT","",35.336,-76.709,"NC","010608","528371201",""
"NCDMF",,3,"Atherinopsidae","Menidia beryllina","PAR26, LONG CREEK","",35.332,-76.734,"NC","010608","528371100",""
"NCDMF",,1,"Atherinopsidae","Menidia beryllina","PAR27, TOOLEY CREEK","",35.347,-76.749,"NC","010608","528370100",""
"NCDMF",,14,"Atherinopsidae","Menidia beryllina","PAR31, JACOBS CREEK","",35.336,-76.765,"NC","010608","528370200",""
"NCDMF",,5,"Atherinopsidae","Menidia beryllina","PAR57, LITTLE CREEK","",35.313,-76.764,"NC","010608","528370900",""
"NCDMF",,1,"Atherinopsidae","Menidia beryllina","PAR63, SHORT CREEK","",35.334,-76.743,"NC","010608","528371000",""
"NCDMF",,11,"Atherinopsidae","Menidia beryllina","128S, BATCHELOR BAY","",35.972,-76.708,"NC","010613","209000000",""
"NCDMF",,2,"Atherinopsidae","Menidia beryllina","139S, ROANOKE R. TO US17 BR.","",36.003,-76.685,"NC","010613","200020000",""
"NCDMF",,1,"Atherinopsidae","Menidia beryllina","152S, ROANOKE R. TO RAILROAD BR.","",35.936,-76.644,"NC","010613","200040000",""
"NCDMF",,35,"Atherinopsidae","Menidia beryllina","153S, EDENTON BAY TO RAILROAD BR.","",36.012,-76.582,"NC","010613","200030000",""
"NCDMF",,2,"Atherinopsidae","Menidia beryllina","162S, ROANOKE R. TO US17 BR.","",35.979,-76.694,"NC","010613","200020000",""
"NCDMF",,1,"Atherinopsidae","Menidia beryllina","163S, RAILROAD BR. TO HWY. 32 NORTHSIDE","",36.003,-76.525,"NC","010613","200050000",""
"NCDMF",,1,"Atherinopsidae","Menidia beryllina","49S, EDENTON BAY","",36.045,-76.603,"NC","010613","207000000",""
"NCDMF",,33,"Atherinopsidae","Menidia beryllina","126S, DRUMMOND PT. TO HARVEY PT.","",36.088,-76.341,"NC","010618","200090000",""
"NCDMF",,68,"Atherinopsidae","Menidia beryllina","127S, HWY.32 TO DRUMMOND PT.","",36.007,-76.513,"NC","010618","200070000",""
"NCDMF",,3,"Atherinopsidae","Menidia beryllina","130S, HWY.32 TO LAUREL PT.","",35.96,-76.489,"NC","010618","200080000",""
"NCDMF",,2,"Atherinopsidae","Menidia beryllina","128S, BATCHELOR BAY","",35.972,-76.708,"NC","010619","209000000",""
"NCDMF",,2,"Atherinopsidae","Menidia beryllina","139S, ROANOKE R. TO US17 BR.","",36.003,-76.685,"NC","010619","200020000",""
"NCDMF",,2,"Atherinopsidae","Menidia beryllina","152S, ROANOKE R. TO RAILROAD BR.","",35.936,-76.644,"NC","010619","200040000",""
"NCDMF",,4,"Atherinopsidae","Menidia beryllina","153S, EDENTON BAY TO RAILROAD BR.","",36.012,-76.582,"NC","010619","200030000",""
"NCDMF",,4,"Atherinopsidae","Menidia beryllina","163S, RAILROAD BR. TO HWY. 32 NORTHSIDE","",36.003,-76.525,"NC","010619","200050000",""
"NCDMF",,10,"Atherinopsidae","Menidia beryllina","49S, EDENTON BAY","",36.045,-76.603,"NC","010619","207000000",""
"NCDMF",,24,"Atherinopsidae","Menidia beryllina","84S, SCUPPERNONG RIVER","",35.94,-76.298,"NC","010619","213010000",""
"NCDMF",,11,"Atherinopsidae","Menidia beryllina","85S, BULL BAY","",35.939,-76.334,"NC","010619","213000000",""
"NCDMF",,3,"Atherinopsidae","Menidia beryllina","PAR8, BATH CREEK","",35.454,-76.818,"NC","010620","528120000",""
"NCDMF",,4,"Atherinopsidae","Menidia beryllina","PAR9, MIXON CREEK","",35.428,-76.761,"NC","010620","528100000",""
"NCDMF",,1,"Atherinopsidae","Menidia beryllina","BB4, BUZZARD BAY","",35.99852,-75.6815,"NC","010626","216000000",""
"NCDMF",,1,"Atherinopsidae","Menidia beryllina","BI2A, WALTER SLOUGH","",35.79048,-75.56358,"NC","010626","400020000",""
"NCDMF",,33,"Atherinopsidae","Menidia beryllina","KHB2, KITTY HAWK BAY","",36.03552,-75.70538,"NC","010626","215000000",""
"NCDMF",,2,"Atherinopsidae","Menidia beryllina","128S, BATCHELOR BAY","",35.972,-76.708,"NC","010627","209000000",""
"NCDMF",,3,"Atherinopsidae","Menidia beryllina","129S, ROANOKE R. TO RAILROAD BR.","",35.936,-76.608,"NC","010627","200040000",""
"NCDMF",,10,"Atherinopsidae","Menidia beryllina","139S, ROANOKE R. TO US17 BR.","",36.003,-76.685,"NC","010627","200020000",""
"NCDMF",,8,"Atherinopsidae","Menidia beryllina","152S, ROANOKE R. TO RAILROAD BR.","",35.936,-76.644,"NC","010627","200040000",""
"NCDMF",,2,"Atherinopsidae","Menidia beryllina","162S, ROANOKE R. TO US17 BR.","",35.979,-76.694,"NC","010627","200020000",""
"NCDMF",,7,"Atherinopsidae","Menidia beryllina","163S, RAILROAD BR. TO HWY. 32 NORTHSIDE","",36.003,-76.525,"NC","010627","200050000",""
"NCDMF",,11,"Atherinopsidae","Menidia beryllina","46S, ROANOKE R. TO US17 BR.","",36.043,-76.705,"NC","010627","200020000",""
"NCDMF",,13,"Atherinopsidae","Menidia beryllina","128S, BATCHELOR BAY","",35.972,-76.708,"NC","010703","209000000",""
"NCDMF",,37,"Atherinopsidae","Menidia beryllina","129S, ROANOKE R. TO RAILROAD BR.","",35.936,-76.608,"NC","010703","200040000",""
"NCDMF",,28,"Atherinopsidae","Menidia beryllina","139S, ROANOKE R. TO US17 BR.","",36.003,-76.685,"NC","010703","200020000",""
"NCDMF",,125,"Atherinopsidae","Menidia beryllina","152S, ROANOKE R. TO RAILROAD BR.","",35.936,-76.644,"NC","010703","200040000",""
"NCDMF",,2,"Atherinopsidae","Menidia beryllina","153S, EDENTON BAY TO RAILROAD BR.","",36.012,-76.582,"NC","010703","200030000",""
"NCDMF",,51,"Atherinopsidae","Menidia beryllina","162S, ROANOKE R. TO US17 BR.","",35.979,-76.694,"NC","010703","200020000",""
"NCDMF",,53,"Atherinopsidae","Menidia beryllina","163S, RAILROAD BR. TO HWY. 32 NORTHSIDE","",36.003,-76.525,"NC","010703","200050000",""
"NCDMF",,2,"Atherinopsidae","Menidia beryllina","46S, ROANOKE R. TO US17 BR.","",36.043,-76.705,"NC","010703","200020000",""
"NCDMF",,32,"Atherinopsidae","Menidia beryllina","49S, EDENTON BAY","",36.045,-76.603,"NC","010703","207000000",""
"NCDMF",,35,"Atherinopsidae","Menidia beryllina","127S, HWY.32 TO DRUMMOND PT.","",36.007,-76.513,"NC","010709","200070000",""
"NCDMF",,3,"Atherinopsidae","Menidia beryllina","130S, HWY.32 TO LAUREL PT.","",35.96,-76.489,"NC","010709","200080000",""
"NCDMF",,6,"Atherinopsidae","Menidia beryllina","126S, DRUMMOND PT. TO HARVEY PT.","",36.088,-76.341,"NC","010710","200090000",""
"NCDMF",,5,"Atherinopsidae","Menidia beryllina","128S, BATCHELOR BAY","",35.972,-76.708,"NC","010710","209000000",""
"NCDMF",,34,"Atherinopsidae","Menidia beryllina","139S, ROANOKE R. TO US17 BR.","",36.003,-76.685,"NC","010710","200020000",""
"NCDMF",,20,"Atherinopsidae","Menidia beryllina","153S, EDENTON BAY TO RAILROAD BR.","",36.012,-76.582,"NC","010710","200030000",""
"NCDMF",,10,"Atherinopsidae","Menidia beryllina","162S, ROANOKE R. TO US17 BR.","",35.979,-76.694,"NC","010710","200020000",""
"NCDMF",,9,"Atherinopsidae","Menidia beryllina","163S, RAILROAD BR. TO HWY. 32 NORTHSIDE","",36.003,-76.525,"NC","010710","200050000",""
"NCDMF",,78,"Atherinopsidae","Menidia beryllina","39S, YEOPIM RIVER","",36.08,-76.411,"NC","010710","206000000",""
"NCDMF",,1,"Atherinopsidae","Menidia beryllina","48S, MOUTH BARNES CK-HWY 158/13 BR.","",36.39,-76.91,"NC","010710","208000500",""
"NCDMF",,9,"Atherinopsidae","Menidia beryllina","49S, EDENTON BAY","",36.045,-76.603,"NC","010710","207000000",""
"NCDMF",,11,"Atherinopsidae","Menidia beryllina","56S, COLER./CHOW.B./N.HOLIDAY IS.","",36.228,-76.706,"NC","010710","208000300",""
"NCDMF",,135,"Atherinopsidae","Menidia beryllina","84S, SCUPPERNONG RIVER","",35.94,-76.298,"NC","010710","213010000",""
"NCDMF",,12,"Atherinopsidae","Menidia beryllina","85S, BULL BAY","",35.939,-76.334,"NC","010710","213000000",""
"NCDMF",,5,"Atherinopsidae","Menidia beryllina","47S, MT GLD L./HARR.L.-COLER./CHOW.B.","",36.111,-76.737,"NC","010815","208000200",""
"NCDMF",,22,"Atherinopsidae","Menidia beryllina","56S, COLER./CHOW.B./N.HOLIDAY IS.","",36.228,-76.706,"NC","010815","208000300",""
"NCDMF",,35,"Atherinopsidae","Menidia beryllina","129S, ROANOKE R. TO RAILROAD BR.","",35.936,-76.608,"NC","010823","200040000",""
"NCDMF",,13,"Atherinopsidae","Menidia beryllina","139S, ROANOKE R. TO US17 BR.","",36.003,-76.685,"NC","010823","200020000",""
"NCDMF",,15,"Atherinopsidae","Menidia beryllina","163S, RAILROAD BR. TO HWY. 32 NORTHSIDE","",36.003,-76.525,"NC","010823","200050000",""
"NCDMF",,318,"Atherinopsidae","Menidia beryllina","39S, YEOPIM RIVER","",36.08,-76.411,"NC","010823","206000000",""
"NCDMF",,4,"Atherinopsidae","Menidia beryllina","46S, ROANOKE R. TO US17 BR.","",36.043,-76.705,"NC","010823","200020000",""
"NCDMF",,36,"Atherinopsidae","Menidia beryllina","49S, EDENTON BAY","",36.045,-76.603,"NC","010823","207000000",""
"NCDMF",,47,"Atherinopsidae","Menidia beryllina","84S, SCUPPERNONG RIVER","",35.94,-76.298,"NC","010823","213010000",""
"NCDMF",,12,"Atherinopsidae","Menidia beryllina","126S, DRUMMOND PT. TO HARVEY PT.","",36.088,-76.341,"NC","010910","200090000",""
"NCDMF",,50,"Atherinopsidae","Menidia beryllina","15S, PASQUOTANK RIVER","",36.232,-76.125,"NC","010910","202000000",""
"NCDMF",,21,"Atherinopsidae","Menidia beryllina","27S, HARVEY PT. TO LITTLE R.","",36.103,-76.2,"NC","010910","200110000",""
"NCDMF",,16,"Atherinopsidae","Menidia beryllina","32S, LITTLE RIVER","",36.164,-76.257,"NC","010910","204000000",""
"NCDMF",,62,"Atherinopsidae","Menidia beryllina","33S, PERQUIMANS RIVER","",36.12,-76.346,"NC","010910","205000000",""
"NCDMF",,13,"Atherinopsidae","Menidia beryllina","34S, HARVEY PT. TO LITTLE R.","",36.107,-76.258,"NC","010910","200110000",""
"NCDMF",,261,"Atherinopsidae","Menidia beryllina","108S, CROATAN SOUND","",35.925,-75.724,"NC","010913","300000000",""
"NCDMF",,40,"Atherinopsidae","Menidia beryllina","39S, YEOPIM RIVER","",36.08,-76.411,"NC","010913","206000000",""
"NCDMF",,50,"Atherinopsidae","Menidia beryllina","84S, SCUPPERNONG RIVER","",35.94,-76.298,"NC","010913","213010000",""
"NCDMF",,5,"Atherinopsidae","Menidia beryllina","85S, BULL BAY","",35.939,-76.334,"NC","010913","213000000",""
"NCDMF",,235,"Atherinopsidae","Menidia beryllina","107S, CROATAN SOUND","",35.884,-75.749,"NC","010918","300000000",""
"NCDMF",,31,"Atherinopsidae","Menidia beryllina","147S, NED BEES PT. TO CAROON PT.","",35.96,-75.814,"NC","010918","200180000",""
"NCDMF",,25,"Atherinopsidae","Menidia beryllina","129S, ROANOKE R. TO RAILROAD BR.","",35.936,-76.608,"NC","010919","200040000",""
"NCDMF",,25,"Atherinopsidae","Menidia beryllina","46S, ROANOKE R. TO US17 BR.","",36.043,-76.705,"NC","010919","200020000",""
"NCDMF",,1,"Atherinopsidae","Menidia beryllina","127S, HWY.32 TO DRUMMOND PT.","",36.007,-76.513,"NC","010924","200070000",""
"NCDMF",,14,"Atherinopsidae","Menidia beryllina","128S, BATCHELOR BAY","",35.972,-76.708,"NC","010924","209000000",""
"NCDMF",,39,"Atherinopsidae","Menidia beryllina","130S, HWY.32 TO LAUREL PT.","",35.96,-76.489,"NC","010924","200080000",""
"NCDMF",,15,"Atherinopsidae","Menidia beryllina","56S, COLER./CHOW.B./N.HOLIDAY IS.","",36.228,-76.706,"NC","010924","208000300",""
"NCDMF",,1,"Atherinopsidae","Menidia beryllina","SPENCER BAY","",35.39139,-76.45444,"NC","010927","527000000",""
"NCDMF",,103,"Atherinopsidae","Menidia beryllina","127S, HWY.32 TO DRUMMOND PT.","",36.007,-76.513,"NC","011015","200070000",""
"NCDMF",,178,"Atherinopsidae","Menidia beryllina","128S, BATCHELOR BAY","",35.972,-76.708,"NC","011015","209000000",""
"NCDMF",,4,"Atherinopsidae","Menidia beryllina","47S, MT GLD L./HARR.L.-COLER./CHOW.B.","",36.111,-76.737,"NC","011015","208000200",""
"NCDMF",,13,"Atherinopsidae","Menidia beryllina","56S, COLER./CHOW.B./N.HOLIDAY IS.","",36.228,-76.706,"NC","011015","208000300",""
"NCDMF",,27,"Atherinopsidae","Menidia beryllina","152S, ROANOKE R. TO RAILROAD BR.","",35.936,-76.644,"NC","011016","200040000",""
"NCDMF",,98,"Atherinopsidae","Menidia beryllina","163S, RAILROAD BR. TO HWY. 32 NORTHSIDE","",36.003,-76.525,"NC","011016","200050000",""
"NCDMF",,20,"Atherinopsidae","Menidia beryllina","39S, YEOPIM RIVER","",36.08,-76.411,"NC","011019","206000000",""
"NCDMF",,74,"Atherinopsidae","Menidia beryllina","84S, SCUPPERNONG RIVER","",35.94,-76.298,"NC","011019","213010000",""
"NCDMF",,28,"Atherinopsidae","Menidia beryllina","85S, BULL BAY","",35.939,-76.334,"NC","011019","213000000",""
"NCDMF",,7,"Atherinopsidae","Menidia beryllina","UCF6, CAPE FEAR RIVER, WILMINGTON AND ABOVE","",34.404,-78.272,"NC","020115","1902000000",""
"NCDMF",,2,"Atherinopsidae","Menidia beryllina","SB3, STRIKING BAY","",35.396,-76.442,"NC","020506","527010000",""
"NCDMF",,3,"Atherinopsidae","Menidia beryllina","SB5, UNNAMED NORTH TRIBUTARY","",35.422,-76.446,"NC","020506","527020400",""
"NCDMF",,1,"Atherinopsidae","Menidia beryllina","PAR26, LONG CREEK","",35.332,-76.734,"NC","020508","528371100",""
"NCDMF",,4,"Atherinopsidae","Menidia beryllina","PAR27, TOOLEY CREEK","",35.347,-76.749,"NC","020508","528370100",""
"NCDMF",,1,"Atherinopsidae","Menidia beryllina","CC1A, WHITE OAK NARROWS","",34.768,-77.144,"NC","020509","1001000100",""
"NCDMF",,11,"Atherinopsidae","Menidia beryllina","PAR8, BATH CREEK","",35.454,-76.818,"NC","020510","528120000",""
"NCDMF",,1,"Atherinopsidae","Menidia beryllina","E23, GIDEON CREEK","",35.08483,-76.6332,"NC","020513","535030500",""
"NCDMF",,6,"Atherinopsidae","Menidia beryllina","A11, EASTHAM CREEK","",35.293,-76.595,"NC","020515","528400700",""
"NCDMF",,4,"Atherinopsidae","Menidia beryllina","B10, LONG CREEK","",35.3145,-76.50117,"NC","020515","529010000",""
"NCDMF",,8,"Atherinopsidae","Menidia beryllina","B20, PORPOISE CREEK","",35.26385,-76.50105,"NC","020515","531010000",""
"NCDMF",,1,"Atherinopsidae","Menidia beryllina","F12, KERSHAW CREEK","",35.03845,-76.72517,"NC","020517","535080300",""
"NCDMF",,2,"Atherinopsidae","Menidia beryllina","F25, DAWSON CREEK","",35.004,-76.75397,"NC","020517","535090000",""
"NCDMF",,3,"Atherinopsidae","Menidia beryllina","AB4, BELL CREEK","",35.407,-76.5,"NC","020523","528030201",""
"NCDMF",,12,"Atherinopsidae","Menidia beryllina","KHB2, KITTY HAWK BAY","",36.03552,-75.70538,"NC","020523","215000000",""
"NCDMF",,24,"Atherinopsidae","Menidia beryllina","PUR5, WARNER CREEK","",35.445,-76.528,"NC","020523","528060107",""
"NCDMF",,156,"Atherinopsidae","Menidia beryllina","SANDY BAY(DARE CO.)","",35.61222,-75.74944,"NC","020529","501050000",""
"NCDMF",,53,"Atherinopsidae","Menidia beryllina","128S, BATCHELOR BAY","",35.972,-76.708,"NC","020604","209000000",""
"NCDMF",,12,"Atherinopsidae","Menidia beryllina","129S, ROANOKE R. TO RAILROAD BR.","",35.936,-76.608,"NC","020604","200040000",""
"NCDMF",,68,"Atherinopsidae","Menidia beryllina","139S, ROANOKE R. TO US17 BR.","",36.003,-76.685,"NC","020604","200020000",""
"NCDMF",,6,"Atherinopsidae","Menidia beryllina","152S, ROANOKE R. TO RAILROAD BR.","",35.936,-76.644,"NC","020604","200040000",""
"NCDMF",,135,"Atherinopsidae","Menidia beryllina","153S, EDENTON BAY TO RAILROAD BR.","",36.012,-76.582,"NC","020604","200030000",""
"NCDMF",,25,"Atherinopsidae","Menidia beryllina","162S, ROANOKE R. TO US17 BR.","",35.979,-76.694,"NC","020604","200020000",""
"NCDMF",,530,"Atherinopsidae","Menidia beryllina","163S, RAILROAD BR. TO HWY. 32 NORTHSIDE","",36.003,-76.525,"NC","020604","200050000",""
"NCDMF",,16,"Atherinopsidae","Menidia beryllina","46S, ROANOKE R. TO US17 BR.","",36.043,-76.705,"NC","020604","200020000",""
"NCDMF",,21,"Atherinopsidae","Menidia beryllina","49S, EDENTON BAY","",36.045,-76.603,"NC","020604","207000000",""
"NCDMF",,13,"Atherinopsidae","Menidia beryllina","A25, CAMPBELL CREEK","",35.28672,-76.64753,"NC","020604","528400500",""
"NCDMF",,1,"Atherinopsidae","Menidia beryllina","WB8, BROWNS ISLAND BAY","",35.408,-76.073,"NC","020605","514060000",""
"NCDMF",,27,"Atherinopsidae","Menidia beryllina","128S, BATCHELOR BAY","",35.972,-76.708,"NC","020611","209000000",""
"NCDMF",,63,"Atherinopsidae","Menidia beryllina","129S, ROANOKE R. TO RAILROAD BR.","",35.936,-76.608,"NC","020611","200040000",""
"NCDMF",,28,"Atherinopsidae","Menidia beryllina","139S, ROANOKE R. TO US17 BR.","",36.003,-76.685,"NC","020611","200020000",""
"NCDMF",,3,"Atherinopsidae","Menidia beryllina","152S, ROANOKE R. TO RAILROAD BR.","",35.936,-76.644,"NC","020611","200040000",""
"NCDMF",,39,"Atherinopsidae","Menidia beryllina","153S, EDENTON BAY TO RAILROAD BR.","",36.012,-76.582,"NC","020611","200030000",""
"NCDMF",,11,"Atherinopsidae","Menidia beryllina","162S, ROANOKE R. TO US17 BR.","",35.979,-76.694,"NC","020611","200020000",""
"NCDMF",,68,"Atherinopsidae","Menidia beryllina","163S, RAILROAD BR. TO HWY. 32 NORTHSIDE","",36.003,-76.525,"NC","020611","200050000",""
"NCDMF",,37,"Atherinopsidae","Menidia beryllina","46S, ROANOKE R. TO US17 BR.","",36.043,-76.705,"NC","020611","200020000",""
"NCDMF",,2,"Atherinopsidae","Menidia beryllina","49S, EDENTON BAY","",36.045,-76.603,"NC","020611","207000000",""
"NCDMF",,27,"Atherinopsidae","Menidia beryllina","126S, DRUMMOND PT. TO HARVEY PT.","",36.088,-76.341,"NC","020612","200090000",""
"NCDMF",,69,"Atherinopsidae","Menidia beryllina","127S, HWY.32 TO DRUMMOND PT.","",36.007,-76.513,"NC","020612","200070000",""
"NCDMF",,116,"Atherinopsidae","Menidia beryllina","130S, HWY.32 TO LAUREL PT.","",35.96,-76.489,"NC","020612","200080000",""
"NCDMF",,2,"Atherinopsidae","Menidia beryllina","47S, MT GLD L./HARR.L.-COLER./CHOW.B.","",36.111,-76.737,"NC","020612","208000200",""
"NCDMF",,103,"Atherinopsidae","Menidia beryllina","128S, BATCHELOR BAY","",35.972,-76.708,"NC","020617","209000000",""
"NCDMF",,18,"Atherinopsidae","Menidia beryllina","129S, ROANOKE R. TO RAILROAD BR.","",35.936,-76.608,"NC","020617","200040000",""
"NCDMF",,2,"Atherinopsidae","Menidia beryllina","139S, ROANOKE R. TO US17 BR.","",36.003,-76.685,"NC","020617","200020000",""
"NCDMF",,3,"Atherinopsidae","Menidia beryllina","152S, ROANOKE R. TO RAILROAD BR.","",35.936,-76.644,"NC","020617","200040000",""
"NCDMF",,64,"Atherinopsidae","Menidia beryllina","153S, EDENTON BAY TO RAILROAD BR.","",36.012,-76.582,"NC","020617","200030000",""
"NCDMF",,4,"Atherinopsidae","Menidia beryllina","162S, ROANOKE R. TO US17 BR.","",35.979,-76.694,"NC","020617","200020000",""
"NCDMF",,19,"Atherinopsidae","Menidia beryllina","163S, RAILROAD BR. TO HWY. 32 NORTHSIDE","",36.003,-76.525,"NC","020617","200050000",""
"NCDMF",,3,"Atherinopsidae","Menidia beryllina","46S, ROANOKE R. TO US17 BR.","",36.043,-76.705,"NC","020617","200020000",""
"NCDMF",,3,"Atherinopsidae","Menidia beryllina","49S, EDENTON BAY","",36.045,-76.603,"NC","020617","207000000",""
"NCDMF",,220,"Atherinopsidae","Menidia beryllina","39S, YEOPIM RIVER","",36.08,-76.411,"NC","020618","206000000",""
"NCDMF",,495,"Atherinopsidae","Menidia beryllina","84S, SCUPPERNONG RIVER","",35.94,-76.298,"NC","020618","213010000",""
"NCDMF",,117,"Atherinopsidae","Menidia beryllina","85S, BULL BAY","",35.939,-76.334,"NC","020618","213000000",""
"NCDMF",,129,"Atherinopsidae","Menidia beryllina","128S, BATCHELOR BAY","",35.972,-76.708,"NC","020625","209000000",""
"NCDMF",,3,"Atherinopsidae","Menidia beryllina","129S, ROANOKE R. TO RAILROAD BR.","",35.936,-76.608,"NC","020625","200040000",""
"NCDMF",,83,"Atherinopsidae","Menidia beryllina","139S, ROANOKE R. TO US17 BR.","",36.003,-76.685,"NC","020625","200020000",""
"NCDMF",,57,"Atherinopsidae","Menidia beryllina","153S, EDENTON BAY TO RAILROAD BR.","",36.012,-76.582,"NC","020625","200030000",""
"NCDMF",,14,"Atherinopsidae","Menidia beryllina","163S, RAILROAD BR. TO HWY. 32 NORTHSIDE","",36.003,-76.525,"NC","020625","200050000",""
"NCDMF",,21,"Atherinopsidae","Menidia beryllina","46S, ROANOKE R. TO US17 BR.","",36.043,-76.705,"NC","020625","200020000",""
"NCDMF",,71,"Atherinopsidae","Menidia beryllina","49S, EDENTON BAY","",36.045,-76.603,"NC","020625","207000000",""
"NCDMF",,214,"Atherinopsidae","Menidia beryllina","128S, BATCHELOR BAY","",35.972,-76.708,"NC","020702","209000000",""
"NCDMF",,102,"Atherinopsidae","Menidia beryllina","129S, ROANOKE R. TO RAILROAD BR.","",35.936,-76.608,"NC","020702","200040000",""
"NCDMF",,17,"Atherinopsidae","Menidia beryllina","139S, ROANOKE R. TO US17 BR.","",36.003,-76.685,"NC","020702","200020000",""
"NCDMF",,65,"Atherinopsidae","Menidia beryllina","152S, ROANOKE R. TO RAILROAD BR.","",35.936,-76.644,"NC","020702","200040000",""
"NCDMF",,5,"Atherinopsidae","Menidia beryllina","153S, EDENTON BAY TO RAILROAD BR.","",36.012,-76.582,"NC","020702","200030000",""
"NCDMF",,45,"Atherinopsidae","Menidia beryllina","163S, RAILROAD BR. TO HWY. 32 NORTHSIDE","",36.003,-76.525,"NC","020702","200050000",""
"NCDMF",,17,"Atherinopsidae","Menidia beryllina","46S, ROANOKE R. TO US17 BR.","",36.043,-76.705,"NC","020702","200020000",""
"NCDMF",,285,"Atherinopsidae","Menidia beryllina","49S, EDENTON BAY","",36.045,-76.603,"NC","020702","207000000",""
"NCDMF",,35,"Atherinopsidae","Menidia beryllina","128S, BATCHELOR BAY","",35.972,-76.708,"NC","020708","209000000",""
"NCDMF",,77,"Atherinopsidae","Menidia beryllina","129S, ROANOKE R. TO RAILROAD BR.","",35.936,-76.608,"NC","020708","200040000",""
"NCDMF",,38,"Atherinopsidae","Menidia beryllina","139S, ROANOKE R. TO US17 BR.","",36.003,-76.685,"NC","020708","200020000",""
"NCDMF",,35,"Atherinopsidae","Menidia beryllina","152S, ROANOKE R. TO RAILROAD BR.","",35.936,-76.644,"NC","020708","200040000",""
"NCDMF",,46,"Atherinopsidae","Menidia beryllina","153S, EDENTON BAY TO RAILROAD BR.","",36.012,-76.582,"NC","020708","200030000",""
"NCDMF",,155,"Atherinopsidae","Menidia beryllina","163S, RAILROAD BR. TO HWY. 32 NORTHSIDE","",36.003,-76.525,"NC","020708","200050000",""
"NCDMF",,96,"Atherinopsidae","Menidia beryllina","46S, ROANOKE R. TO US17 BR.","",36.043,-76.705,"NC","020708","200020000",""
"NCDMF",,138,"Atherinopsidae","Menidia beryllina","49S, EDENTON BAY","",36.045,-76.603,"NC","020708","207000000",""
"NCDMF",,2,"Atherinopsidae","Menidia beryllina","NE43, SMITH CREEK TO LANE FERRY","",34.368,-77.932,"NC","020708","1902030100",""
"NCDMF",,4,"Atherinopsidae","Menidia beryllina","139, ROANOKE R. TO US17 BR.","",35.992,-76.675,"NC","020715","200020000",""
"NCDMF",,35,"Atherinopsidae","Menidia beryllina","149, RAILROAD BR. TO HWY. 32 NORTHSIDE","",36.003,-76.525,"NC","020715","200050000",""
"NCDMF",,11,"Atherinopsidae","Menidia beryllina","153, EDENTON BAY TO RAILROAD BR.","",36.014,-76.591,"NC","020715","200030000",""
"NCDMF",,4,"Atherinopsidae","Menidia beryllina","126S, DRUMMOND PT. TO HARVEY PT.","",36.088,-76.341,"NC","020716","200090000",""
"NCDMF",,128,"Atherinopsidae","Menidia beryllina","127S, HWY.32 TO DRUMMOND PT.","",36.007,-76.513,"NC","020716","200070000",""
"NCDMF",,15,"Atherinopsidae","Menidia beryllina","130S, HWY.32 TO LAUREL PT.","",35.96,-76.489,"NC","020716","200080000",""
"NCDMF",,5,"Atherinopsidae","Menidia beryllina","47S, MT GLD L./HARR.L.-COLER./CHOW.B.","",36.111,-76.737,"NC","020716","208000200",""
"NCDMF",,62,"Atherinopsidae","Menidia beryllina","56S, COLER./CHOW.B./N.HOLIDAY IS.","",36.228,-76.706,"NC","020716","208000300",""
"NCDMF",,11,"Atherinopsidae","Menidia beryllina","UCF6, CAPE FEAR RIVER, WILMINGTON AND ABOVE","",34.404,-78.272,"NC","020716","1902000000",""
"NCDMF",,210,"Atherinopsidae","Menidia beryllina","39S, YEOPIM RIVER","",36.08,-76.411,"NC","020718","206000000",""
"NCDMF",,185,"Atherinopsidae","Menidia beryllina","84S, SCUPPERNONG RIVER","",35.94,-76.298,"NC","020718","213010000",""
"NCDMF",,17,"Atherinopsidae","Menidia beryllina","85S, BULL BAY","",35.939,-76.334,"NC","020718","213000000",""
"NCDMF",,7,"Atherinopsidae","Menidia beryllina","137, HWY.32 TO DRUMMOND PT.","",36.014,-76.46,"NC","020801","200070000",""
"NCDMF",,1,"Atherinopsidae","Menidia beryllina","139, ROANOKE R. TO US17 BR.","",35.992,-76.675,"NC","020801","200020000",""
"NCDMF",,8,"Atherinopsidae","Menidia beryllina","149, RAILROAD BR. TO HWY. 32 NORTHSIDE","",36.003,-76.525,"NC","020801","200050000",""
"NCDMF",,132,"Atherinopsidae","Menidia beryllina","153, EDENTON BAY TO RAILROAD BR.","",36.014,-76.591,"NC","020801","200030000",""
"NCDMF",,75,"Atherinopsidae","Menidia beryllina","47S, MT GLD L./HARR.L.-COLER./CHOW.B.","",36.111,-76.737,"NC","020807","208000200",""
"NCDMF",,35,"Atherinopsidae","Menidia beryllina","48S, MOUTH BARNES CK-HWY 158/13 BR.","",36.39,-76.91,"NC","020807","208000500",""
"NCDMF",,1375,"Atherinopsidae","Menidia beryllina","127S, HWY.32 TO DRUMMOND PT.","",36.007,-76.513,"NC","020809","200070000",""
"NCDMF",,6,"Atherinopsidae","Menidia beryllina","129S, ROANOKE R. TO RAILROAD BR.","",35.936,-76.608,"NC","020809","200040000",""
"NCDMF",,97,"Atherinopsidae","Menidia beryllina","130S, HWY.32 TO LAUREL PT.","",35.96,-76.489,"NC","020809","200080000",""
"NCDMF",,54,"Atherinopsidae","Menidia beryllina","163S, RAILROAD BR. TO HWY. 32 NORTHSIDE","",36.003,-76.525,"NC","020809","200050000",""
"NCDMF",,47,"Atherinopsidae","Menidia beryllina","49S, EDENTON BAY","",36.045,-76.603,"NC","020809","207000000",""
"NCDMF",,16,"Atherinopsidae","Menidia beryllina","128S, BATCHELOR BAY","",35.972,-76.708,"NC","020813","209000000",""
"NCDMF",,15,"Atherinopsidae","Menidia beryllina","137, HWY.32 TO DRUMMOND PT.","",36.014,-76.46,"NC","020813","200070000",""
"NCDMF",,30,"Atherinopsidae","Menidia beryllina","139, ROANOKE R. TO US17 BR.","",35.992,-76.675,"NC","020813","200020000",""
"NCDMF",,7,"Atherinopsidae","Menidia beryllina","139S, ROANOKE R. TO US17 BR.","",36.003,-76.685,"NC","020813","200020000",""
"NCDMF",,54,"Atherinopsidae","Menidia beryllina","149, RAILROAD BR. TO HWY. 32 NORTHSIDE","",36.003,-76.525,"NC","020813","200050000",""
"NCDMF",,33,"Atherinopsidae","Menidia beryllina","152S, ROANOKE R. TO RAILROAD BR.","",35.936,-76.644,"NC","020813","200040000",""
"NCDMF",,77,"Atherinopsidae","Menidia beryllina","39S, YEOPIM RIVER","",36.08,-76.411,"NC","020813","206000000",""
"NCDMF",,13,"Atherinopsidae","Menidia beryllina","84S, SCUPPERNONG RIVER","",35.94,-76.298,"NC","020813","213010000",""
"NCDMF",,44,"Atherinopsidae","Menidia beryllina","85S, BULL BAY","",35.939,-76.334,"NC","020813","213000000",""
"NCDMF",,3,"Atherinopsidae","Menidia beryllina","UCF5, CAPE FEAR RIVER, WILMINGTON AND ABOVE","",34.367,-78.14,"NC","020819","1902000000",""
"NCDMF",,64,"Atherinopsidae","Menidia beryllina","126S, DRUMMOND PT. TO HARVEY PT.","",36.088,-76.341,"NC","020827","200090000",""
"NCDMF",,62,"Atherinopsidae","Menidia beryllina","NE45, SMITH CREEK TO LANE FERRY","",34.43889,-77.82917,"NC","020829","1902030100",""
"NCDMF",,2,"Atherinopsidae","Menidia beryllina","UCF7, BELOW HWY 210","",34.37333,-78.07833,"NC","020829","1902040100",""
"NCDMF",,13,"Atherinopsidae","Menidia beryllina","151, RAILROAD BR. TO HWY. 32 SOUTHSIDE","",35.95,-76.518,"NC","020830","200060000",""
"NCDMF",,16,"Atherinopsidae","Menidia beryllina","152, ROANOKE R. TO RAILROAD BR.","",35.942,-76.641,"NC","020830","200040000",""
"NCDMF",,57,"Atherinopsidae","Menidia beryllina","126S, DRUMMOND PT. TO HARVEY PT.","",36.088,-76.341,"NC","020909","200090000",""
"NCDMF",,15,"Atherinopsidae","Menidia beryllina","127S, HWY.32 TO DRUMMOND PT.","",36.007,-76.513,"NC","020909","200070000",""
"NCDMF",,22,"Atherinopsidae","Menidia beryllina","130S, HWY.32 TO LAUREL PT.","",35.96,-76.489,"NC","020909","200080000",""
"NCDMF",,13,"Atherinopsidae","Menidia beryllina","47S, MT GLD L./HARR.L.-COLER./CHOW.B.","",36.111,-76.737,"NC","020909","208000200",""
"NCDMF",,83,"Atherinopsidae","Menidia beryllina","56S, COLER./CHOW.B./N.HOLIDAY IS.","",36.228,-76.706,"NC","020909","208000300",""
"NCDMF",,4,"Atherinopsidae","Menidia beryllina","153, EDENTON BAY TO RAILROAD BR.","",36.014,-76.591,"NC","020913","200030000",""
"NCDMF",,66,"Atherinopsidae","Menidia beryllina","14S, PASQUOTANK RIVER","",36.242,-76.082,"NC","020916","202000000",""
"NCDMF",,73,"Atherinopsidae","Menidia beryllina","15S, PASQUOTANK RIVER","",36.232,-76.125,"NC","020916","202000000",""
"NCDMF",,1,"Atherinopsidae","Menidia beryllina","108S, CROATAN SOUND","",35.925,-75.724,"NC","020917","300000000",""
"NCDMF",,48,"Atherinopsidae","Menidia beryllina","109S, ROANOKE SOUND","",35.937,-75.7,"NC","020917","400000000",""
"NCDMF",,150,"Atherinopsidae","Menidia beryllina","27S, HARVEY PT. TO LITTLE R.","",36.103,-76.2,"NC","020917","200110000",""
"NCDMF",,17,"Atherinopsidae","Menidia beryllina","32S, LITTLE RIVER","",36.164,-76.257,"NC","020917","204000000",""
"NCDMF",,24,"Atherinopsidae","Menidia beryllina","33S, PERQUIMANS RIVER","",36.12,-76.346,"NC","020917","205000000",""
"NCDMF",,48,"Atherinopsidae","Menidia beryllina","34S, HARVEY PT. TO LITTLE R.","",36.107,-76.258,"NC","020917","200110000",""
"NCDMF",,7,"Atherinopsidae","Menidia beryllina","38S, PERQUIMANS RIVER","",36.186,-76.458,"NC","020917","205000000",""
"NCDMF",,138,"Atherinopsidae","Menidia beryllina","39S, YEOPIM RIVER","",36.08,-76.411,"NC","020917","206000000",""
"NCDMF",,48,"Atherinopsidae","Menidia beryllina","84S, SCUPPERNONG RIVER","",35.94,-76.298,"NC","020917","213010000",""
"NCDMF",,8,"Atherinopsidae","Menidia beryllina","85S, BULL BAY","",35.939,-76.334,"NC","020917","213000000",""
"NCDMF",,108,"Atherinopsidae","Menidia beryllina","107S, CROATAN SOUND","",35.884,-75.749,"NC","020918","300000000",""
"NCDMF",,54,"Atherinopsidae","Menidia beryllina","131S, LONG SHOAL PT. TO NED BEES PT.","",35.972,-75.921,"NC","020918","200160000",""
"NCDMF",,104,"Atherinopsidae","Menidia beryllina","147S, NED BEES PT. TO CAROON PT.","",35.96,-75.814,"NC","020918","200180000",""
"NCDMF",,116,"Atherinopsidae","Menidia beryllina","128S, BATCHELOR BAY","",35.972,-76.708,"NC","020920","209000000",""
"NCDMF",,42,"Atherinopsidae","Menidia beryllina","129S, ROANOKE R. TO RAILROAD BR.","",35.936,-76.608,"NC","020920","200040000",""
"NCDMF",,212,"Atherinopsidae","Menidia beryllina","139S, ROANOKE R. TO US17 BR.","",36.003,-76.685,"NC","020920","200020000",""
"NCDMF",,12,"Atherinopsidae","Menidia beryllina","46S, ROANOKE R. TO US17 BR.","",36.043,-76.705,"NC","020920","200020000",""
"NCDMF",,22,"Atherinopsidae","Menidia beryllina","49S, EDENTON BAY","",36.045,-76.603,"NC","020920","207000000",""
"NCDMF",,1,"Atherinopsidae","Menidia beryllina","149, RAILROAD BR. TO HWY. 32 NORTHSIDE","",36.003,-76.525,"NC","021007","200050000",""
"NCDMF",,3,"Atherinopsidae","Menidia beryllina","NE44, SMITH CREEK TO LANE FERRY","",34.37583,-77.86389,"NC","021007","1902030100",""
"NCDMF",,37,"Atherinopsidae","Menidia beryllina","126S, DRUMMOND PT. TO HARVEY PT.","",36.088,-76.341,"NC","021009","200090000",""
"NCDMF",,11,"Atherinopsidae","Menidia beryllina","127S, HWY.32 TO DRUMMOND PT.","",36.007,-76.513,"NC","021009","200070000",""
"NCDMF",,27,"Atherinopsidae","Menidia beryllina","130S, HWY.32 TO LAUREL PT.","",35.96,-76.489,"NC","021009","200080000",""
"NCDMF",,179,"Atherinopsidae","Menidia beryllina","47S, MT GLD L./HARR.L.-COLER./CHOW.B.","",36.111,-76.737,"NC","021009","208000200",""
"NCDMF",,2,"Atherinopsidae","Menidia beryllina","48S, MOUTH BARNES CK-HWY 158/13 BR.","",36.39,-76.91,"NC","021009","208000500",""
"NCDMF",,37,"Atherinopsidae","Menidia beryllina","56S, COLER./CHOW.B./N.HOLIDAY IS.","",36.228,-76.706,"NC","021009","208000300",""
"NCDMF",,20,"Atherinopsidae","Menidia beryllina","128S, BATCHELOR BAY","",35.972,-76.708,"NC","021023","209000000",""
"NCDMF",,74,"Atherinopsidae","Menidia beryllina","129S, ROANOKE R. TO RAILROAD BR.","",35.936,-76.608,"NC","021023","200040000",""
"NCDMF",,137,"Atherinopsidae","Menidia beryllina","139S, ROANOKE R. TO US17 BR.","",36.003,-76.685,"NC","021023","200020000",""
"NCDMF",,14,"Atherinopsidae","Menidia beryllina","152S, ROANOKE R. TO RAILROAD BR.","",35.936,-76.644,"NC","021023","200040000",""
"NCDMF",,1500,"Atherinopsidae","Menidia beryllina","163S, RAILROAD BR. TO HWY. 32 NORTHSIDE","",36.003,-76.525,"NC","021023","200050000",""
"NCDMF",,300,"Atherinopsidae","Menidia beryllina","39S, YEOPIM RIVER","",36.08,-76.411,"NC","021023","206000000",""
"NCDMF",,2,"Atherinopsidae","Menidia beryllina","46S, ROANOKE R. TO US17 BR.","",36.043,-76.705,"NC","021023","200020000",""
"NCDMF",,750,"Atherinopsidae","Menidia beryllina","49S, EDENTON BAY","",36.045,-76.603,"NC","021023","207000000",""
"NCDMF",,278,"Atherinopsidae","Menidia beryllina","84S, SCUPPERNONG RIVER","",35.94,-76.298,"NC","021023","213010000",""
"NCDMF",,42,"Atherinopsidae","Menidia beryllina","85S, BULL BAY","",35.939,-76.334,"NC","021023","213000000",""
"NCDMF",,29,"Atherinopsidae","Menidia beryllina","UCF5, CAPE FEAR RIVER, WILMINGTON AND ABOVE","",34.367,-78.14,"NC","021117","1902000000",""
"NCDMF",,8,"Atherinopsidae","Menidia beryllina","NE45, SMITH CREEK TO LANE FERRY","",34.43889,-77.82917,"NC","021125","1902030100",""
"NCDMF",,44,"Atherinopsidae","Menidia beryllina","UCF7, BELOW HWY 210","",34.37333,-78.07833,"NC","021126","1902040100",""
"NCDMF",,2,"Atherinopsidae","Menidia beryllina","UCF7, BELOW HWY 210","",34.37333,-78.07833,"NC","021219","1902040100",""
"NCDMF",,1,"Atherinopsidae","Menidia beryllina","NE42, SMITH CREEK TO LANE FERRY","",34.332,-77.98,"NC","030108","1902030100",""
"NCDMF",,4,"Atherinopsidae","Menidia beryllina","CF11, BRUNSWICK RIVER","",34.219,-77.979,"NC","030109","1902020000",""
"NCDMF",,2,"Atherinopsidae","Menidia beryllina","UCF5, CAPE FEAR RIVER, WILMINGTON AND ABOVE","",34.367,-78.14,"NC","030212","1902000000",""
"NCDMF",,16,"Atherinopsidae","Menidia beryllina","CFR1, CAPE FEAR RIVER, WILMINGTON AND ABOVE","",34.252,-77.968,"NC","030213","1902000000",""
"NCDMF",,108,"Atherinopsidae","Menidia beryllina","CF12, NORTH OF SNOWS CUT","",34.16167,-77.95583,"NC","030307","1901030200",""
"NCDMF",,29,"Atherinopsidae","Menidia beryllina","NE42, SMITH CREEK TO LANE FERRY","",34.332,-77.98,"NC","030312","1902030100",""
"NCDMF",,1570,"Atherinopsidae","Menidia beryllina","CF11, BRUNSWICK RIVER","",34.219,-77.979,"NC","030403","1902020000",""
"NCDMF",,2,"Atherinopsidae","Menidia beryllina","CF12, NORTH OF SNOWS CUT","",34.16167,-77.95583,"NC","030403","1901030200",""
"NCDMF",,13,"Atherinopsidae","Menidia beryllina","CF11, BRUNSWICK RIVER","",34.219,-77.979,"NC","030505","1902020000",""
"NCDMF",,2,"Atherinopsidae","Menidia beryllina","CF12, NORTH OF SNOWS CUT","",34.16167,-77.95583,"NC","030505","1901030200",""
"NCDMF",,1,"Atherinopsidae","Menidia beryllina","PAR20, EAST FORK","",35.432,-76.654,"NC","030505","528070200",""
"NCDMF",,5,"Atherinopsidae","Menidia beryllina","PAR59, FRYINGPAN CREEK","",35.414,-76.654,"NC","030505","528070100",""
"NCDMF",,1,"Atherinopsidae","Menidia beryllina","UCF3, MOUTH BLACK RIVER","",34.341,-78.046,"NC","030507","1902040104",""
"NCDMF",,1,"Atherinopsidae","Menidia beryllina","G16, BIG CREEK","",34.95,-76.591,"NC","030508","535220200",""
"NCDMF",,1,"Atherinopsidae","Menidia beryllina","G24, HEADWATERS","",34.888,-76.523,"NC","030508","535220500",""
"NCDMF",,2,"Atherinopsidae","Menidia beryllina","PAR24, FLANNIGAN GUT","",35.336,-76.709,"NC","030508","528371201",""
"NCDMF",,3,"Atherinopsidae","Menidia beryllina","PAR26, LONG CREEK","",35.332,-76.734,"NC","030508","528371100",""
"NCDMF",,1,"Atherinopsidae","Menidia beryllina","PAR27, TOOLEY CREEK","",35.347,-76.749,"NC","030508","528370100",""
"NCDMF",,1,"Atherinopsidae","Menidia beryllina","PAR31, JACOBS CREEK","",35.336,-76.765,"NC","030508","528370200",""
"NCDMF",,14,"Atherinopsidae","Menidia beryllina","PAR57, LITTLE CREEK","",35.313,-76.764,"NC","030508","528370900",""
"NCDMF",,1,"Atherinopsidae","Menidia beryllina","PAR63, SHORT CREEK","",35.334,-76.743,"NC","030508","528371000",""
"NCDMF",,22,"Atherinopsidae","Menidia beryllina","A2, BETTY CREEK(DOG CREEK)","",35.31783,-76.63667,"NC","030512","528400201",""
"NCDMF",,4,"Atherinopsidae","Menidia beryllina","B40, UPPER JONES BAY CREEK","",35.24023,-76.5918,"NC","030512","533050000",""
"NCDMF",,2,"Atherinopsidae","Menidia beryllina","B43, DITCH CREEK","",35.21447,-76.572,"NC","030512","533040000",""
"NCDMF",,5,"Atherinopsidae","Menidia beryllina","H8, MORTONS MILL POND","",34.864,-76.769,"NC","030512","535170200",""
"NCDMF",,1,"Atherinopsidae","Menidia beryllina","NR10, SLOCUM CREEK","",34.954,-76.895,"NC","030512","535150000",""
"NCDMF",,1,"Atherinopsidae","Menidia beryllina","NR11, HANCOCK CREEK","",34.935,-76.852,"NC","030512","535160000",""
"NCDMF",,1,"Atherinopsidae","Menidia beryllina","E10, UPPER BROAD CREEK","",35.08245,-76.6578,"NC","030513","535030600",""
"NCDMF",,4,"Atherinopsidae","Menidia beryllina","E15, GREEN CREEK","",35.10932,-76.58575,"NC","030513","535031100",""
"NCDMF",,2,"Atherinopsidae","Menidia beryllina","E23, GIDEON CREEK","",35.08483,-76.6332,"NC","030513","535030500",""
"NCDMF",,5,"Atherinopsidae","Menidia beryllina","E31, SPICE CREEK","",35.1083,-76.64045,"NC","030513","535030701",""
"NCDMF",,5,"Atherinopsidae","Menidia beryllina","E36, COFFEE CREEK","",35.0947,-76.62733,"NC","030513","535031200",""
"NCDMF",,7,"Atherinopsidae","Menidia beryllina","E9, MILL CREEK","",35.08778,-76.60095,"NC","030513","535030200",""
"NCDMF",,3,"Atherinopsidae","Menidia beryllina","PUR3, BRADLEY GUT","",35.404,-76.596,"NC","030513","528063803",""
"NCDMF",,5,"Atherinopsidae","Menidia beryllina","PUR65, SATTERTHWAITE CREEK","",35.426,-76.609,"NC","030513","528063703",""
"NCDMF",,3,"Atherinopsidae","Menidia beryllina","S64, PARRIS CREEK","",35.08608,-76.60637,"NC","030513","535030300",""
"NCDMF",,4,"Atherinopsidae","Menidia beryllina","S68, SWAN CREEK","",35.11248,-76.5801,"NC","030513","535020000",""
"NCDMF",,1,"Atherinopsidae","Menidia beryllina","CN6, DUMP CREEK","",35.2019,-76.55758,"NC","030514","534020000",""
"NCDMF",,4,"Atherinopsidae","Menidia beryllina","RB1, UNNAMED WESTERN TRIBUTARY","",35.442,-76.431,"NC","030514","526070000",""
"NCDMF",,3,"Atherinopsidae","Menidia beryllina","RB3, TOOLEY CREEK","",35.425,-76.434,"NC","030514","526050000",""
"NCDMF",,3,"Atherinopsidae","Menidia beryllina","SB10, CHELLYBELLY CREEK","",35.409,-76.482,"NC","030514","527030000",""
"NCDMF",,1,"Atherinopsidae","Menidia beryllina","SB9, SPENCER BAY","",35.402,-76.486,"NC","030514","527000000",""
"NCDMF",,5,"Atherinopsidae","Menidia beryllina","PUR7, WOOD CREEK","",35.481,-76.541,"NC","030515","528060209",""
"NCDMF",,3,"Atherinopsidae","Menidia beryllina","CS2, SIMPSON CREEK","",35.14762,-76.63605,"NC","030520","534200200",""
"NCDMF",,1,"Atherinopsidae","Menidia beryllina","D03C, LONG CREEK","",35.1882,-76.64417,"NC","030520","534100100",""
"NCDMF",,2,"Atherinopsidae","Menidia beryllina","D5, BRYAN CREEK","",35.13537,-76.5963,"NC","030520","534210204",""
"NCDMF",,5,"Atherinopsidae","Menidia beryllina","SQB18, COWPEN CREEK","",35.392,-76.352,"NC","030520","522050000",""
"NCDMF",,4,"Atherinopsidae","Menidia beryllina","FC5, WAUPOPIN CREEK","",35.523,-75.978,"NC","030521","506010000",""
"NCDMF",,3,"Atherinopsidae","Menidia beryllina","UCF6, CAPE FEAR RIVER, WILMINGTON AND ABOVE","",34.404,-78.272,"NC","030521","1902000000",""
"NCDMF",,2,"Atherinopsidae","Menidia beryllina","F1, ORCHARD CREEK","",35.06353,-76.64548,"NC","030522","535050000",""
"NCDMF",,1,"Atherinopsidae","Menidia beryllina","F10, SMITH CREEK","",35.0468,-76.70997,"NC","030522","535080200",""
"NCDMF",,4,"Atherinopsidae","Menidia beryllina","F12, KERSHAW CREEK","",35.03845,-76.72517,"NC","030522","535080300",""
"NCDMF",,2,"Atherinopsidae","Menidia beryllina","F42, GREENS CREEK","",35.02175,-76.70723,"NC","030522","535080000",""
"NCDMF",,56,"Atherinopsidae","Menidia beryllina","F25, DAWSON CREEK","",35.004,-76.75397,"NC","030528","535090000",""
"NCDMF",,10,"Atherinopsidae","Menidia beryllina","NR1, NEW RIVER","",34.756,-77.436,"NC","030528","1201030100",""
"NCDMF",,3,"Atherinopsidae","Menidia beryllina","NR2, NEW RIVER","",34.738,-77.426,"NC","030528","1201030100",""
"NCDMF",,1,"Atherinopsidae","Menidia beryllina","OI16, HOWARD REEF","",35.136,-75.908,"NC","030528","500300201",""
"NCDMF",,1,"Atherinopsidae","Menidia beryllina","HAT11, SANDY BAY","",35.217,-75.68,"NC","030529","500300101",""
"NCDMF",,8,"Atherinopsidae","Menidia beryllina","NE45, SMITH CREEK TO LANE FERRY","",34.43889,-77.82917,"NC","030605","1902030100",""
"NCDMF",,10,"Atherinopsidae","Menidia beryllina","PAR8, BATH CREEK","",35.454,-76.818,"NC","030605","528120000",""
"NCDMF",,5,"Atherinopsidae","Menidia beryllina","PUR3, BRADLEY GUT","",35.404,-76.596,"NC","030606","528063803",""
"NCDMF",,3,"Atherinopsidae","Menidia beryllina","PUR65, SATTERTHWAITE CREEK","",35.426,-76.609,"NC","030606","528063703",""
"NCDMF",,16,"Atherinopsidae","Menidia beryllina","126S, DRUMMOND PT. TO HARVEY PT.","",36.088,-76.341,"NC","030609","200090000",""
"NCDMF",,75,"Atherinopsidae","Menidia beryllina","127S, HWY.32 TO DRUMMOND PT.","",36.007,-76.513,"NC","030609","200070000",""
"NCDMF",,16,"Atherinopsidae","Menidia beryllina","128S, BATCHELOR BAY","",35.972,-76.708,"NC","030609","209000000",""
"NCDMF",,17,"Atherinopsidae","Menidia beryllina","129S, ROANOKE R. TO RAILROAD BR.","",35.936,-76.608,"NC","030609","200040000",""
"NCDMF",,17,"Atherinopsidae","Menidia beryllina","130S, HWY.32 TO LAUREL PT.","",35.96,-76.489,"NC","030609","200080000",""
"NCDMF",,10,"Atherinopsidae","Menidia beryllina","153S, EDENTON BAY TO RAILROAD BR.","",36.012,-76.582,"NC","030609","200030000",""
"NCDMF",,3,"Atherinopsidae","Menidia beryllina","162S, ROANOKE R. TO US17 BR.","",35.979,-76.694,"NC","030609","200020000",""
"NCDMF",,2,"Atherinopsidae","Menidia beryllina","163S, RAILROAD BR. TO HWY. 32 NORTHSIDE","",36.003,-76.525,"NC","030609","200050000",""
"NCDMF",,35,"Atherinopsidae","Menidia beryllina","46S, ROANOKE R. TO US17 BR.","",36.043,-76.705,"NC","030609","200020000",""
"NCDMF",,3,"Atherinopsidae","Menidia beryllina","49S, EDENTON BAY","",36.045,-76.603,"NC","030609","207000000",""
"NCDMF",,9,"Atherinopsidae","Menidia beryllina","A2, BETTY CREEK(DOG CREEK)","",35.31783,-76.63667,"NC","030610","528400201",""
"NCDMF",,21,"Atherinopsidae","Menidia beryllina","S84, LITTLE OYSTER CREEK (BLACK DUCK CREEK)","",35.2476,-76.50072,"NC","030610","532010000",""
"NCDMF",,6,"Atherinopsidae","Menidia beryllina","A12, MALLARD CREEK","",35.2996,-76.60137,"NC","030611","528400702",""
"NCDMF",,2,"Atherinopsidae","Menidia beryllina","A25, CAMPBELL CREEK","",35.28672,-76.64753,"NC","030611","528400500",""
"NCDMF",,6,"Atherinopsidae","Menidia beryllina","CN14, CHAPEL CREEK","",35.15543,-76.71405,"NC","030611","534130000",""
"NCDMF",,11,"Atherinopsidae","Menidia beryllina","CN6, DUMP CREEK","",35.2019,-76.55758,"NC","030611","534020000",""
"NCDMF",,1,"Atherinopsidae","Menidia beryllina","D5, BRYAN CREEK","",35.13537,-76.5963,"NC","030611","534210204",""
"NCDMF",,14,"Atherinopsidae","Menidia beryllina","PAR24, FLANNIGAN GUT","",35.336,-76.709,"NC","030611","528371201",""
"NCDMF",,19,"Atherinopsidae","Menidia beryllina","PAR26, LONG CREEK","",35.332,-76.734,"NC","030611","528371100",""
"NCDMF",,10,"Atherinopsidae","Menidia beryllina","PAR27, TOOLEY CREEK","",35.347,-76.749,"NC","030611","528370100",""
"NCDMF",,19,"Atherinopsidae","Menidia beryllina","PAR30, JACKS CREEK","",35.327,-76.784,"NC","030611","528370300",""
"NCDMF",,16,"Atherinopsidae","Menidia beryllina","PAR31, JACOBS CREEK","",35.336,-76.765,"NC","030611","528370200",""
"NCDMF",,10,"Atherinopsidae","Menidia beryllina","PAR56, WHITEHURST CREEK","",35.32,-76.795,"NC","030611","528370400",""
"NCDMF",,17,"Atherinopsidae","Menidia beryllina","PAR57, LITTLE CREEK","",35.313,-76.764,"NC","030611","528370900",""
"NCDMF",,14,"Atherinopsidae","Menidia beryllina","PAR63, SHORT CREEK","",35.334,-76.743,"NC","030611","528371000",""
"NCDMF",,4,"Atherinopsidae","Menidia beryllina","PAR64, BAILEY CREEK","",35.311,-76.788,"NC","030611","528370500",""
"NCDMF",,187,"Atherinopsidae","Menidia beryllina","39S, YEOPIM RIVER","",36.08,-76.411,"NC","030612","206000000",""
"NCDMF",,22,"Atherinopsidae","Menidia beryllina","84S, SCUPPERNONG RIVER","",35.94,-76.298,"NC","030612","213010000",""
"NCDMF",,126,"Atherinopsidae","Menidia beryllina","85S, BULL BAY","",35.939,-76.334,"NC","030612","213000000",""
"NCDMF",,41,"Atherinopsidae","Menidia beryllina","E10, UPPER BROAD CREEK","",35.08245,-76.6578,"NC","030612","535030600",""
"NCDMF",,13,"Atherinopsidae","Menidia beryllina","E31, SPICE CREEK","",35.1083,-76.64045,"NC","030612","535030701",""
"NCDMF",,2,"Atherinopsidae","Menidia beryllina","E36, COFFEE CREEK","",35.0947,-76.62733,"NC","030612","535031200",""
"NCDMF",,1,"Atherinopsidae","Menidia beryllina","SB5, UNNAMED NORTH TRIBUTARY","",35.422,-76.446,"NC","030612","527020400",""
"NCDMF",,5,"Atherinopsidae","Menidia beryllina","128S, BATCHELOR BAY","",35.972,-76.708,"NC","030616","209000000",""
"NCDMF",,1,"Atherinopsidae","Menidia beryllina","139S, ROANOKE R. TO US17 BR.","",36.003,-76.685,"NC","030616","200020000",""
"NCDMF",,15,"Atherinopsidae","Menidia beryllina","152S, ROANOKE R. TO RAILROAD BR.","",35.936,-76.644,"NC","030616","200040000",""
"NCDMF",,4,"Atherinopsidae","Menidia beryllina","153S, EDENTON BAY TO RAILROAD BR.","",36.012,-76.582,"NC","030616","200030000",""
"NCDMF",,44,"Atherinopsidae","Menidia beryllina","162S, ROANOKE R. TO US17 BR.","",35.979,-76.694,"NC","030616","200020000",""
"NCDMF",,25,"Atherinopsidae","Menidia beryllina","163S, RAILROAD BR. TO HWY. 32 NORTHSIDE","",36.003,-76.525,"NC","030616","200050000",""
"NCDMF",,6,"Atherinopsidae","Menidia beryllina","46S, ROANOKE R. TO US17 BR.","",36.043,-76.705,"NC","030616","200020000",""
"NCDMF",,2,"Atherinopsidae","Menidia beryllina","49S, EDENTON BAY","",36.045,-76.603,"NC","030616","207000000",""
"NCDMF",,1,"Atherinopsidae","Menidia beryllina","F1, ORCHARD CREEK","",35.06353,-76.64548,"NC","030616","535050000",""
"NCDMF",,9,"Atherinopsidae","Menidia beryllina","F42, GREENS CREEK","",35.02175,-76.70723,"NC","030616","535080000",""
"NCDMF",,3,"Atherinopsidae","Menidia beryllina","RS2, ROANOKE SOUND","",35.843,-75.603,"NC","030618","400000000",""
"NCDMF",,7,"Atherinopsidae","Menidia beryllina","F25, DAWSON CREEK","",35.004,-76.75397,"NC","030619","535090000",""
"NCDMF",,6,"Atherinopsidae","Menidia beryllina","NR1, NEW RIVER","",34.756,-77.436,"NC","030620","1201030100",""
"NCDMF",,2,"Atherinopsidae","Menidia beryllina","NR2, NEW RIVER","",34.738,-77.426,"NC","030620","1201030100",""
"NCDMF",,88,"Atherinopsidae","Menidia beryllina","129S, ROANOKE R. TO RAILROAD BR.","",35.936,-76.608,"NC","030623","200040000",""
"NCDMF",,10,"Atherinopsidae","Menidia beryllina","139S, ROANOKE R. TO US17 BR.","",36.003,-76.685,"NC","030623","200020000",""
"NCDMF",,51,"Atherinopsidae","Menidia beryllina","153S, EDENTON BAY TO RAILROAD BR.","",36.012,-76.582,"NC","030623","200030000",""
"NCDMF",,10,"Atherinopsidae","Menidia beryllina","162S, ROANOKE R. TO US17 BR.","",35.979,-76.694,"NC","030623","200020000",""
"NCDMF",,21,"Atherinopsidae","Menidia beryllina","163S, RAILROAD BR. TO HWY. 32 NORTHSIDE","",36.003,-76.525,"NC","030623","200050000",""
"NCDMF",,11,"Atherinopsidae","Menidia beryllina","46S, ROANOKE R. TO US17 BR.","",36.043,-76.705,"NC","030623","200020000",""
"NCDMF",,7,"Atherinopsidae","Menidia beryllina","49S, EDENTON BAY","",36.045,-76.603,"NC","030623","207000000",""
"NCDMF",,1,"Atherinopsidae","Menidia beryllina","128S, BATCHELOR BAY","",35.972,-76.708,"NC","030630","209000000",""
"NCDMF",,15,"Atherinopsidae","Menidia beryllina","129S, ROANOKE R. TO RAILROAD BR.","",35.936,-76.608,"NC","030630","200040000",""
"NCDMF",,73,"Atherinopsidae","Menidia beryllina","153S, EDENTON BAY TO RAILROAD BR.","",36.012,-76.582,"NC","030630","200030000",""
"NCDMF",,11,"Atherinopsidae","Menidia beryllina","162S, ROANOKE R. TO US17 BR.","",35.979,-76.694,"NC","030630","200020000",""
"NCDMF",,48,"Atherinopsidae","Menidia beryllina","163S, RAILROAD BR. TO HWY. 32 NORTHSIDE","",36.003,-76.525,"NC","030630","200050000",""
"NCDMF",,6,"Atherinopsidae","Menidia beryllina","126S, DRUMMOND PT. TO HARVEY PT.","",36.088,-76.341,"NC","030708","200090000",""
"NCDMF",,89,"Atherinopsidae","Menidia beryllina","127S, HWY.32 TO DRUMMOND PT.","",36.007,-76.513,"NC","030708","200070000",""
"NCDMF",,6,"Atherinopsidae","Menidia beryllina","128S, BATCHELOR BAY","",35.972,-76.708,"NC","030708","209000000",""
"NCDMF",,5,"Atherinopsidae","Menidia beryllina","139S, ROANOKE R. TO US17 BR.","",36.003,-76.685,"NC","030708","200020000",""
"NCDMF",,2,"Atherinopsidae","Menidia beryllina","152S, ROANOKE R. TO RAILROAD BR.","",35.936,-76.644,"NC","030708","200040000",""
"NCDMF",,40,"Atherinopsidae","Menidia beryllina","153S, EDENTON BAY TO RAILROAD BR.","",36.012,-76.582,"NC","030708","200030000",""
"NCDMF",,22,"Atherinopsidae","Menidia beryllina","162S, ROANOKE R. TO US17 BR.","",35.979,-76.694,"NC","030708","200020000",""
"NCDMF",,4,"Atherinopsidae","Menidia beryllina","163S, RAILROAD BR. TO HWY. 32 NORTHSIDE","",36.003,-76.525,"NC","030708","200050000",""
"NCDMF",,1,"Atherinopsidae","Menidia beryllina","46S, ROANOKE R. TO US17 BR.","",36.043,-76.705,"NC","030708","200020000",""
"NCDMF",,11,"Atherinopsidae","Menidia beryllina","56S, COLER./CHOW.B./N.HOLIDAY IS.","",36.228,-76.706,"NC","030708","208000300",""
"NCDMF",,5,"Atherinopsidae","Menidia beryllina","CFR2, SMITH CREEK TO LANE FERRY","",34.26694,-77.94722,"NC","030711","1902030100",""
"NCDMF",,22,"Atherinopsidae","Menidia beryllina","153S, EDENTON BAY TO RAILROAD BR.","",36.012,-76.582,"NC","030716","200030000",""
"NCDMF",,11,"Atherinopsidae","Menidia beryllina","162S, ROANOKE R. TO US17 BR.","",35.979,-76.694,"NC","030716","200020000",""
"NCDMF",,53,"Atherinopsidae","Menidia beryllina","163S, RAILROAD BR. TO HWY. 32 NORTHSIDE","",36.003,-76.525,"NC","030716","200050000",""
"NCDMF",,4,"Atherinopsidae","Menidia beryllina","46S, ROANOKE R. TO US17 BR.","",36.043,-76.705,"NC","030716","200020000",""
"NCDMF",,6,"Atherinopsidae","Menidia beryllina","49S, EDENTON BAY","",36.045,-76.603,"NC","030716","207000000",""
"NCDMF",,32,"Atherinopsidae","Menidia beryllina","39S, YEOPIM RIVER","",36.08,-76.411,"NC","030717","206000000",""
"NCDMF",,23,"Atherinopsidae","Menidia beryllina","85S, BULL BAY","",35.939,-76.334,"NC","030717","213000000",""
"NCDMF",,5,"Atherinopsidae","Menidia beryllina","NE42, SMITH CREEK TO LANE FERRY","",34.33778,-77.98139,"NC","030717","1902030100",""
"NCDMF",,4,"Atherinopsidae","Menidia beryllina","UCF2, INDIAN CREEK","",34.28111,-78.00556,"NC","030718","1902010101",""
"NCDMF",,3,"Atherinopsidae","Menidia beryllina","UCF3, MOUTH BLACK RIVER","",34.33806,-78.04722,"NC","030718","1902040104",""
"NCDMF",,13,"Atherinopsidae","Menidia beryllina","CF11, BRUNSWICK RIVER","",34.23194,-77.98583,"NC","030725","1902020000",""
"NCDMF",,180,"Atherinopsidae","Menidia beryllina","39S, YEOPIM RIVER","",36.08,-76.411,"NC","030808","206000000",""
"NCDMF",,73,"Atherinopsidae","Menidia beryllina","84S, SCUPPERNONG RIVER","",35.94,-76.298,"NC","030808","213010000",""
"NCDMF",,115,"Atherinopsidae","Menidia beryllina","85S, BULL BAY","",35.939,-76.334,"NC","030808","213000000",""
"NCDMF",,11,"Atherinopsidae","Menidia beryllina","CF11, BRUNSWICK RIVER","",34.23194,-77.98583,"NC","030813","1902020000",""
"NCDMF",,7,"Atherinopsidae","Menidia beryllina","CFR1, CAPE FEAR RIVER, WILMINGTON AND ABOVE","",34.24944,-77.97333,"NC","030813","1902000000",""
"NCDMF",,29,"Atherinopsidae","Menidia beryllina","CFR2, SMITH CREEK TO LANE FERRY","",34.26694,-77.94722,"NC","030814","1902030100",""
"NCDMF",,1,"Atherinopsidae","Menidia beryllina","NE42, SMITH CREEK TO LANE FERRY","",34.33778,-77.98139,"NC","030814","1902030100",""
"NCDMF",,3,"Atherinopsidae","Menidia beryllina","UCF2, INDIAN CREEK","",34.28111,-78.00556,"NC","030815","1902010101",""
"NCDMF",,73,"Atherinopsidae","Menidia beryllina","130S, HWY.32 TO LAUREL PT.","",35.96,-76.489,"NC","030825","200080000",""
"NCDMF",,11,"Atherinopsidae","Menidia beryllina","47S, MT GLD L./HARR.L.-COLER./CHOW.B.","",36.111,-76.737,"NC","030825","208000200",""
"NCDMF",,2,"Atherinopsidae","Menidia beryllina","27S, HARVEY PT. TO LITTLE R.","",36.103,-76.2,"NC","030915","200110000",""
"NCDMF",,13,"Atherinopsidae","Menidia beryllina","32S, LITTLE RIVER","",36.164,-76.257,"NC","030915","204000000",""
"NCDMF",,63,"Atherinopsidae","Menidia beryllina","33S, PERQUIMANS RIVER","",36.12,-76.346,"NC","030915","205000000",""
"NCDMF",,34,"Atherinopsidae","Menidia beryllina","34S, HARVEY PT. TO LITTLE R.","",36.107,-76.258,"NC","030915","200110000",""
"NCDMF",,23,"Atherinopsidae","Menidia beryllina","38S, PERQUIMANS RIVER","",36.186,-76.458,"NC","030915","205000000",""
"NCDMF",,9,"Atherinopsidae","Menidia beryllina","84S, SCUPPERNONG RIVER","",35.94,-76.298,"NC","030915","213010000",""
"NCDMF",,14,"Atherinopsidae","Menidia beryllina","85S, BULL BAY","",35.939,-76.334,"NC","030915","213000000",""
"NCDMF",,2,"Atherinopsidae","Menidia beryllina","UCF2, INDIAN CREEK","",34.28111,-78.00556,"NC","030919","1902010101",""
"NCDMF",,58,"Atherinopsidae","Menidia beryllina","108S, CROATAN SOUND","",35.925,-75.724,"NC","030924","300000000",""
"NCDMF",,97,"Atherinopsidae","Menidia beryllina","109S, ROANOKE SOUND","",35.937,-75.7,"NC","030924","400000000",""
"NCDMF",,11,"Atherinopsidae","Menidia beryllina","127S, HWY.32 TO DRUMMOND PT.","",36.007,-76.513,"NC","030925","200070000",""
"NCDMF",,3,"Atherinopsidae","Menidia beryllina","139S, ROANOKE R. TO US17 BR.","",36.003,-76.685,"NC","030925","200020000",""
"NCDMF",,3,"Atherinopsidae","Menidia beryllina","46S, ROANOKE R. TO US17 BR.","",36.043,-76.705,"NC","030925","200020000",""
"NCDMF",,2,"Atherinopsidae","Menidia beryllina","CFR2, SMITH CREEK TO LANE FERRY","",34.26694,-77.94722,"NC","030929","1902030100",""
"NCDMF",,5,"Atherinopsidae","Menidia beryllina","CF11, BRUNSWICK RIVER","",34.23194,-77.98583,"NC","030930","1902020000",""
"NCDMF",,1,"Atherinopsidae","Menidia beryllina","UCF2, INDIAN CREEK","",34.28111,-78.00556,"NC","031002","1902010101",""
"NCDMF",,17,"Atherinopsidae","Menidia beryllina","CFR2, SMITH CREEK TO LANE FERRY","",34.26694,-77.94722,"NC","031016","1902030100",""
"NCDMF",,3,"Atherinopsidae","Menidia beryllina","NE42, SMITH CREEK TO LANE FERRY","",34.33778,-77.98139,"NC","031016","1902030100",""
"NCDMF",,9,"Atherinopsidae","Menidia beryllina","130S, HWY.32 TO LAUREL PT.","",35.96,-76.489,"NC","031021","200080000",""
"NCDMF",,66,"Atherinopsidae","Menidia beryllina","39S, YEOPIM RIVER","",36.08,-76.411,"NC","031024","206000000",""
"NCDMF",,87,"Atherinopsidae","Menidia beryllina","84S, SCUPPERNONG RIVER","",35.94,-76.298,"NC","031024","213010000",""
"NCDMF",,2,"Atherinopsidae","Menidia beryllina","CFR1, CAPE FEAR RIVER, WILMINGTON AND ABOVE","",34.24944,-77.97333,"NC","031024","1902000000",""
"NCDMF",,2,"Atherinopsidae","Menidia beryllina","152S, ROANOKE R. TO RAILROAD BR.","",35.936,-76.644,"NC","031028","200040000",""
"NCDMF",,63,"Atherinopsidae","Menidia beryllina","163S, RAILROAD BR. TO HWY. 32 NORTHSIDE","",36.003,-76.525,"NC","031028","200050000",""
"NCDMF",,1,"Atherinopsidae","Menidia beryllina","46S, ROANOKE R. TO US17 BR.","",36.043,-76.705,"NC","031028","200020000",""
"NCDMF",,19,"Atherinopsidae","Menidia beryllina","CF11, BRUNSWICK RIVER","",34.23194,-77.98583,"NC","031029","1902020000",""
"NCDMF",,1,"Atherinopsidae","Menidia beryllina","UCF2, INDIAN CREEK","",34.28111,-78.00556,"NC","031110","1902010101",""
"NCDMF",,1,"Atherinopsidae","Menidia beryllina","CF11, BRUNSWICK RIVER","",34.23194,-77.98583,"NC","031118","1902020000",""
"NCDMF",,1,"Atherinopsidae","Menidia beryllina","CFR2, SMITH CREEK TO LANE FERRY","",34.26694,-77.94722,"NC","031216","1902030100",""
"NCDMF",,4,"Atherinopsidae","Menidia beryllina","CF11, BRUNSWICK RIVER","",34.23194,-77.98583,"NC","031217","1902020000",""
"NCDMF",,1,"Atherinopsidae","Menidia beryllina","CF12, NORTH OF SNOWS CUT","",34.16167,-77.95583,"NC","031217","1901030200",""
"NCDMF",,4,"Atherinopsidae","Menidia beryllina","CFR1, CAPE FEAR RIVER, WILMINGTON AND ABOVE","",34.24944,-77.97333,"NC","040116","1902000000",""
"NCDMF",,6,"Atherinopsidae","Menidia beryllina","CFR2, SMITH CREEK TO LANE FERRY","",34.26694,-77.94722,"NC","040116","1902030100",""
"NCDMF",,1,"Atherinopsidae","Menidia beryllina","NE42, SMITH CREEK TO LANE FERRY","",34.33778,-77.98139,"NC","040116","1902030100",""
"NCDMF",,16,"Atherinopsidae","Menidia beryllina","CF11, BRUNSWICK RIVER","",34.219,-77.979,"NC","040123","1902020000",""
"NCDMF",,2,"Atherinopsidae","Menidia beryllina","CFR2, SMITH CREEK TO LANE FERRY","",34.266,-77.947,"NC","040128","1902030100",""
"NCDMF",,1,"Atherinopsidae","Menidia beryllina","CF12, NORTH OF SNOWS CUT","",34.16167,-77.95583,"NC","040129","1901030200",""
"NCDMF",,6,"Atherinopsidae","Menidia beryllina","CF11, BRUNSWICK RIVER","",34.23194,-77.98583,"NC","040130","1902020000",""
"NCDMF",,1,"Atherinopsidae","Menidia beryllina","CFR1, CAPE FEAR RIVER, WILMINGTON AND ABOVE","",34.252,-77.968,"NC","040204","1902000000",""
"NCDMF",,44,"Atherinopsidae","Menidia beryllina","CF11, BRUNSWICK RIVER","",34.219,-77.979,"NC","040209","1902020000",""
"NCDMF",,3,"Atherinopsidae","Menidia beryllina","NE42, SMITH CREEK TO LANE FERRY","",34.332,-77.98,"NC","040209","1902030100",""
"NCDMF",,1,"Atherinopsidae","Menidia beryllina","UCF2, INDIAN CREEK","",34.28111,-78.00556,"NC","040216","1902010101",""
"NCDMF",,7,"Atherinopsidae","Menidia beryllina","CFR2, SMITH CREEK TO LANE FERRY","",34.26694,-77.94722,"NC","040218","1902030100",""
"NCDMF",,239,"Atherinopsidae","Menidia beryllina","CFR1, CAPE FEAR RIVER, WILMINGTON AND ABOVE","",34.24944,-77.97333,"NC","040220","1902000000",""
"NCDMF",,17,"Atherinopsidae","Menidia beryllina","NE42, SMITH CREEK TO LANE FERRY","",34.33778,-77.98139,"NC","040311","1902030100",""
"NCDMF",,2,"Atherinopsidae","Menidia beryllina","NE42, SMITH CREEK TO LANE FERRY","",34.332,-77.98,"NC","040317","1902030100",""
"NCDMF",,1,"Atherinopsidae","Menidia beryllina","CFR1, CAPE FEAR RIVER, WILMINGTON AND ABOVE","",34.24944,-77.97333,"NC","040322","1902000000",""
"NCDMF",,2,"Atherinopsidae","Menidia beryllina","CFR2, SMITH CREEK TO LANE FERRY","",34.26694,-77.94722,"NC","040322","1902030100",""
"NCDMF",,13,"Atherinopsidae","Menidia beryllina","UCF2, INDIAN CREEK","",34.28111,-78.00556,"NC","040414","1902010101",""
"NCDMF",,7,"Atherinopsidae","Menidia beryllina","UCF6, CAPE FEAR RIVER, WILMINGTON AND ABOVE","",34.404,-78.272,"NC","040420","1902000000",""
"NCDMF",,4,"Atherinopsidae","Menidia beryllina","UCF3, MOUTH BLACK RIVER","",34.33806,-78.04722,"NC","040426","1902040104",""
"NCDMF",,2,"Atherinopsidae","Menidia beryllina","UCF3, MOUTH BLACK RIVER","",34.341,-78.046,"NC","040428","1902040104",""
"NCDMF",,1,"Atherinopsidae","Menidia beryllina","CFR2, SMITH CREEK TO LANE FERRY","",34.266,-77.947,"NC","040504","1902030100",""
"NCDMF",,71,"Atherinopsidae","Menidia beryllina","A12, MALLARD CREEK","",35.2996,-76.60137,"NC","040505","528400702",""
"NCDMF",,13,"Atherinopsidae","Menidia beryllina","A25, CAMPBELL CREEK","",35.28672,-76.64753,"NC","040505","528400500",""
"NCDMF",,3,"Atherinopsidae","Menidia beryllina","A8, CAMPBELL CREEK","",35.28098,-76.65635,"NC","040505","528400500",""
"NCDMF",,2,"Atherinopsidae","Menidia beryllina","SB10, CHELLYBELLY CREEK","",35.409,-76.482,"NC","040505","527030000",""
"NCDMF",,1,"Atherinopsidae","Menidia beryllina","SB9, SPENCER BAY","",35.402,-76.486,"NC","040505","527000000",""
"NCDMF",,9,"Atherinopsidae","Menidia beryllina","B40, UPPER JONES BAY CREEK","",35.24023,-76.5918,"NC","040506","533050000",""
"NCDMF",,1,"Atherinopsidae","Menidia beryllina","CS2, SIMPSON CREEK","",35.14762,-76.63605,"NC","040506","534200200",""
"NCDMF",,7,"Atherinopsidae","Menidia beryllina","AB1, BOX CREEK","",35.407,-76.508,"NC","040507","528030300",""
"NCDMF",,16,"Atherinopsidae","Menidia beryllina","AB4, BELL CREEK","",35.407,-76.5,"NC","040507","528030201",""
"NCDMF",,1,"Atherinopsidae","Menidia beryllina","SB5, UNNAMED NORTH TRIBUTARY","",35.422,-76.446,"NC","040507","527020400",""
"NCDMF",,8,"Atherinopsidae","Menidia beryllina","CN10, BLOSSOM POND CREEK","",35.18917,-76.61223,"NC","040510","534060100",""
"NCDMF",,3,"Atherinopsidae","Menidia beryllina","CN14, CHAPEL CREEK","",35.15543,-76.71405,"NC","040510","534130000",""
"NCDMF",,3,"Atherinopsidae","Menidia beryllina","CS10, MASON CREEK","",35.135,-76.689,"NC","040510","534160000",""
"NCDMF",,4,"Atherinopsidae","Menidia beryllina","D03C, LONG CREEK","",35.1882,-76.64417,"NC","040510","534100100",""
"NCDMF",,1,"Atherinopsidae","Menidia beryllina","FC5, WAUPOPIN CREEK","",35.523,-75.978,"NC","040510","506010000",""
"NCDMF",,23,"Atherinopsidae","Menidia beryllina","33S, PERQUIMANS RIVER","",36.12,-76.346,"NC","040511","205000000",""
"NCDMF",,5,"Atherinopsidae","Menidia beryllina","34S, HARVEY PT. TO LITTLE R.","",36.107,-76.258,"NC","040511","200110000",""
"NCDMF",,18,"Atherinopsidae","Menidia beryllina","38S, PERQUIMANS RIVER","",36.186,-76.458,"NC","040511","205000000",""
"NCDMF",,3,"Atherinopsidae","Menidia beryllina","E15, GREEN CREEK","",35.10932,-76.58575,"NC","040511","535031100",""
"NCDMF",,1,"Atherinopsidae","Menidia beryllina","NR1, NEW RIVER","",34.756,-77.436,"NC","040511","1201030100",""
"NCDMF",,1,"Atherinopsidae","Menidia beryllina","S64, PARRIS CREEK","",35.08608,-76.60637,"NC","040511","535030300",""
"NCDMF",,1,"Atherinopsidae","Menidia beryllina","SQB18, COWPEN CREEK","",35.392,-76.352,"NC","040511","522050000",""
"NCDMF",,43,"Atherinopsidae","Menidia beryllina","27S, HARVEY PT. TO LITTLE R.","",36.103,-76.2,"NC","040512","200110000",""
"NCDMF",,18,"Atherinopsidae","Menidia beryllina","32S, LITTLE RIVER","",36.164,-76.257,"NC","040512","204000000",""
"NCDMF",,7,"Atherinopsidae","Menidia beryllina","CF11, BRUNSWICK RIVER","",34.23194,-77.98583,"NC","040512","1902020000",""
"NCDMF",,3,"Atherinopsidae","Menidia beryllina","E10, UPPER BROAD CREEK","",35.08245,-76.6578,"NC","040512","535030600",""
"NCDMF",,4,"Atherinopsidae","Menidia beryllina","E31, SPICE CREEK","",35.1083,-76.64045,"NC","040512","535030701",""
"NCDMF",,6,"Atherinopsidae","Menidia beryllina","E36, COFFEE CREEK","",35.0947,-76.62733,"NC","040512","535031200",""
"NCDMF",,10,"Atherinopsidae","Menidia beryllina","F4, WHITTAKER CREEK","",35.03862,-76.6807,"NC","040512","535070000",""
"NCDMF",,5,"Atherinopsidae","Menidia beryllina","PAR13, MUDDY CREEK","",35.331,-76.685,"NC","040512","528371203",""
"NCDMF",,1,"Atherinopsidae","Menidia beryllina","PAR16, EAST PRONG","",35.34,-76.644,"NC","040512","528390101",""
"NCDMF",,8,"Atherinopsidae","Menidia beryllina","PAR24, FLANNIGAN GUT","",35.336,-76.709,"NC","040512","528371201",""
"NCDMF",,1,"Atherinopsidae","Menidia beryllina","PAR27, TOOLEY CREEK","",35.347,-76.749,"NC","040512","528370100",""
"NCDMF",,1,"Atherinopsidae","Menidia beryllina","PAR30, JACKS CREEK","",35.327,-76.784,"NC","040512","528370300",""
"NCDMF",,4,"Atherinopsidae","Menidia beryllina","F12, KERSHAW CREEK","",35.03845,-76.72517,"NC","040513","535080300",""
"NCDMF",,6,"Atherinopsidae","Menidia beryllina","F42, GREENS CREEK","",35.02175,-76.70723,"NC","040513","535080000",""
"NCDMF",,11,"Atherinopsidae","Menidia beryllina","PUR19, ISLAND CREEK","",35.44,-76.539,"NC","040513","528060105",""
"NCDMF",,4,"Atherinopsidae","Menidia beryllina","PUR3, BRADLEY GUT","",35.404,-76.596,"NC","040513","528063803",""
"NCDMF",,5,"Atherinopsidae","Menidia beryllina","PUR5, WARNER CREEK","",35.445,-76.528,"NC","040513","528060107",""
"NCDMF",,1,"Atherinopsidae","Menidia beryllina","PUR7, WOOD CREEK","",35.481,-76.541,"NC","040513","528060209",""
"NCDMF",,3,"Atherinopsidae","Menidia beryllina","CFR2, SMITH CREEK TO LANE FERRY","",34.26694,-77.94722,"NC","040514","1902030100",""
"NCDMF",,2,"Atherinopsidae","Menidia beryllina","PAR20, EAST FORK","",35.432,-76.654,"NC","040514","528070200",""
"NCDMF",,2,"Atherinopsidae","Menidia beryllina","PAR66, NORTH CREEK","",35.44,-76.676,"NC","040514","528070000",""
"NCDMF",,47,"Atherinopsidae","Menidia beryllina","PAR8, BATH CREEK","",35.454,-76.818,"NC","040514","528120000",""
"NCDMF",,2,"Atherinopsidae","Menidia beryllina","317S, NORTH LANDING RIVER","",36.452,-76.014,"NC","040518","114000000",""
"NCDMF",,70,"Atherinopsidae","Menidia beryllina","84S, SCUPPERNONG RIVER","",35.94,-76.298,"NC","040519","213010000",""
"NCDMF",,18,"Atherinopsidae","Menidia beryllina","85S, BULL BAY","",35.939,-76.334,"NC","040519","213000000",""
"NCDMF",,5,"Atherinopsidae","Menidia beryllina","CFR1, CAPE FEAR RIVER, WILMINGTON AND ABOVE","",34.252,-77.968,"NC","040519","1902000000",""
"NCDMF",,2,"Atherinopsidae","Menidia beryllina","128S, BATCHELOR BAY","",35.972,-76.708,"NC","040520","209000000",""
"NCDMF",,40,"Atherinopsidae","Menidia beryllina","152S, ROANOKE R. TO RAILROAD BR.","",35.936,-76.644,"NC","040520","200040000",""
"NCDMF",,100,"Atherinopsidae","Menidia beryllina","153S, EDENTON BAY TO RAILROAD BR.","",36.012,-76.582,"NC","040520","200030000",""
"NCDMF",,13,"Atherinopsidae","Menidia beryllina","162S, ROANOKE R. TO US17 BR.","",35.979,-76.694,"NC","040520","200020000",""
"NCDMF",,1,"Atherinopsidae","Menidia beryllina","163S, RAILROAD BR. TO HWY. 32 NORTHSIDE","",36.003,-76.525,"NC","040520","200050000",""
"NCDMF",,114,"Atherinopsidae","Menidia beryllina","49S, EDENTON BAY","",36.045,-76.603,"NC","040520","207000000",""
"NCDMF",,1,"Atherinopsidae","Menidia beryllina","NE42, SMITH CREEK TO LANE FERRY","",34.33778,-77.98139,"NC","040521","1902030100",""
"NCDMF",,1,"Atherinopsidae","Menidia beryllina","UCF3, MOUTH BLACK RIVER","",34.33806,-78.04722,"NC","040524","1902040104",""
"NCDMF",,1,"Atherinopsidae","Menidia beryllina","126S, DRUMMOND PT. TO HARVEY PT.","",36.088,-76.341,"NC","040525","200090000",""
"NCDMF",,4,"Atherinopsidae","Menidia beryllina","47S, MT GLD L./HARR.L.-COLER./CHOW.B.","",36.111,-76.737,"NC","040525","208000200",""
"NCDMF",,4,"Atherinopsidae","Menidia beryllina","56S, COLER./CHOW.B./N.HOLIDAY IS.","",36.228,-76.706,"NC","040525","208000300",""
"NCDMF",,17,"Atherinopsidae","Menidia beryllina","99, PT LKOUT-GA BAY-THE FORKS","",35.675,-76.107,"NC","040526","214000700",""
"NCDMF",,25,"Atherinopsidae","Menidia beryllina","88S, EAST LAKE","",35.977,-75.861,"NC","040527","214060000",""
"NCDMF",,12,"Atherinopsidae","Menidia beryllina","KHB2, KITTY HAWK BAY","",36.03552,-75.70538,"NC","040527","215000000",""
"NCDMF",,15,"Atherinopsidae","Menidia beryllina","128S, BATCHELOR BAY","",35.972,-76.708,"NC","040602","209000000",""
"NCDMF",,17,"Atherinopsidae","Menidia beryllina","129S, ROANOKE R. TO RAILROAD BR.","",35.936,-76.608,"NC","040602","200040000",""
"NCDMF",,5,"Atherinopsidae","Menidia beryllina","153S, EDENTON BAY TO RAILROAD BR.","",36.012,-76.582,"NC","040602","200030000",""
"NCDMF",,3,"Atherinopsidae","Menidia beryllina","162S, ROANOKE R. TO US17 BR.","",35.979,-76.694,"NC","040602","200020000",""
"NCDMF",,9,"Atherinopsidae","Menidia beryllina","163S, RAILROAD BR. TO HWY. 32 NORTHSIDE","",36.003,-76.525,"NC","040602","200050000",""
"NCDMF",,17,"Atherinopsidae","Menidia beryllina","39S, YEOPIM RIVER","",36.08,-76.411,"NC","040602","206000000",""
"NCDMF",,2,"Atherinopsidae","Menidia beryllina","46S, ROANOKE R. TO US17 BR.","",36.043,-76.705,"NC","040602","200020000",""
"NCDMF",,3,"Atherinopsidae","Menidia beryllina","49S, EDENTON BAY","",36.045,-76.603,"NC","040602","207000000",""
"NCDMF",,1,"Atherinopsidae","Menidia beryllina","AB4, BELL CREEK","",35.407,-76.5,"NC","040602","528030201",""
"NCDMF",,2,"Atherinopsidae","Menidia beryllina","RB3, TOOLEY CREEK","",35.425,-76.434,"NC","040602","526050000",""
"NCDMF",,6,"Atherinopsidae","Menidia beryllina","SB10, CHELLYBELLY CREEK","",35.409,-76.482,"NC","040602","527030000",""
"NCDMF",,1,"Atherinopsidae","Menidia beryllina","SB5, UNNAMED NORTH TRIBUTARY","",35.422,-76.446,"NC","040602","527020400",""
"NCDMF",,2,"Atherinopsidae","Menidia beryllina","PAR24, FLANNIGAN GUT","",35.336,-76.709,"NC","040603","528371201",""
"NCDMF",,1,"Atherinopsidae","Menidia beryllina","PAR26, LONG CREEK","",35.332,-76.734,"NC","040603","528371100",""
"NCDMF",,1,"Atherinopsidae","Menidia beryllina","PAR20, EAST FORK","",35.432,-76.654,"NC","040604","528070200",""
"NCDMF",,268,"Atherinopsidae","Menidia beryllina","PAR8, BATH CREEK","",35.454,-76.818,"NC","040604","528120000",""
"NCDMF",,2,"Atherinopsidae","Menidia beryllina","112S, CURR.SND BR.-S. TO POWELLS PT./LONG PT.","",36.08,-75.789,"NC","040607","100060000",""
"NCDMF",,7,"Atherinopsidae","Menidia beryllina","128S, BATCHELOR BAY","",35.972,-76.708,"NC","040607","209000000",""
"NCDMF",,11,"Atherinopsidae","Menidia beryllina","129S, ROANOKE R. TO RAILROAD BR.","",35.936,-76.608,"NC","040607","200040000",""
"NCDMF",,2,"Atherinopsidae","Menidia beryllina","139S, ROANOKE R. TO US17 BR.","",36.003,-76.685,"NC","040607","200020000",""
"NCDMF",,1,"Atherinopsidae","Menidia beryllina","152S, ROANOKE R. TO RAILROAD BR.","",35.936,-76.644,"NC","040607","200040000",""
"NCDMF",,4,"Atherinopsidae","Menidia beryllina","153S, EDENTON BAY TO RAILROAD BR.","",36.012,-76.582,"NC","040607","200030000",""
"NCDMF",,34,"Atherinopsidae","Menidia beryllina","163S, RAILROAD BR. TO HWY. 32 NORTHSIDE","",36.003,-76.525,"NC","040607","200050000",""
"NCDMF",,27,"Atherinopsidae","Menidia beryllina","1S, NORTH RIVER","",36.193,-75.886,"NC","040607","201000000",""
"NCDMF",,3,"Atherinopsidae","Menidia beryllina","49S, EDENTON BAY","",36.045,-76.603,"NC","040607","207000000",""
"NCDMF",,7,"Atherinopsidae","Menidia beryllina","A25, CAMPBELL CREEK","",35.28672,-76.64753,"NC","040607","528400500",""
"NCDMF",,2,"Atherinopsidae","Menidia beryllina","PUR3, BRADLEY GUT","",35.404,-76.596,"NC","040607","528063803",""
"NCDMF",,67,"Atherinopsidae","Menidia beryllina","A12, MALLARD CREEK","",35.2996,-76.60137,"NC","040608","528400702",""
"NCDMF",,19,"Atherinopsidae","Menidia beryllina","A2, BETTY CREEK(DOG CREEK)","",35.31783,-76.63667,"NC","040608","528400201",""
"NCDMF",,10,"Atherinopsidae","Menidia beryllina","14S, PASQUOTANK RIVER","",36.242,-76.082,"NC","040609","202000000",""
"NCDMF",,23,"Atherinopsidae","Menidia beryllina","15S, PASQUOTANK RIVER","",36.232,-76.125,"NC","040609","202000000",""
"NCDMF",,1,"Atherinopsidae","Menidia beryllina","LSR11, OTTER CREEK","",35.549,-75.923,"NC","040609","504000000",""
"NCDMF",,2,"Atherinopsidae","Menidia beryllina","CN14, CHAPEL CREEK","",35.15543,-76.71405,"NC","040610","534130000",""
"NCDMF",,4,"Atherinopsidae","Menidia beryllina","126S, DRUMMOND PT. TO HARVEY PT.","",36.088,-76.341,"NC","040614","200090000",""
"NCDMF",,15,"Atherinopsidae","Menidia beryllina","127S, HWY.32 TO DRUMMOND PT.","",36.007,-76.513,"NC","040614","200070000",""
"NCDMF",,42,"Atherinopsidae","Menidia beryllina","130S, HWY.32 TO LAUREL PT.","",35.96,-76.489,"NC","040614","200080000",""
"NCDMF",,4,"Atherinopsidae","Menidia beryllina","47S, MT GLD L./HARR.L.-COLER./CHOW.B.","",36.111,-76.737,"NC","040614","208000200",""
"NCDMF",,6,"Atherinopsidae","Menidia beryllina","NE42, SMITH CREEK TO LANE FERRY","",34.33778,-77.98139,"NC","040614","1902030100",""
"NCDMF",,1,"Atherinopsidae","Menidia beryllina","E10, UPPER BROAD CREEK","",35.08245,-76.6578,"NC","040615","535030600",""
