"Institution.Source","Catalog.Number","Number.of.specimens","Family","Scientific.name","Locality","County","Latitude","Longitude","State","Date.Collected","Field.Locality.number","Collectors"
"AMNH","79240",1,"Umbridae","Umbra pygmaea","2.0 mi south Columbus/Brunswick county line, on NC 211","Brunswick",34.189674,-78.355289,"NC","30816","PMM-84-15","P.M. Mabee & J.O. Mabee"
"AMNH","20633",1,"Umbridae","Umbra pygmaea","3.3 miles north of supply","Brunswick",34.060713,-78.293053,"NC","23625","JDA-64-IX-05","J.D. Anderson & C.H. Eigenman"
"AMNH","62724",4,"Umbridae","Umbra pygmaea","Joyce creek (tributary of pasquotank river, an effluent of dismal swamp), 0.8 miles south of tar corner, route 1224 crossing","Camden",36.466352,-76.288106,"NC","24995","R.D. ROSS-VPI-1325","R.D. Ross, R.D. Ross & P.M. Brady"
"AMNH","62737",8,"Umbridae","Umbra pygmaea","Juniper ditch (tributary of pasquotank river), in dismal swamp at Horseshoe","Camden",36.46022,-76.381976,"NC","24995","R.D. ROSS-VPI-1326","R.D. Ross, R.D. Ross & P.M. Brady"
"AMNH","62617",1,"Umbridae","Umbra pygmaea","Pasquotank river swamp, at route 17 bridge, 1.1 mile southwest south mills","Camden",36.433696,-76.338961,"NC","24981","R.D. ROSS-VPI-1295","R.D. Ross & P.M. Brady"
"AMNH","62607",6,"Umbridae","Umbra pygmaea","Pasquotank swamp at us route 17 bridge 1 mile north of morgans corners","Camden",36.430204,-76.340822,"NC","24980","R.D. ROSS-VPI-1293","R.D. Ross"
"AMNH","62601",7,"Umbridae","Umbra pygmaea","Seven bridges (a ditch in dismal swamp) 2 miles northwest South Mills on SR 1219","Camden",36.458219,-76.359391,"NC","24980","R.D. ROSS-VPI-1292","R.D. Ross"
"AMNH","65181",12,"Umbridae","Umbra pygmaea","Seven bridges (a ditch in dismal swamp) 2 miles northwest South Mills on SR 1219","Camden",36.458219,-76.359391,"NC","25326","R.D. ROSS-VPI-2209","R.D. Ross, R.D. Ross & R.S. Mitchell"
"AMNH","66889",12,"Umbridae","Umbra pygmaea","Seven bridges (a ditch in dismal swamp) 2 miles northwest South Mills on SR 1219","Camden",36.458219,-76.359391,"NC","26060","R.D. ROSS-VPI-2586","M.T. Masnik, W.M. Clay, C. Baker & J. Crossman"
"AMNH","65600",6,"Umbridae","Umbra pygmaea","Creek at SR 1100 bridge, 9.2 miles west of Croatan (Black Swamp Creek)","Craven",34.907159,-77.103899,"NC","25683","R.D. ROSS-VPI-2392","R.D. Ross, H. Zion & M.T. Masnik"
"AMNH","79238",34,"Umbridae","Umbra pygmaea","In canals around bridge just over jones county line at SR 11100","Craven",34.906596,-77.105959,"NC","31516","PMM-86-02","P.M. Mabee & A. Bornbusch"
"AMNH","248905",1,"Umbridae","Umbra pygmaea","Rhodes Pond, impoundment on Black River at US-301, 6 miles south-southwest of Dunn","Cumberland",35.224843,-78.65573,"NC","39878","ACT-GP-09-III-06a","A.C. Terceira et al."
"AMNH","62541",4,"Umbridae","Umbra pygmaea","Taylor Swamp just below Jones Mill Pond near Corapeake","Gates",36.525237,-76.577303,"NC","24969","R.D. ROSS-VPI-1282","R.D. Ross & R.D. Ross"
"AMNH","79237",9,"Umbridae","Umbra pygmaea","In canals adjacent to unmarked roads off county road 1105 (4 mi east southeast maysville)","Jones",34.883486,-77.163264,"NC","31516","PMM-86-01","P.M. Mabee & A. Bornbusch"
"AMNH","79239",1,"Umbridae","Umbra pygmaea","Quarry, ca. 1.0 mi northwest junction highway 70 and nc 751, durham","Orange",36.04309,-78.9987,"NC","31521","PMM-86-04","P.M. Mabee"
"AMNH","62638",1,"Umbridae","Umbra pygmaea","Dismal swamp, ditch (at right angles to) the loop road 1.7 miles east parkville","Pasquotank",36.29373,-76.366572,"NC","24981","R.D. ROSS-VPI-1297","R.D. Ross & P.M. Brady"
"AMNH","62806",8,"Umbridae","Umbra pygmaea","Little river on rt 1144 crossing, a concrete bridge on the pasquotank-perquimans co. line, 2.2 airmiles w of norfolk/southern rr station in pasquotank","Perquimans",36.268333,-76.377579,"NC","24996","R.D. ROSS-VPI-1334","R.D. Ross, R.D. Ross & P.M. Brady"
"ANSP","197152",1,"Umbridae","Umbra pygmaea","Flat Branch of Cole Creek (Chowan Dr.) at Sheppard Landing Rd. bridge (Co. Rt. 1225).","Gates",36.466556,-76.799333,"NC","7/26/2014","MHS-2014-NC-2","M.H. Sabaj, M.C. Sabaj Pérez, M.S. Sabaj Pérez"
"ANSP","177536",1,"Umbridae","Umbra pygmaea","Lumber River Basin: tributary to Drowning Creek;SR1100, 0.5 air mi S Keyser.","Moore",35.0766169999999,-79.462136,"NC","4/15/1997","Z177536","G. B. Mottesi, M. E. Savacool"
"ANSP","204751",1,"Umbridae","Umbra pygmaea","Long Creek","Pender",34.582494,-77.963219,"NC","6/6/2009","FW08-NC023","EPA National Streams & Rivers Assessment (NRSA) team"
"ANSP","177553",1,"Umbridae","Umbra pygmaea","Lumber River Basin: Big Swamp;SR1002 (boat ramp), 7.75 air mi NNE Orrum.","Robeson",34.479798,-78.8781,"NC","7/17/1996","Z177553","G. B. Mottesi, M. E. Savacool, S. D. Kirk, et al."
"ANSP","177545",2,"Umbridae","Umbra pygmaea","Lumber River Basin: roadside ditch;SR2123, close to Lumber River.","Robeson",34.528821,-78.934788,"NC","7/17/1996","Z177545","G. B. Mottesi, M. E. Savacool, S. D. Kirk, et al."
"ANSP","177539",2,"Umbridae","Umbra pygmaea","Lumber River Basin: tributary to Gum Swamp Creek;SR1101, 7.1 air mi NW Silver Hill.","Scotland",34.712729,-79.51662,"NC","4/17/1997","Z177539","G. B. Mottesi, M. E. Savacool"
"CAS","66835",4,"Umbridae","Umbra pygmaea","White Marsh Swamp, Approx. 5 miles south of Hallsboro.","Columbus",34.25409,-78.604738,"NC","6/30/1968","","W.C. Freihofer, M. Korringa & L. Compagno"
"CAS","66855",55,"Umbridae","Umbra pygmaea","White Marsh Swamp, Approx. 5 miles south of Hallsboro.","Columbus",34.25409,-78.604738,"NC","7/1/1968","","W.C. Freihofer, J. Davis et al"
"CAS","66838",2,"Umbridae","Umbra pygmaea","White Marsh Swamp, Approx. 5 miles south of Hallsboro.","Columbus",34.25409,-78.604738,"NC","7/2/1968","","W.C. Freihofer, M. Korringa & L. Compagno"
"CAS","11232",1,"Umbridae","Umbra pygmaea","Tar River at Rocky Mount","Nash",35.899358,-77.883917,"NC","8/29/1888","","Jenkins, Meek"
"CUMV","19832",1,"Umbridae","Umbra pygmaea","Aggie Run, 5.7 mi. N of Washington on Rt. 17","Beaufort",35.631378,-77.063024,"NC","16523","HEE 1514","Edward Raney;  Royal Suttkus;  Howard Evans;  Robert Roecker"
"CUMV","30162",11,"Umbridae","Umbra pygmaea","Roquist Cr. on Rt. 17, S of Windsor","Bertie",35.941965,-76.961095,"NC","19083","RJM 1006","Rudolf Miller;  T. Poulson;  J. Kaufman;  T. Savage"
"CUMV","29913",16,"Umbridae","Umbra pygmaea","Trib. of Cashie Cr., 0.3 mi. NE of Lewiston on secondary road","Bertie",36.143265,-77.165054,"NC","19076","ECR 2754","Edward Raney;  Charles Robins;  John New;  Bruce Collette; et al."
"CUMV","11680",1,"Umbridae","Umbra pygmaea","Brown Marsh, 3 mi. N of Clarkton, 7.5 mi. SSW of Elizabethtown on Rt 701.","Bladen",34.526142,-78.649121,"NC","15517","ECR 1194","Edward Raney;  Robert Ross;  Ernest Lachner"
"CUMV","34683",67,"Umbridae","Umbra pygmaea","Outlet stream of White Lake on US 701","Bladen",34.654587,-78.514921,"NC","20349","BBC 559","Bruce Collette;  Rudolf Miller;  John Ramsey;  D. Louder"
"CUMV","31809",1,"Umbridae","Umbra pygmaea","Trib. of Big Swamp R., trib. of Lumber R., 4.7 mi. S of Dublin","Bladen",34.609511,-78.755913,"NC","19817","BBC 431","Bruce Collette;  H. Howard"
"CUMV","34559",6,"Umbridae","Umbra pygmaea","Trib. of Turnbull Cr., +- 1.5 mi. N of (jct. of) NC 53 & 41","Bladen",34.666037,-78.588783,"NC","20349","BBC 558","Bruce Collette;  Rudolph Miller;  John Ramsey;  Louder"
"CUMV","4091",2,"Umbridae","Umbra pygmaea","Burnt Coat Swamp, N of Wilmington","Brunswick",36.248335,-77.728333,"NC","11011","AHW 34FEB23B","Albert Wright;  Anna Wright"
"CUMV","4087",1,"Umbridae","Umbra pygmaea","Rt. 17, just S of Wilmington","Brunswick",34.237499,-77.921311,"NC","11012","AHW 34FEB24B","Albert Wright;  Anna Wright"
"CUMV","11513",3,"Umbridae","Umbra pygmaea","Small stream 1.5 mi. E of Whiteville","Columbus",34.349763,-78.671272,"NC","15517","ECR 1198","Edward Raney;  Ernest Lachner;  Robert Ross"
"CUMV","14109",2,"Umbridae","Umbra pygmaea","Trib. of Cape Fear R., 9 mi. W of Fayetteville at Fish Hatchery","Cumberland",35.028079,-79.040133,"NC","16526","HEE 1539","Edward Raney;  Royal Suttkus;  Howard Evans;  Robert Roecker"
"CUMV","30145",3,"Umbridae","Umbra pygmaea","Creek on NC 32 at Hunters Mill Pond Bridge, Sunbury","Gates",36.436194,-76.610689,"NC","19083","RJM 56MAR31","Rudolf Miller;  T. Poulson;  J. Kaufman;  T. Savage"
"CUMV","9697",1,"Umbridae","Umbra pygmaea","Trib. at Corapeake on Rt. 32","Gates",36.525212,-76.577235,"NC","13602","ECR 0953","Ernest Lachner;  Roman Pfeiffer;  Edward Raney"
"CUMV","26053",2,"Umbridae","Umbra pygmaea","Trib. of Drowning Cr., 1 mi. SW of Aberdeen on US 1","Hoke",35.124358,-79.43808,"NC","18354","ECR 2514","Edward Raney;  William Woolcott;  Robert Gibbs"
"CUMV","30127",1,"Umbridae","Umbra pygmaea","Trib. of Rockfish R., 0.7 mi. W of Rockfish","Hoke",34.991857,-79.077495,"NC","19075","RJM 1004","Rudolf Miller;  T. Poulson;  J. Kaufman;  T. Savage"
"CUMV","9725",1,"Umbridae","Umbra pygmaea","Small stream 1 mi. S of Deep Run on Rt. 11","Lenoir",35.130903,-77.709447,"NC","13604","ECR 0972","Ernest Lachner;  Roman Pfeiffer;  Edward Raney"
"CUMV","35310",1,"Umbridae","Umbra pygmaea","Outlet of Beaver Pond, 4.4 mi. NE of jct. of Drowning Cr. & US 1 (1.5 mi. S of Aberdeen)","Moore",35.117118,-79.463529,"NC","20545","NRF 110","Neal Foster;  John Ramsey;  W. Davis"
"CUMV","35855",1,"Umbridae","Umbra pygmaea","Stream 1.9 mi. W of jct. of US 1 & NC 211 on 211","Moore",35.127972,-79.432152,"NC","20545","NRF 111","Neal Foster;  John Ramsey;  W. Davis"
"CUMV","19757",1,"Umbridae","Umbra pygmaea","Trib. of Aberdeen Cr., 0.9 mi. N of Pine Bluff","Moore",35.117118,-79.463529,"NC","17254","ECR 1946","Edward Raney;  Richard Backus;  Charles Robins;  J. Layne; et al."
"CUMV","75084",17,"Umbridae","Umbra pygmaea","Gum Swamp Lake at County Rd. 1342","Scotland",34.910293,-79.561803,"NC","30969","JMH 88-18","Julian Humphries;  Paula Mabee"
"CUMV","19583",1,"Umbridae","Umbra pygmaea","Trib. of Drowning Cr., 2.5 mi. S of Hoffman in Sand Hills Game Preserve","Scotland",35.003087,-79.537887,"NC","17254","ECR 1942","Edward Raney;  Richard Backus;  Charles Robins;  J. Layne; et al."
"INHS","49793",2,"Umbridae","Umbra pygmaea","roadside ditch, Goose Creek State Park, entrance rd. near Ragged Pt. Trail parking","Beaufort",35.464962,-76.90686,"NC","5/29/1997","","G.B. Mottesi & M.E. Savacool"
"INHS","46266",1,"Umbridae","Umbra pygmaea","trib. Turnbull Creek, 5.3 air mi NNE Elizabethtown, NC 53","Bladen",34.647425,-78.518026,"NC","3/25/1997","","G.B. Mottesi & M.E. Savacool"
"INHS","58955",3,"Umbridae","Umbra pygmaea","Royal Oak Swamp, 1.3 mi N Supply, Hwy. 211","Brunswick",34.03363,-78.28017,"NC","6/20/1990","","L.M. Page, P.A. Ceas, D.A. Carney, M.L. Warren & B.M. Burr"
"INHS","82082",1,"Umbridae","Umbra pygmaea","swamp, Godfrey Banch, 1 mi NW Peletier","Carteret",34.744124,-77.104455,"NC","9/2/1964","","P.W. Smith & M.M. Hensley"
"INHS","27225",1,"Umbridae","Umbra pygmaea","Bogue Swamp, 1 mi E Hallsboro","Columbus",34.3223,-78.58857,"NC","5/2/1979","","L.M. Page & W.L. Keller"
"INHS","29616",2,"Umbridae","Umbra pygmaea","McPherson Creek, Fort Bragg Military Res., downstream of Tank Rd., behind tank wash","Cumberland",35.143517,-79.043608,"NC","10/16/1992","","P.J. Perea, P.B. Bayley, T. Krzyik, J. Stone & C. Dyson"
"INHS","29718",2,"Umbridae","Umbra pygmaea","McPherson Creek, Fort Bragg Military Res., downstream of Tank Rd., below tank wash","Cumberland",35.143517,-79.043608,"NC","6/21/1992","","P.J. Perea, P.B. Bayley, T. Krzyik, J. Stone & C. Dyson"
"INHS","32369",1,"Umbridae","Umbra pygmaea","Horse Creek, Fort Bragg Military Res., upstream of bridge on Fire Break 9","Hoke",35.172219,-79.223317,"NC","6/24/1992","","P.J. Perea, P.B. Bayley, T. Krzyik, J. Stone & C. Dyson"
"INHS","32347",1,"Umbridae","Umbra pygmaea","James Creek, Fort Bragg Military Res., 7 mi ENE Southern Pines, downstream of Johnson Mill Pond","Hoke",35.212995,-79.241553,"NC","6/24/1992","","P.J. Perea, P.B. Bayley, T. Krzyik, J. Stone & C. Dyson"
"INHS","29635",1,"Umbridae","Umbra pygmaea","James Creek, Fort Bragg Military Res., 7 mi ENE Southern Pines, downstream of Johnson Mill Pond","Hoke",35.212995,-79.241553,"NC","10/15/1992","","P.J. Perea, P.B. Bayley, T. Krzyik, J. Stone & C. Dyson"
"INHS","29706",3,"Umbridae","Umbra pygmaea","McDuffie Creek, Fort Bragg Military Res., 7 mi ENE Southern Pines, downstream of Johnson Mill Pond","Hoke",35.212995,-79.241553,"NC","6/23/1992","","P.J. Perea, P.B. Bayley, T. Krzyik, J. Stone & C. Dyson"
"INHS","82132",2,"Umbridae","Umbra pygmaea","Collie Swamp, 2 mi E Robersonville","Martin",35.82648,-77.19937,"NC","6/16/1971","","L.M. Page & J.A. Tranquilli"
"INHS","82118",4,"Umbridae","Umbra pygmaea","swamp tributary, Skewakee Gut, 1 mi W Williamston","Martin",35.861547,-77.069075,"NC","6/16/1971","","L.M. Page & J.A. Tranquilli"
"INHS","38355",10,"Umbridae","Umbra pygmaea","Swift Creek, 3 mi SW Whitakers, U.S. Rt. 301 bridge","Nash",36.0784,-77.74843,"NC","6/25/1996","","M.H. Sabaj, G.B. Mottesi, J.W. Armbruster, T.J. Near & J.M. Serb"
"INHS","29680",1,"Umbridae","Umbra pygmaea","Gumberry Swamp, 7.5 mi SE Garysburg, S.R. 158","Northampton",36.377049,-77.452343,"NC","5/11/1993","","M.H. Sabaj & L. Avella"
"INHS","46208",1,"Umbridae","Umbra pygmaea","roadside ditch, S.R. 2256","Robeson",34.339722,-79.059167,"NC","7/16/1996","","J.M. Alderman, G.B. Mottesi, S.D. Kirk & M.E. Savacool"
"INHS","46275",1,"Umbridae","Umbra pygmaea","trib. Drowning Creek, 7.3 air mi NNE Silver Hill, NC 15/501","Scotland",34.988557,-79.446695,"NC","4/17/1997","","G.B. Mottesi & M.E. Savacool"
"INHS","46213",6,"Umbridae","Umbra pygmaea","trib. Gum Swamp Creek, 0.6 air mi E Crossway, S.R. 1108","Scotland",34.75224,-79.51605,"NC","5/15/1997","","G.B. Mottesi & M.E. Savacool"
"KU","8857",1,"Umbridae","Umbra pygmaea","Waccamaw River on US 76 above Lake Waccamaw","Columbus",34.28296,-78.54355,"NC","8/31/1964","","Cross, Frank B; Busey, Fred H; Judd, C E"
"KU","5304",1,"Umbridae","Umbra pygmaea","Goshen Swamp, 3 mi. SW Kornegay on NC Rt. 11","Duplin",35.027879,-77.851691,"NC","7/10/1960","","Metcalf, Artie L"
"KU","8864",1,"Umbridae","Umbra pygmaea","Holy Shelter Swamp on NC 50, 10 mi. N of Jct. with US 17","Duplin",34.786304,-77.781379,"NC","8/31/1964","","Cross, Frank B; Busey, Fred H; Judd, C E"
"KU","5342",6,"Umbridae","Umbra pygmaea","Trent River at Trenton","Jones",35.064792,-77.351237,"NC","7/10/1960","","Metcalf, Artie L"
"KU","5024",2,"Umbridae","Umbra pygmaea","ditch 3 mi. E Kinston","Lenoir",35.265356,-77.524073,"NC","1/24/1953","","Sutton, E C"
"KU","15363",1,"Umbridae","Umbra pygmaea","Pasquotank River, 1.6 mi. SSW South Mills on US Rt. 17","Pasquotank",36.42411,-76.33877,"NC","6/28/1973","","Savitsky, A H; Savitsky, L S"
"MCZ","60105",1,"Umbridae","Umbra pygmaea","Juniper Creek, on St. Rt. 1340, east of Makatoka, approx. 5 miles west of NC 211.","Brunswick",34.122994,-78.394361,"NC","30312","","Fred C. Rohde, Chad C. Rohde, Rudolf G. Arndt"
"NCDMF","",1,"Umbridae","Umbra pygmaea","152, ROANOKE R. TO RAILROAD BR.","",35.942,-76.641,"NC","101006","0200040000",""
"NCDMF","",1,"Umbridae","Umbra pygmaea","OW9, COLER./CHOW.B./N.HOLIDAY IS.","",36.268,-76.69,"NC","170823","0208000300",""
"NCDWR","",6,"Umbridae","Umbra pygmaea","Acre Swp, NC 32","Beaufort",35.584262,-76.839035,"NC","35520","97-02",""
"NCDWR","",1,"Umbridae","Umbra pygmaea","Acre Swp, NC 32","Beaufort",35.584262,-76.839035,"NC","37361","2002-15",""
"NCDWR","",9,"Umbridae","Umbra pygmaea","Durham Cr, SR 1932","Beaufort",35.271849,-76.871869,"NC","35520","97-01",""
"NCDWR","",8,"Umbridae","Umbra pygmaea","Horse Br, SR 1136","Beaufort",35.468014,-77.090217,"NC","34095","93-13",""
"NCDWR","",14,"Umbridae","Umbra pygmaea","Horsepen Swp, SR 1001","Beaufort",35.675,-77.1588888888889,"NC","35521","97-04",""
"NCDWR","",2,"Umbridae","Umbra pygmaea","Cashie R, SR 1257","Bertie",36.048153,-76.985159,"NC","34633","94-47",""
"NCDWR","",1,"Umbridae","Umbra pygmaea","Cool Run, US 17","Brunswick",33.9522222222222,-78.465,"NC","33722","92-10",""
"NCDWR","",1,"Umbridae","Umbra pygmaea","Gulf Cr, off SR 1916","Chatham",35.5736111111111,-79.0211111111111,"NC","34081","93-12",""
"NCDWR","",3,"Umbridae","Umbra pygmaea","Burnt Mill Cr, NC 37","Chowan",36.0965481,-76.533925,"NC","34757","95-02",""
"NCDWR","",1,"Umbridae","Umbra pygmaea","Juniper Cr, SR 1928","Columbus",34.1541666666667,-78.5322222222222,"NC","33583","91-32",""
"NCDWR","",4,"Umbridae","Umbra pygmaea","Porter Swp, SR 1503","Columbus",34.3602777777778,-78.9625,"NC","33723","92-15",""
"NCDWR","",1,"Umbridae","Umbra pygmaea","Porter Swp, SR 1503","Columbus",34.3602777777778,-78.9625,"NC","35151","96-09",""
"NCDWR","",2,"Umbridae","Umbra pygmaea","Core Cr, SR 1001","Craven",35.1799481,-77.319333,"NC","35366","96-76",""
"NCDWR","",1,"Umbridae","Umbra pygmaea","Mosley Cr, SR 1475","Craven",35.329877,-77.426656,"NC","33416","91-16",""
"NCDWR","",11,"Umbridae","Umbra pygmaea","Mosley Cr, SR 1475","Craven",35.329877,-77.426656,"NC","35367","96-77",""
"NCDWR","",2,"Umbridae","Umbra pygmaea","Mosley Cr, SR 1475","Craven",35.329877,-77.426656,"NC","36690","2000-42",""
"NCDWR","",4,"Umbridae","Umbra pygmaea","Mosley Cr, SR 1475","Craven",35.329877,-77.426656,"NC","38489","2005-55",""
"NCDWR","",4,"Umbridae","Umbra pygmaea","Duff Cr, SR 1170","Duplin",34.755,-78.0555555555556,"NC","35937","98-50",""
"NCDWR","",1,"Umbridae","Umbra pygmaea","Grove Cr, NC 11/903","Duplin",34.9705555555556,-77.9586111111111,"NC","34486","94-24",""
"NCDWR","",2,"Umbridae","Umbra pygmaea","Grove Cr, NC 11/903","Duplin",34.9705555555556,-77.9586111111111,"NC","35937","98-49",""
"NCDWR","",3,"Umbridae","Umbra pygmaea","Halls Marsh Run, SR 1306","Duplin",35.085134,-77.993944,"NC","33926","92-42",""
"NCDWR","",2,"Umbridae","Umbra pygmaea","Island Cr, NC 11","Duplin",34.8023657,-77.9419113,"NC","39601","2008-53",""
"NCDWR","",1,"Umbridae","Umbra pygmaea","Little Rock Fish Cr, NC 11","Duplin",34.72242,-77.981597,"NC","39601","2008-52",""
"NCDWR","",2,"Umbridae","Umbra pygmaea","Mathews Cr, NC 111/NC 903","Duplin",35.098287,-77.819274,"NC","35937","98-48",""
"NCDWR","",1,"Umbridae","Umbra pygmaea","Stockinghead Cr, NC 50","Duplin",34.8795866,-77.8942068,"NC","39602","2008-54",""
"NCDWR","",1,"Umbridae","Umbra pygmaea","Ballahack Canal, NC 42","Edgecombe",35.817456,-77.453887,"NC","39211","2007-49",""
"NCDWR","",15,"Umbridae","Umbra pygmaea","Beech Br, NC 97","Edgecombe",35.964918,-77.675076,"NC","37363","2002-22",""
"NCDWR","",30,"Umbridae","Umbra pygmaea","Beech Br, NC 97","Edgecombe",35.964918,-77.675076,"NC","39210","2007-45",""
"NCDWR","",1,"Umbridae","Umbra pygmaea","Cokey Swp, SR 1135","Edgecombe",35.890092,-77.75821,"NC","35522","97-08",""
"NCDWR","",5,"Umbridae","Umbra pygmaea","Cokey Swp, SR 1135","Edgecombe",35.890092,-77.75821,"NC","39211","2007-50",""
"NCDWR","",1,"Umbridae","Umbra pygmaea","Conetoe Cr, SR 1510","Edgecombe",35.875856,-77.393434,"NC","39211","2007-47",""
"NCDWR","",8,"Umbridae","Umbra pygmaea","Crisp Cr, SR 1527","Edgecombe",35.838656,-77.381202,"NC","39211","2007-48",""
"NCDWR","",9,"Umbridae","Umbra pygmaea","Deep Cr, SR 1506","Edgecombe",35.974008,-77.452097,"NC","39213","2007-55",""
"NCDWR","",2,"Umbridae","Umbra pygmaea","Otter Cr, SR 1614","Edgecombe",35.7266666666667,-77.5969444444444,"NC","33793","92-24",""
"NCDWR","",4,"Umbridae","Umbra pygmaea","Otter Cr, SR 1614","Edgecombe",35.7266666666667,-77.5969444444444,"NC","35367","96-78",""
"NCDWR","",2,"Umbridae","Umbra pygmaea","Otter Cr, SR 1614","Edgecombe",35.7266666666667,-77.5969444444444,"NC","35522","97-07",""
"NCDWR","",1,"Umbridae","Umbra pygmaea","Town Cr, NC 43","Edgecombe",35.821088,-77.659535,"NC","33793","92-25",""
"NCDWR","",1,"Umbridae","Umbra pygmaea","Town Cr, NC 43","Edgecombe",35.821088,-77.659535,"NC","35670","97-71",""
"NCDWR","",12,"Umbridae","Umbra pygmaea","White Oak Swp, SR 1428","Edgecombe",36.004195,-77.61953,"NC","37363","2002-21",""
"NCDWR","",9,"Umbridae","Umbra pygmaea","White Oak Swp, SR 1428","Edgecombe",36.004195,-77.61953,"NC","39211","2007-46",""
"NCDWR","",3,"Umbridae","Umbra pygmaea","Knap of Reeds Cr, off SR 1117","Granville",36.1286111111111,-78.7986111111111,"NC","38187","2004-129",""
"NCDWR","",1,"Umbridae","Umbra pygmaea","Smith Cr, SR 1710","Granville",36.0883333333333,-78.6022222222222,"NC","42093","2015-01",""
"NCDWR","",1,"Umbridae","Umbra pygmaea","Appletree Swp, SR 1216","Greene",35.506189,-77.77569,"NC","38464","2005-33",""
"NCDWR","",1,"Umbridae","Umbra pygmaea","Appletree Swp, SR 1216","Greene",35.506189,-77.77569,"NC","42152","2015-38",""
"NCDWR","",4,"Umbridae","Umbra pygmaea","Fort Run, NC 58","Greene",35.493616,-77.730425,"NC","38463","2005-32",""
"NCDWR","",1,"Umbridae","Umbra pygmaea","Rainbow Cr, SR 1091","Greene",35.413025,-77.601504,"NC","42152","2015-40",""
"NCDWR","",3,"Umbridae","Umbra pygmaea","Sandy Run, US 258/13","Greene",35.5161111111111,-77.6161111111111,"NC","34842","95-53",""
"NCDWR","",1,"Umbridae","Umbra pygmaea","Watery Br, NC 58","Greene",35.571295,-77.808865,"NC","42152","2015-39",""
"NCDWR","",7,"Umbridae","Umbra pygmaea","Beaverdam Swp, NC 561","Halifax",36.2730555555556,-77.7061111111111,"NC","35523","97-10",""
"NCDWR","",7,"Umbridae","Umbra pygmaea","Breeches Swp, SR 1002","Halifax",36.2066781,-77.7300272,"NC","39185","2007-20",""
"NCDWR","",6,"Umbridae","Umbra pygmaea","Burnt Coat Swp, SR 1216","Halifax",36.25521,-77.75957,"NC","39185","2007-18",""
"NCDWR","",10,"Umbridae","Umbra pygmaea","Chockoyotte Cr, US 158","Halifax",36.4305555555556,-77.6080555555556,"NC","38133","2004-60",""
"NCDWR","",2,"Umbridae","Umbra pygmaea","Conoconnara Swp, NC 561","Halifax",36.2691666666667,-77.4841666666667,"NC","34598","94-37",""
"NCDWR","",5,"Umbridae","Umbra pygmaea","Deep Cr, US 158","Halifax",36.4514745,-77.7822531,"NC","38133","2004-59",""
"NCDWR","",1,"Umbridae","Umbra pygmaea","Deep Cr, US 158","Halifax",36.451475,-77.782253,"NC","41802","2014-46",""
"NCDWR","",1,"Umbridae","Umbra pygmaea","Jacket Swp, SR 1216","Halifax",36.2280903,-77.7708477,"NC","39185","2007-19",""
"NCDWR","",1,"Umbridae","Umbra pygmaea","Quankey Cr, SR 1619","Halifax",36.3283333333333,-77.6047222222222,"NC","34598","94-38",""
"NCDWR","",2,"Umbridae","Umbra pygmaea","Rocky Swp, SR 1002","Halifax",36.2263888888889,-77.8091666666667,"NC","35523","97-11",""
"NCDWR","",11,"Umbridae","Umbra pygmaea","Rocky Swp, SR 1002","Halifax",36.2263888888889,-77.8091666666667,"NC","41080","2012-67",""
"NCDWR","",6,"Umbridae","Umbra pygmaea","Ahoskie Cr, NC 42","Hertford",36.280158,-76.999684,"NC","36669","2000-34",""
"NCDWR","",1,"Umbridae","Umbra pygmaea","Chinkapin Cr, SR 1432","Hertford",36.25299,-76.849297,"NC","36670","2000-35",""
"NCDWR","",15,"Umbridae","Umbra pygmaea","Cutawhiskie Swp, SR 1141","Hertford",36.3258333333333,-77.0883333333333,"NC","36669","2000-33",""
"NCDWR","",1,"Umbridae","Umbra pygmaea","Flat Cr, Manchester Rd","Hoke",35.1825,-79.1775,"NC","37880","2003-58",""
"NCDWR","",10,"Umbridae","Umbra pygmaea","Black Cr, SR 1330","Johnston",35.47388,-78.511628,"NC","34844","95-57",""
"NCDWR","",2,"Umbridae","Umbra pygmaea","Buffalo Cr, SR 1941","Johnston",35.634275,-78.319049,"NC","38460","2005-26",""
"NCDWR","",4,"Umbridae","Umbra pygmaea","Buffalo Cr, SR 1941","Johnston",35.634275,-78.319049,"NC","40296","2010-19",""
"NCDWR","",1,"Umbridae","Umbra pygmaea","Buffalo Cr, SR 1941","Johnston",35.634275,-78.319049,"NC","42123","2015-19",""
"NCDWR","",11,"Umbridae","Umbra pygmaea","Hannah Cr, SR 1162","Johnston",35.3958333333333,-78.4313888888889,"NC","33513","91-28",""
"NCDWR","",6,"Umbridae","Umbra pygmaea","Hannah Cr, SR 1162","Johnston",35.3958333333333,-78.4313888888889,"NC","34844","95-56",""
"NCDWR","",1,"Umbridae","Umbra pygmaea","Little Buffalo Cr, SR 2143","Johnston",35.596441,-78.163427,"NC","38461","2005-27",""
"NCDWR","",1,"Umbridae","Umbra pygmaea","Little Buffalo Cr, SR 2143","Johnston",35.596441,-78.163427,"NC","42123","2015-20",""
"NCDWR","",1,"Umbridae","Umbra pygmaea","Moccasin Cr, NC 231","Johnston",35.729049,-78.207221,"NC","38474","2005-38",""
"NCDWR","",2,"Umbridae","Umbra pygmaea","Moccasin Cr, NC 231","Johnston",35.729049,-78.207221,"NC","40297","2010-21",""
"NCDWR","",2,"Umbridae","Umbra pygmaea","Moccasin Cr, NC 231","Johnston",35.729049,-78.207221,"NC","42151","2015-35",""
"NCDWR","",1,"Umbridae","Umbra pygmaea","Beaver Cr, SR 1316","Jones",35.125434,-77.434221,"NC","38477","2005-47",""
"NCDWR","",2,"Umbridae","Umbra pygmaea","Little Chinquapin Br, SR 1131","Jones",35.061623,-77.463181,"NC","33435","91-19",""
"NCDWR","",2,"Umbridae","Umbra pygmaea","Little Chinquapin Br, SR 1131","Jones",35.061623,-77.463181,"NC","38488","2005-51",""
"NCDWR","",1,"Umbridae","Umbra pygmaea","Mill Run, NC 58","Jones",35.0058333333333,-77.2813888888889,"NC","38489","2005-53",""
"NCDWR","",2,"Umbridae","Umbra pygmaea","Musselshell Cr, SR 1320","Jones",35.107614,-77.329875,"NC","34926","95-79",""
"NCDWR","",2,"Umbridae","Umbra pygmaea","Trent R, SR 1130","Jones",35.051963,-77.567513,"NC","38477","2005-46",""
"NCDWR","",8,"Umbridae","Umbra pygmaea","Tuckahoe Swp, SR 1142","Jones",35.032226,-77.579442,"NC","38488","2005-50",""
"NCDWR","",1,"Umbridae","Umbra pygmaea","Bear Cr, SR 1311","Lenoir",35.2488888888889,-77.7844444444444,"NC","35366","96-74",""
"NCDWR","",1,"Umbridae","Umbra pygmaea","Bear Cr, SR 1311","Lenoir",35.2488888888889,-77.7844444444444,"NC","42233","2015-75",""
"NCDWR","",1,"Umbridae","Umbra pygmaea","Falling Cr, SR 1340","Lenoir",35.254258,-77.673141,"NC","34841","95-48",""
"NCDWR","",1,"Umbridae","Umbra pygmaea","Falling Cr, SR 1340","Lenoir",35.254258,-77.673141,"NC","36691","2000-43",""
"NCDWR","",6,"Umbridae","Umbra pygmaea","Falling Cr, SR 1340","Lenoir",35.254258,-77.673141,"NC","38476","2005-45",""
"NCDWR","",2,"Umbridae","Umbra pygmaea","Falling Cr, SR 1340","Lenoir",35.254258,-77.673141,"NC","42233","2015-76",""
"NCDWR","",5,"Umbridae","Umbra pygmaea","UT Turkey Swp, SR 1134","Martin",35.77573,-77.165228,"NC","35521","97-03",""
"NCDWR","",1,"Umbridae","Umbra pygmaea","Jackson Cr, SR 1122","Moore",35.1916666666667,-79.6186111111111,"NC","42492","2016-29",""
"NCDWR","",4,"Umbridae","Umbra pygmaea","Big Peachtree Cr, SR 1310","Nash",36.0316666666667,-78.0763888888889,"NC","34004","93-03",""
"NCDWR","",2,"Umbridae","Umbra pygmaea","Big Peachtree Cr, SR 1321","Nash",36.0477777777778,-78.0966666666667,"NC","35523","97-12",""
"NCDWR","",2,"Umbridae","Umbra pygmaea","Pig Basket Cr, SR 1433","Nash",35.998747,-77.943644,"NC","37364","2002-23",""
"NCDWR","",7,"Umbridae","Umbra pygmaea","Pig Basket Cr, SR 1433","Nash",35.998747,-77.943644,"NC","39182","2007-12",""
"NCDWR","",3,"Umbridae","Umbra pygmaea","Sapony Cr, SR 1145","Nash",35.924601,-78.047501,"NC","35522","97-09",""
"NCDWR","",1,"Umbridae","Umbra pygmaea","Sapony Cr, SR 1145","Nash",35.924601,-78.047501,"NC","37364","2002-24",""
"NCDWR","",4,"Umbridae","Umbra pygmaea","Swift Cr, SR 1310","Nash",36.1116582,-77.9203655,"NC","35531","97-19",""
"NCDWR","",1,"Umbridae","Umbra pygmaea","New R, NC 24","Onslow",34.9185671,-77.616891,"NC","34808","95-26",""
"NCDWR","",2,"Umbridae","Umbra pygmaea","White Oak R, SR 1332","Onslow",34.918568,-77.262179,"NC","34807","95-22",""
"NCDWR","",2,"Umbridae","Umbra pygmaea","White Oak Br, SR 1206","Pender",34.593653,-78.130246,"NC","35934","98-40",""
"NCDWR","",2,"Umbridae","Umbra pygmaea","Chicod Cr, SR 1777","Pitt",35.5458333333333,-77.2102777777778,"NC","33792","92-23",""
"NCDWR","",2,"Umbridae","Umbra pygmaea","Chicod Cr, SR 1777","Pitt",35.5458333333333,-77.2102777777778,"NC","34095","93-14",""
"NCDWR","",4,"Umbridae","Umbra pygmaea","Clayroot Swp, SR 1941","Pitt",35.385,-77.247665,"NC","33415","91-17",""
"NCDWR","",1,"Umbridae","Umbra pygmaea","Clayroot Swp, SR 1941","Pitt",35.385,-77.247665,"NC","34841","95-50",""
"NCDWR","",10,"Umbridae","Umbra pygmaea","Clayroot Swp, SR 1941","Pitt",35.385,-77.247665,"NC","36690","2000-41",""
"NCDWR","",2,"Umbridae","Umbra pygmaea","Clayroot Swp, SR 1941","Pitt",35.385,-77.247665,"NC","42235","2015-83",""
"NCDWR","",1,"Umbridae","Umbra pygmaea","Creeping Swp, NC 43","Pitt",35.391835,-77.230964,"NC","33480","91-23",""
"NCDWR","",15,"Umbridae","Umbra pygmaea","Grindle Cr, US 264","Pitt",35.62462,-77.221288,"NC","37362","2002-16",""
"NCDWR","",1,"Umbridae","Umbra pygmaea","Hardee Cr, NC 33","Pitt",35.594836,-77.322961,"NC","35521","97-06",""
"NCDWR","",1,"Umbridae","Umbra pygmaea","Indian Well Swp, SR 1753","Pitt",35.4594444444445,-77.2838888888889,"NC","42236","2015-84",""
"NCDWR","",5,"Umbridae","Umbra pygmaea","Little Contentnea Cr, SR 2107","Pitt",35.611501,-77.616645,"NC","34842","95-52",""
"NCDWR","",1,"Umbridae","Umbra pygmaea","Little Contentnea Cr, SR 2107","Pitt",35.611501,-77.616645,"NC","38490","2005-58",""
"NCDWR","",1,"Umbridae","Umbra pygmaea","Parker Cr, NC 33","Pitt",35.634381,-77.36338,"NC","39212","2007-53",""
"NCDWR","",1,"Umbridae","Umbra pygmaea","Swift Cr, SR 1753","Pitt",35.4016666666667,-77.3319444444444,"NC","42235","2015-82",""
"NCDWR","",1,"Umbridae","Umbra pygmaea","Tyson Cr, SR 1255","Pitt",35.68693,-77.505072,"NC","39212","2007-54",""
"NCDWR","",1,"Umbridae","Umbra pygmaea","Whichard Br, SR 1521","Pitt",35.700922,-77.342795,"NC","39212","2007-51",""
"NCDWR","",1,"Umbridae","Umbra pygmaea","Naked Cr, SR 1003","Richmond",35.0819444444444,-79.5894444444444,"NC","35216","96-65",""
"NCDWR","",1,"Umbridae","Umbra pygmaea","Ashepole Swp, NC 41","Robeson",34.4119444444444,-79.1222222222222,"NC","35150","96-06",""
"NCDWR","",1,"Umbridae","Umbra pygmaea","Ashepole Swp, SR 2455","Robeson",34.4466666666667,-79.1661111111111,"NC","33444","91-21",""
"NCDWR","",3,"Umbridae","Umbra pygmaea","Crane Cr, SR 1146","Sampson",34.881454,-78.281467,"NC","39561","2008-25",""
"NCDWR","",1,"Umbridae","Umbra pygmaea","Big Shoeheel Cr, SR 1433","Scotland",34.8038888888889,-79.3766666666667,"NC","38861","2006-62",""
"NCDWR","",1,"Umbridae","Umbra pygmaea","Joes Cr, NC 79","Scotland",34.7652777777778,-79.5755555555556,"NC","38862","2006-65",""
"NCDWR","",1,"Umbridae","Umbra pygmaea","Little Shoeheel Cr, SR 1405","Scotland",34.8680555555556,-79.3988888888889,"NC","33511","91-25",""
"NCDWR","",2,"Umbridae","Umbra pygmaea","Buffalo Cr, SR 1007","Wake",35.7755555555556,-78.3836111111111,"NC","38464","2005-34",""
"NCDWR","",1,"Umbridae","Umbra pygmaea","Moccasin Cr, SR 1001","Wake",35.8958333333333,-78.3111111111111,"NC","33395","91-12",""
"NCDWR","",1,"Umbridae","Umbra pygmaea","Newlight Cr, SR 1911","Wake",36.027086,-78.601313,"NC","40274","2010-03",""
"NCDWR","",1,"Umbridae","Umbra pygmaea","Smith Cr, SR 2045","Wake",35.91836,-78.534543,"NC","38447","2005-09",""
"NCDWR","",1,"Umbridae","Umbra pygmaea","Walnut Cr, South State Street","Wake",35.7579374,-78.6237734,"NC","40289","2010-12",""
"NCDWR","",2,"Umbridae","Umbra pygmaea","Walnut Cr, South State Street","Wake",35.7579374,-78.6237734,"NC","42122","2015-16",""
"NCDWR","",1,"Umbridae","Umbra pygmaea","Little Fishing Cr, SR 1509","Warren",36.3658333333333,-77.9433333333333,"NC","39184","2007-17",""
"NCDWR","",3,"Umbridae","Umbra pygmaea","Sixpound Cr, SR 1306","Warren",36.5100819,-78.0798009,"NC","41802","2014-45",""
"NCDWR","",1,"Umbridae","Umbra pygmaea","Smith Cr, US 1","Warren",36.5407,-78.195273,"NC","34466","94-18",""
"NCDWR","",4,"Umbridae","Umbra pygmaea","Smith Cr, US 1","Warren",36.5407002,-78.1952725,"NC","38106","2004-29",""
"NCDWR","",2,"Umbridae","Umbra pygmaea","Main Canal, SR 1180","Washington",35.8488888888889,-76.5613888888889,"NC","34757","95-01",""
"NCDWR","",2,"Umbridae","Umbra pygmaea","Beaverdam Cr, SR 1007","Wayne",35.3858333333333,-78.0936111111111,"NC","38475","2005-43",""
"NCDWR","",2,"Umbridae","Umbra pygmaea","Beaverdam Cr, SR 1007","Wayne",35.3858333333333,-78.0936111111111,"NC","42151","2015-37",""
"NCDWR","",2,"Umbridae","Umbra pygmaea","Nahunta Swp, SR 1537","Wayne",35.511856,-77.948397,"NC","38462","2005-28",""
"NCDWR","",2,"Umbridae","Umbra pygmaea","Nahunta Swp, SR 1537","Wayne",35.511856,-77.948397,"NC","42124","2015-25",""
"NCDWR","",2,"Umbridae","Umbra pygmaea","Stoney Cr, SR 1920","Wayne",35.348413,-77.979891,"NC","34900","95-68",""
"NCDWR","",2,"Umbridae","Umbra pygmaea","Stoney Cr, SR 1920","Wayne",35.348413,-77.979891,"NC","36633","2000-15",""
"NCDWR","",2,"Umbridae","Umbra pygmaea","Stoney Cr, SR 1920","Wayne",35.348413,-77.979891,"NC","38462","2005-29",""
"NCDWR","",2,"Umbridae","Umbra pygmaea","Stoney Cr, SR 1920","Wayne",35.348413,-77.979891,"NC","42123","2015-21",""
"NCDWR","",3,"Umbridae","Umbra pygmaea","The Slough, SR 1535","Wayne",35.470531,-77.88345,"NC","36671","2000-37",""
"NCDWR","",2,"Umbridae","Umbra pygmaea","The Slough, SR 1535","Wayne",35.470531,-77.88345,"NC","38462","2005-30",""
"NCDWR","",6,"Umbridae","Umbra pygmaea","Thoroughfare Swp, SR 1120","Wayne",35.253636,-78.114215,"NC","34900","95-69",""
"NCDWR","",3,"Umbridae","Umbra pygmaea","Hominy Swp, SR 1606","Wilson",35.692277,-77.905827,"NC","34914","95-75",""
"NCDWR","",3,"Umbridae","Umbra pygmaea","Hominy Swp, SR 1606","Wilson",35.692277,-77.905827,"NC","42124","2015-24",""
"NCDWR","",1,"Umbridae","Umbra pygmaea","Toisnot Swp, NC 222","Wilson",35.6119444444444,-77.8052777777778,"NC","34912","95-73",""
"NCDWR","",1,"Umbridae","Umbra pygmaea","Toisnot Swp, NC 42","Wilson",35.734501,-77.890195,"NC","33394","91-09",""
"NCDWR","",4,"Umbridae","Umbra pygmaea","Toisnot Swp, US 264","Wilson",35.678029,-77.846041,"NC","33394","91-08",""
"NCDWR","",1,"Umbridae","Umbra pygmaea","Toisnot Swp, US 264","Wilson",35.678029,-77.846041,"NC","38475","2005-41",""
"NCDWR","",1,"Umbridae","Umbra pygmaea","Toisnot Swp, US 264","Wilson",35.678029,-77.846041,"NC","42151","2015-36",""
"NCSM","255",1,"Umbridae","Umbra pygmaea","[East] Mingo Creek, [ca. 2.0 air miles NW center Benson], [see remarks]","Johnston",35.40401,-78.5721817016602,"North Carolina","19 November 1923","FISH1-0224","CS Brimley and WB Mabee"
"NCSM","256",1,"Umbridae","Umbra pygmaea","[?=Neuse River], Goldsboro, [ca. 1.8 air miles WSW center Goldsboro], [see remarks]","Wayne",35.3764,-78.0226974487305,"North Carolina","14 April 1925","FISH1-0229","CS Brimley"
"NCSM","257",1,"Umbridae","Umbra pygmaea","Havelock","Craven",34.8827,-76.904899597168,"North Carolina","17 April 1925","FISH1-0335","CS Brimley"
"NCSM","258",1,"Umbridae","Umbra pygmaea","Hintons Falls, [Neuse River], Raleigh, [ca. 6.0 air miles ESE center Raleigh]","Wake",35.7502,-78.5462036132812,"North Carolina","21 December 1923","FISH1-0171","CS Brimley and WB Mabee"
"NCSM","259",2,"Umbridae","Umbra pygmaea","[unnamed trib. Of Collie Swamp], Everetts, [ca. 6.8 air miles WSW center Williamston]","Martin",35.8349,-77.1735992431641,"North Carolina","23 October 1924","FISH1-0199","CS Brimley"
"NCSM","260",4,"Umbridae","Umbra pygmaea","Raleigh, [see remarks]","Wake",35.7801,-78.638801574707,"North Carolina","12 November 1923","FISH1-0233","CS Brimley and WB Mabee"
"NCSM","261",4,"Umbridae","Umbra pygmaea","Raleigh, [see remarks]","Wake",35.7801,-78.638801574707,"North Carolina","03 December 1924","FISH1-0164","CS Brimley and WB Mabee"
"NCSM","262",2,"Umbridae","Umbra pygmaea","[?Tributary to Neuse R. near] Fort Barnwell, [ca. 14.0 air miles ENE center Kinston], [see remarks]","Craven",35.2912,-77.3350982666016,"North Carolina","18 April 1925","FISH1-0235","CS Brimley"
"NCSM","263",1,"Umbridae","Umbra pygmaea","[Roanoke River], Jamesville, [ca. 9.4 air miles SE center Williamston]","Martin",35.8113,-76.896598815918,"North Carolina","23 October 1924","FISH1-0161","CS Brimley"
"NCSM","264",1,"Umbridae","Umbra pygmaea","Pungo Lake, [ca. 15.1 air miles SE center Plymouth]","Hyde-Washington",35.7156,-76.5556030273438,"North Carolina","27 May 1923","FISH1-0237","CS Brimley and F Sherman"
"NCSM","265",2,"Umbridae","Umbra pygmaea","[? Cashie River], Windsor, [see remarks]","Bertie",35.99863,-76.9430084228516,"North Carolina","21 October 1924","FISH1-0160","CS Brimley"
"NCSM","574",1,"Umbridae","Umbra pygmaea","Rainbow Creek, 1.0 miles SW of Hookerton, [ca. 10.6 air miles N center Kinston]","Greene",35.41481,-77.6010665893555,"North Carolina","05 August 1960","NU-F9-4","NCWRC (Bayless)"
"NCSM","583",2,"Umbridae","Umbra pygmaea","Thoroughfare Swamp, 4.0 miles W Dudley, [ca. 10.7 air miles SW center Goldsboro]","Wayne",35.26242,-78.1082305908203,"North Carolina","06 June 1961","NU-F11-2","NCWRC (Bayless)"
"NCSM","663",9,"Umbridae","Umbra pygmaea","Moccasin Creek, at NC 581 [?=SR 1007/Brogden Road] bridge, [ca. 9.5 air miles WSW center Goldsboro], [see remarks]","Johnston",35.39264,-78.1694717407227,"North Carolina","19 June 1961","NU-F11-8","NCWRC (B Smith)"
"NCSM","1188",11,"Umbridae","Umbra pygmaea","Warwick Mill Run [=Jacob Swamp], [ca. 3.9 air] miles SE [center] Lumberton","Robeson",34.57479,-78.9643173217773,"North Carolina","09 June 1961","LU-14I-2","NCWRC"
"NCSM","1205",8,"Umbridae","Umbra pygmaea","Muddy Branch, [ca.] 8.0 [air] miles N [center] Shallotte","Brunswick",34.08899,-78.383544921875,"North Carolina","27 July 1961","LU-12K-8","NCWRC (Louder, Eagerton and Gulish)"
"NCSM","1258",1,"Umbridae","Umbra pygmaea","Horse Creek, on Aberdeen Road [Roseland Road/SR 1112], 1.0 miles E Roseland, [ca. 20.8 air miles NE center Rockingham]","Moore",35.13228,-79.4922180175781,"North Carolina","01 July 1960","LU-16G-4","NCWRC (Louder and Mincey)"
"NCSM","1300",1,"Umbridae","Umbra pygmaea","Bogue Swamp, 1.5 miles SE Hallsboro, [ca. 7.0 air miles ESE center Whiteville]","Columbus",34.30267,-78.587760925293,"North Carolina","24 July 1961","LU-13J-6","NCWRC"
"NCSM","1438",1,"Umbridae","Umbra pygmaea","Big Swamp, 0.5 miles above Lennons Bridge [SR 1002/Old Whiteville Road], [ca. 12.0 air miles SE center Lumberton]","Robeson",34.48476,-78.8749237060547,"North Carolina","27 June 1961","LU-14J-7","NCWRC (Louder, Eagerton and Gulish)"
"NCSM","2111",3,"Umbridae","Umbra pygmaea","Waccamaw River, 2 miles S of Pireway, [ca. 17.3 air miles SE center Tabor City]","Brunswick-Columbus",33.99831,-78.6352767944336,"North Carolina","09 August 1961","LU-13K-10","NCWRC"
"NCSM","2406",4,"Umbridae","Umbra pygmaea","Big Creek [=Friar Swamp], 3.0 miles [W] Bolton, [ca. 14.2 air miles E center Whiteville], [see remarks]","Columbus",34.32228,-78.4548950195312,"North Carolina","24 July 1961","LU-12J-1","NCWRC (Louder, Eagerton and Gulish)"
"NCSM","2476",1,"Umbridae","Umbra pygmaea","Ellis Creek, off NC 53, [ca. 4.8 air] miles SE [center] White Oak, [ca. 5.4 air miles NW center Elizabethtown]","Bladen",34.69255,-78.6602783203125,"North Carolina","14 June 1962","CF-13I-6","NCWRC (Louder, Phillips and Eagerton)"
"NCSM","2498",1,"Umbridae","Umbra pygmaea","Beaverdam Swamp, [ca.] 5.0 miles SSE Dunn","Sampson",35.23522,-78.5901336669922,"North Carolina","17 August 1962","CF-13G-7","NCWRC (Louder, Phillips and Eagerton)"
"NCSM","2654",3,"Umbridae","Umbra pygmaea","Cedar Creek, at town of Cedar Creek, [ca. 10.7 air miles SE center Fayetteville]","Cumberland",34.9516,-78.7556991577148,"North Carolina","13 June 1962","CF-14H-6","NCWRC (Louder, Phillips and Eagerton)"
"NCSM","2674",1,"Umbridae","Umbra pygmaea","Beaver Creek, off US Highway 401, [ca.] 4.0 air miles NE center Raeford","Hoke",35.00958,-79.1649856567383,"North Carolina","09 July 1962","CF-15G-3","NCWRC (Louder, Phillips and Eagerton)"
"NCSM","2741",1,"Umbridae","Umbra pygmaea","Hannah Creek, 1.0 miles S of US 301, [ca. 10.7 air miles SW center Smithfield]","Johnston",35.40755,-78.4837341308594,"North Carolina","15 June 1961","NU-F12-4","NCWRC (Smith)"
"NCSM","2941",1,"Umbridae","Umbra pygmaea","Flooded ditch, 9.0 miles NE Bolivia [ca. 8.24 air miles WSW center Wilmington]","Brunswick",34.1857,-78.0799026489258,"North Carolina","12 February 1966","P-66-2","William M. Palmer and JD Kane"
"NCSM","3273",1,"Umbridae","Umbra pygmaea","Roadside canal along River Road (SSR 1100), 5.0 miles S Wilmington","New Hanover",34.1548,-77.9413986206055,"North Carolina","06 August 1966","P-66-9","RM Johnson"
"NCSM","3274",3,"Umbridae","Umbra pygmaea","Roadside canal along Highway 211 [Green Swamp Road], 7.5 miles NNW Supply, [ca. 10.9 air miles NE center Shallotte]","Brunswick",34.1199,-78.3190002441406,"North Carolina","07 August 1966","P-66-10","William M. Palmer and RM Johnson"
"NCSM","3512",18,"Umbridae","Umbra pygmaea","Beaverdam Creek, 5.0 miles S Cox Mill, [ca. 4.7 air] miles WSW [center] Grantham, [ca. 16.0 air miles WSW center Goldsboro], [see remarks]","Wayne",35.2685,-78.2389755249023,"North Carolina","12 June 1961","NU-F11-3","NCWRC (Smith)"
"NCSM","3526",1,"Umbridae","Umbra pygmaea","Beaverdam Creek, [ca. 2.7 air] miles W of Rosewood, [ca. 7.4 air miles WNW center Goldsboro]","Wayne",35.41348,-78.1188888549805,"North Carolina","13 June 1961","NU-F11-9","NCWRC (Smith)"
"NCSM","3715",1,"Umbridae","Umbra pygmaea","Mill Creek, NC 50 bridge, [ca. 15.6 air miles SSW center Smithfield]","Johnston",35.28956,-78.4090118408203,"North Carolina","14 June 1961","NU-F12-1","NCWRC (Smith)"
"NCSM","3983",2,"Umbridae","Umbra pygmaea","Brooks Swamp, [ca. 3.1 air] miles W of Dudley, [ca. 9.9 air miles SW center Goldsboro]","Wayne",35.267,-78.0922012329102,"North Carolina","12 June 1961","NU-F11-1","NCWRC (Smith)"
"NCSM","4766",1,"Umbridae","Umbra pygmaea","Roadside ditch off of SSR 1100 [River Road], ca. 4.0 miles NNW Carolina Beach [ca. 9.4 air miles SSE center Wilmington]","New Hanover",34.09,-77.9210968017578,"North Carolina","29 February 1968","FISH1-0467","William M. Palmer"
"NCSM","4778",25,"Umbridae","Umbra pygmaea","White Marsh, first bridge on SR 1001 [Hallsboro Road S], [ca. 5.5] air miles [SSW center] Hallsboro, [ca. 8.1 air miles SE center Whiteville]","Columbus",34.24465,-78.6173477172852,"North Carolina","14 May 1968","WMP-68-2","William M. Palmer, DE Louder and JR Davis"
"NCSM","5468",3,"Umbridae","Umbra pygmaea","Juniper Branch at Forest Service Road 177 (Croatan National Forest), 5.75 air miles W Newport, [see remarks]","Carteret",34.7783,-76.9619979858398,"North Carolina","11 April 1970","FISH2-0026","William M. Palmer, PE Moran and Alvin L. Braswell"
"NCSM","5624",10,"Umbridae","Umbra pygmaea","Cypress swamp along Northeast Cape Fear River, 3.5 miles E Wallace, [ca. 28.5 air miles W center Jacksonville]","Duplin",34.7377,-77.9327011108398,"North Carolina","09 October 1971","FISH2-0033","DL Stephan"
"NCSM","5655",1,"Umbridae","Umbra pygmaea","[?=Scuppernong River at US 64 bridge] near Columbia","Tyrrell",35.9181,-76.2554016113281,"North Carolina","10 June 1972","FISH2-0037","DL Stephan"
"NCSM","6042",3,"Umbridae","Umbra pygmaea","Small pool in almost dry canal bed, SR 1828 [Cypress Creek Road], 125 yards NW Nine Mile Creek bridge, 0.75 air miles NW Cypress Creek (town), [ca. 15.9 air miles W center Jacksonville]","Duplin",34.7607,-77.7097015380859,"North Carolina","04 November 1973","FISH2-0055","William M. Palmer, Alvin L. Braswell and ED Bruner"
"NCSM","6127",8,"Umbridae","Umbra pygmaea","Small pool in almost dry canal bed, SR 1828 [Cypress Creek Road], 125 yards NW Nine Mile Creek bridge, 0.75 air miles NW Cypress Creek (town), [ca. 15.9 air miles W center Jacksonville]","Duplin",34.7607,-77.7097015380859,"North Carolina","05 November 1973","WMP-73-6","William M. Palmer and Alvin L. Braswell"
"NCSM","6302",1,"Umbridae","Umbra pygmaea","Big Muddy Creek, County Road 1328 [Hoffman Road], 0.5 miles S Richmond County line, 2.0 air miles SSW Hoffman","Scotland",35.0029,-79.5382995605469,"North Carolina","08 October 1974","FISH2-0081","William M. Palmer, Alvin L. Braswell and the Coopers"
"NCSM","6342",7,"Umbridae","Umbra pygmaea","Along Rt. 242, 2.6 miles S junction Rt. 411, 4.0 air miles SSW Roseboro","Sampson",34.8986,-78.522102355957,"North Carolina","n/k","FISH2-0088","DL Stephan"
"NCSM","6344",14,"Umbridae","Umbra pygmaea","Lower pond at State Fairgrounds, Raleigh","Wake",35.7971,-78.7162017822266,"North Carolina","11 May 1972","FISH2-0090","DL Stephan"
"NCSM","6350",1,"Umbridae","Umbra pygmaea","Roadside ditch along Rt. 242, 0.3 road miles S junction Rt. 50, 0.75 air miles S center Benson","Johnston",35.37,-78.5400009155273,"North Carolina","19 February 1975","FISH2-0091","William M. Palmer and Alvin L. Braswell"
"NCSM","6448",1,"Umbridae","Umbra pygmaea","Deep Creek, on hard top road [SR 1113/Rose Ridge Road], 2.0 miles [WSW] of Roseland, [ca. 18.2 air miles NE center Rockingham]","Moore",35.12314,-79.5426635742188,"North Carolina","30 June 1960","LU-17G-5","NCWRC"
"NCSM","6639",1,"Umbridae","Umbra pygmaea","Lumber River, at US 74 [SR 130] bridge, [ca. 12.5 air miles SSE center] Lumberton","Columbus-Robeson",34.44258,-78.95947265625,"North Carolina","26 August 1960","LU-14I-1","NCWRC (Louder and Eagerton)"
"NCSM","6707",6,"Umbridae","Umbra pygmaea","Drowning Creek, 3.75 miles NE Hoffman, [ca. 9.3 air miles S center Pinehurst]","Moore-Richmond",35.0606,-79.4907989501953,"North Carolina","02 November 1975","FISH2-0100","Alvin L. Braswell"
"NCSM","8099",2,"Umbridae","Umbra pygmaea","Big Island Swamp [?=Driving Creek], [ca. 6.8 air] miles NW Supply, [ca. 24.6 air miles WSW center Wilmington], [see remarks]","Brunswick",34.09335,-78.3443603515625,"North Carolina","19 July 1961","SH-12K-9","NCWRC"
"NCSM","6857",1,"Umbridae","Umbra pygmaea","Bridgers Swamp, [ca. 5.6 air] miles SW of Bladenboro, [ca. 13.4 air miles SE center Lumberton], [see remarks]","Bladen-Columbus",34.47626,-78.8490829467773,"North Carolina","06 June 1961","LU-14J-8","NCWRC"
"NCSM","6891",3,"Umbridae","Umbra pygmaea","Creek off Rt. 15-501, 5.0 air miles SW Ashley Heights","Hoke",35.0406,-79.4365005493164,"North Carolina","03 January 1976","FISH2-0102","Alvin L. Braswell"
"NCSM","6965",1,"Umbridae","Umbra pygmaea","Unnamed tributary to Lockwood Folly River, [ca. 1.6 air] miles NE Varnum Town, [ca. 12.5 air miles W center Southport]","Brunswick",33.95552,-78.2341537475586,"North Carolina","06 July 1961","SH-12L-8","NCWRC"
"NCSM","7059",4,"Umbridae","Umbra pygmaea","Along NE Cape Fear River, 3.5 miles E Wallace","Duplin",34.7377,-77.9327011108398,"North Carolina","13 April 1974","FISH2-0133","Alvin L. Braswell and DL Stephan"
"NCSM","7155",3,"Umbridae","Umbra pygmaea","Buffalo Creek to 0.75 miles upstream from Moore County line (off County Road 1111), 5.5 air miles SSW Johnsonville","Harnett",35.2292,-79.1163024902344,"North Carolina","23 July 1977","FISH2-0147","William M. Palmer, Alvin L. Braswell, et al."
"NCSM","7233",4,"Umbridae","Umbra pygmaea","Little River, just N County Road 2224 bridge [Mitchell Mill Road], 4.0 air miles E Rolesville","Wake",35.9138,-78.3872985839844,"North Carolina","17 November 1977","FISH2-0156","Alvin L. Braswell, Raymond E. Ashton"
"NCSM","8172",98,"Umbridae","Umbra pygmaea","In muck of drying roadside ditch, 1.0 miles SE Delway, along US 421, [ca. 15.9 air miles SSE center Clinton]","Sampson",34.7871,-78.2114028930664,"North Carolina","23 September 1978","FISH2-0283","Alvin L. Braswell"
"NCSM","8284",1,"Umbridae","Umbra pygmaea","Joshua Branch at SSR 1155 [Fordham Road], 2.0 air miles NE Pleasant Hill","Jones",35.0927,-77.5727996826172,"North Carolina","10-17 January 1979","FISH2-0305","JH Reynolds"
"NCSM","8286",1,"Umbridae","Umbra pygmaea","Neuse River at SSR 1002 [Jones St.], 5.25 air miles SSW LaGrange","Lenoir",35.233,-77.8209991455078,"North Carolina","22 January 1979","FISH2-0306","P Freed"
"NCSM","8293",4,"Umbridae","Umbra pygmaea","Thoroughfare Swamp at Rt. 13 bridge, 4.25 air miles WNW Dudley","Wayne",35.2929,-78.1091995239258,"North Carolina","13-14 January 1979","FISH2-0309","P Freed"
"NCSM","8304",1,"Umbridae","Umbra pygmaea","Neuse River at SR 1152 bridge (Smith-Grady Road), 5.75 air miles S.SE LaGrange","Lenoir",35.2244,-77.7673034667969,"North Carolina","24-26 January 1979","FISH2-0314","P Freed"
"NCSM","8813",3,"Umbridae","Umbra pygmaea","Little River near SSR 2224 [Mitchell Mill Road] bridge, 4.0 air miles E Rolesville, [ca. 17.2 air miles NE center Raleigh]","Wake",35.9138,-78.3871994018555,"North Carolina","15 November 1979","FISH2-0466","EE Flowers and K Everett"
"NCSM","8820",1,"Umbridae","Umbra pygmaea","Mill Creek at SR 1009 [Devils Racetrack Road], 11.5 air miles SW Princeton","Johnston",35.3509,-78.3044967651367,"North Carolina","15-18 April 1979","FISH2-0468","P Freed"
"NCSM","8332",1,"Umbridae","Umbra pygmaea","Whiteoak Swamp at Rt. 264, 3.0 air miles NW Saratoga","Wilson",35.6684,-77.9931030273438,"North Carolina","04 February 1979","FISH2-0324","P Freed"
"NCSM","8341",1,"Umbridae","Umbra pygmaea","Tuckahoe Swamp at SSR 1146 bridge [Pike Town Road], 6.5 air miles SW Pleasant Hill","Jones",34.9944,-77.6666030883789,"North Carolina","24-29 January 1979","FISH2-0328","JH Reynolds"
"NCSM","8383",1,"Umbridae","Umbra pygmaea","Tuckahoe Swamp at junction US 258 (small bridge), 4.5 air miles SW Pleasant Hill","Jones",35.011,-77.6380996704102,"North Carolina","17-29 January 1979","FISH2-0333","JH Reynolds"
"NCSM","8388",1,"Umbridae","Umbra pygmaea","Island Creek at junction SR 1004 [Island Creek Road], 5.25 air miles ENE center Pollocksville","Jones",35.0272,-77.1345977783203,"North Carolina","15-20 February 1979","FISH2-0335","JH Reynolds"
"NCSM","8398",7,"Umbridae","Umbra pygmaea","Unnamed creek at junction SR 1726 [Boyce Road], 3.4 air miles S Butner","Granville",36.0808,-78.7556991577148,"North Carolina","16 February 1979","FISH2-0879","AP Capparella"
"NCSM","8407",1,"Umbridae","Umbra pygmaea","Black Creek at junction NC 50, 5.5 air miles N Benson","Johnston",35.4622,-78.552001953125,"North Carolina","03 January 1979","FISH2-0342","K Everett"
"NCSM","8448",1,"Umbridae","Umbra pygmaea","Black Creek at SSR 1649 bridge [Little Rock Church Road], 1.25 air miles S Lucama","Wilson",35.6299,-78.006103515625,"North Carolina","22-24 February 1979","FISH2-0357","P Freed"
"NCSM","8462",2,"Umbridae","Umbra pygmaea","Black Creek at Route 117 bridge, 0.75 air miles W town of Black Creek","Wilson",35.6352,-77.947998046875,"North Carolina","25-28 February 1979","FISH2-0363","P Freed"
"NCSM","8479",1,"Umbridae","Umbra pygmaea","Middle Swamp at US 258 bridge, 6.0 air miles ESE Walstonburg","Greene-Pitt",35.5657,-77.598503112793,"North Carolina","11 March 1979","FISH2-0359","P Freed"
"NCSM","9418",1,"Umbridae","Umbra pygmaea","Tar River at SSR 1565 [Grimesland Bridge Road], 1.0 air miles NE Grimesland","Pitt",35.5742,-77.1754989624023,"North Carolina","17-21 March 1980","FISH2-0689","JH Reynolds"
"NCSM","9525",2,"Umbridae","Umbra pygmaea","Little Peachtree Creek at SR 1312 [?=SR 1321/Lancaster Store Road], 3.8 air miles N Spring Hope, [ca. 19.0 air miles WNW center Rocky Mount] [see remarks]","Nash",36.0018,-78.1212997436523,"North Carolina","14-16 April 1980","FISH2-0709","EK Rawls"
"NCSM","9532",2,"Umbridae","Umbra pygmaea","[Big] Peachtree Creek at SR 1323 [Rommie Daniels Road/County Line Road], 3.3 air miles SW Castalia, [ca. 19.2 air miles WNW center Rocky Mount]","Nash",36.0524,-78.1044006347656,"North Carolina","16 April 1980","FISH2-0710","EK Rawls"
"NCSM","9020",1,"Umbridae","Umbra pygmaea","Cokey Swamp, SSR 1003 [Davistown-Mercer Road], 3.0 air miles NNW Pinetops","Edgecombe",35.8339,-77.6512985229492,"North Carolina","13 January 1980","FISH2-0555","RW Mays"
"NCSM","9093",6,"Umbridae","Umbra pygmaea","Conetoe Creek, at SR 1409/[Penny Hill Road], [ca. 5.9] air miles NNE [center] Falkland, [ca. 12.4 air miles NNW center Greenville]","Pitt",35.7743,-77.4636993408203,"North Carolina","22-29 January 1980","FISH2-0590","JH Reynolds"
"NCSM","9127",1,"Umbridae","Umbra pygmaea","Beech Swamp, SSR 1003, 6.4 air miles ESE Enfield","Halifax",36.1454,-77.560302734375,"North Carolina","17-20 February 1980","FISH2-0604","RW Mays"
"NCSM","9224",4,"Umbridae","Umbra pygmaea","Tranters Creek at SSR 1552 [Tucker Bullock Road], 5.0 air miles ENE Stokes","Beaufort-Pitt",35.728,-77.1740036010742,"North Carolina","29 January - 15 February 1980","FISH2-0639","JH Reynolds"
"NCSM","9371",1,"Umbridae","Umbra pygmaea","Swamp of Prince George Creek at NC 132, 1.2 air miles SSE Castle Hayne, [ca. 8.3 air miles NNE center Wilmington]","New Hanover",34.33868,-77.8937606811523,"North Carolina","13 April 1980","ALB-80-1","Alvin L. Braswell and DL Stephan"
"NCSM","9388",1,"Umbridae","Umbra pygmaea","Tar River at SSR 1560 [Yankee Hall Road], 1.5 air miles SE Pactolus, [9.3 air miles E Greenville]","Pitt",35.6072,-77.2154006958008,"North Carolina","17-24 March 1980","FISH2-0682","JH Reynolds"
"NCSM","9536",1,"Umbridae","Umbra pygmaea","Bear Creek at SR 1322 [Rich Road], 2.9 air miles SW Castalia","Nash",36.0544,-78.097900390625,"North Carolina","16 April 1980","FISH2-0711","EK Rawls"
"NCSM","9555",2,"Umbridae","Umbra pygmaea","[Big] Peachtree Creek at SR 1323 [Rommie Daniels Road/County Line Road], 3.3 air miles SW Castalia, [ca. 19.2 air miles WNW center Rocky Mount]","Nash",36.0524,-78.1044006347656,"North Carolina","21 April 1980","FISH2-0717","EK Rawls"
"NCSM","9561",1,"Umbridae","Umbra pygmaea","Back Swamp, at SR 1310 [Edwards Road], 2.75 air miles S Castalia, [ca. 16.6 air miles WNW center Rocky Mount]","Nash",36.0422,-78.0587997436523,"North Carolina","21-24 April 1980","FISH2-0719","EK Rawls"
"NCSM","9637",2,"Umbridae","Umbra pygmaea","Lumber River at US 1 bridge, 3.75 air miles NE Hoffman","Moore-Richmond",35.0608,-79.4941024780273,"North Carolina","15 June 1980","ALB-80-9","Alvin L. Braswell"
"NCSM","9694",1,"Umbridae","Umbra pygmaea","Lake Ellis Simon, [ca. 9.7 kilometers WSW center Havelock]","Craven",34.8486,-77.0009994506836,"North Carolina","23 July 1980","FISH2-0730","R. Wilson Laney, et al."
"NCSM","10169",2,"Umbridae","Umbra pygmaea","Middle Swamp, Route 13, 4.0 air miles SSE center Farmville","Greene-Pitt",35.5413,-77.5671997070312,"North Carolina","13 April 1979","FISH2-0808","JH Reynolds"
"NCSM","10228",2,"Umbridae","Umbra pygmaea","Swampy area along Mountain Creek, below millpond off Route 211, 1.25 air miles SW McCain","Hoke",35.0327,-79.3759994506836,"North Carolina","30 June 1982","FISH2-0830","MJ Banta"
"NCSM","9919",1,"Umbridae","Umbra pygmaea","Carvers Creek at US 401, [ca.] 2.5 miles SSW of Slocomb, [ca. 7.1 air miles NNE center Fayetteville]","Cumberland",35.16813,-78.8625030517578,"North Carolina","18 July 1962","CF-14G-6","NCWRC"
"NCSM","9948",5,"Umbridae","Umbra pygmaea","Borrow pit along SR 1004 [Hoffman Road], 0.2 miles N Richmond County line, [ca. 8.2] air miles SW [center] Aberdeen","Moore",35.06803,-79.5515441894531,"North Carolina","06 March 1975","ALB-706","Alvin L. Braswell and JH Carter III"
"NCSM","9961",2,"Umbridae","Umbra pygmaea","Beaver pond on Mountain Creek off SSR 1219 [Army Road], 1.75 air miles SW McCain","Hoke",35.0527,-79.3774032592773,"North Carolina","28 May 1981","FISH2-0754","JB Funderburg and DS Lee"
"NCSM","9980",1,"Umbridae","Umbra pygmaea","Mountain Creek, below spring house of millpond off Route 211, 1.0 air miles SW McCain, [ca. 9.6 air miles NW center Raeford]","Hoke",35.0611,-79.3597030639648,"North Carolina","26 October 1981","FISH2-0758","DS Lee, et al."
"NCSM","10023",1,"Umbridae","Umbra pygmaea","Mountain Creek, below millpond off Route 211, 1.0 air miles SW McCain","Hoke",35.0344,-79.3770980834961,"North Carolina","30 December 1981","FISH2-0878","DS Lee and MK Clark"
"NCSM","10035",1,"Umbridae","Umbra pygmaea","Beaver pond on Mountain Creek, off SSR 1219 [Army Road], 1.75 air miles SW McCain","Hoke",35.0527,-79.3774032592773,"North Carolina","23 October 1981","FISH2-0770","DS Lee"
"NCSM","10040",1,"Umbridae","Umbra pygmaea","Beach Branch at SSR 1525 [Hart Farm Road] bridge near junction SSR 1524[Red Oak Battleboro Road], 2.25 air miles SE Gold Hill","Nash",36.0391,-77.7996978759766,"North Carolina","25 February 1982","WMP-82-5","William M. Palmer and EM Smith"
"NCSM","10045",1,"Umbridae","Umbra pygmaea","Small pond along SSR 1103 [Buffalo City Road], near junction Route 64, 3.5 air miles ESE East Lake (town)","Dare",35.8446,-75.9032974243164,"North Carolina","29 April 1982","ALB-82-1","Alvin L. Braswell and JE Wiley"
"NCSM","10058",9,"Umbridae","Umbra pygmaea","Ditch along Route 264, 1.7 road miles S junction Route 64, 3.4 air miles SW Mannes Harbor","Dare",35.8518,-75.8044967651367,"North Carolina","30 April 1982","ALB-82-4","Alvin L. Braswell and JE Wiley"
"NCSM","10059",1,"Umbridae","Umbra pygmaea","Small canal along W side SSR 1103 [Buffalo City Road], 0.6 road miles S junction Route 64, 4.0 air miles SE East Lake (town)","Dare",35.8583,-75.9197006225586,"North Carolina","04 May 1982","ALB-82-5","Alvin L. Braswell and DL Stephan"
"NCSM","10065",1,"Umbridae","Umbra pygmaea","Flooded rut along Milltail Road, 1.55 road miles S junction Twiford Road, 6.0 air miles SE East Lake (town)","Dare",35.8376,-75.8809967041016,"North Carolina","23 April 1982","JEW63","JE Wiley"
"NCSM","10307",2,"Umbridae","Umbra pygmaea","Ditch along Route 24, 0.9 road miles E eastern junction SSR 1744 [Hubert Road], 4.4 air miles WNW Swansboro","Onslow",34.7169,-77.1925964355469,"North Carolina","15 November 1982","FISH2-0840","DL Stephan"
"NCSM","10438",2,"Umbridae","Umbra pygmaea","South River at SR 1502 [Melvins Bridge Road], [ca. 6.7] air miles ENE [center] Ammon, [ca. 29.1 air miles SE center Fayetteville]","Bladen-Sampson",34.82136,-78.4656143188477,"North Carolina","08 April 1983","FISH3-0004","DS Lee, et al."
"NCSM","10797",1,"Umbridae","Umbra pygmaea","Grissett Swamp near SSR 1005 [Peacock Road], 0.75 air miles NE Iron Hill","Columbus",34.1457,-78.7828979492188,"North Carolina","19 & 21 September 1983","FISH3-0478","C Wilson and B Adams"
"NCSM","10862",2,"Umbridae","Umbra pygmaea","Tributary to NE Cape Fear River along US 421 ca. 0.25 road miles S Pender County line, 7.25 air miles NNW center Wilmington","New Hanover",34.3311,-77.9814987182617,"North Carolina","10 August 1983","ALB-83-8","Alvin L. Braswell and SD Smith"
"NCSM","10864",5,"Umbridae","Umbra pygmaea","Greenfield Lake ca. 1.75 air miles SSE center Wilmington","New Hanover",34.2091,-77.9336013793945,"North Carolina","26 January 1984","ALB-84-2","Alvin L. Braswell and DL Stephan"
"NCSM","10561",1,"Umbridae","Umbra pygmaea","Limesink pond (#60) Sunny Point Military Ocean Terminal, 5.75 air miles NNE Southport","Brunswick",33.9544,-78.004997253418,"North Carolina","04 August 1983","FISH3-0026","B Adams and C Wilson"
"NCSM","10741",2,"Umbridae","Umbra pygmaea","Cawcaw Swamp, [ca. 2.1 air] miles SE Longwood, [ca. 7.5 air miles W center Shallotte]","Brunswick",33.98232,-78.516731262207,"North Carolina","14 July 1961","SH-13L-2","NCWRC"
"NCSM","12278",3,"Umbridae","Umbra pygmaea","Dunahoe Bay, 3.5 air miles WNW St. Pauls, off SR 1743 [Covington Farm Road], 0.4 road miles SW junction NC 20, [ca. 14.8 air miles NNW center Lumberton]","Robeson",34.8311,-79.029899597168,"North Carolina","26-28 July 1985","ALB-85-3","Alvin L. Braswell, SD Smith and DF Lockwood"
"NCSM","12350",1,"Umbridae","Umbra pygmaea","Smith Creek at SR 1710 [Lawrence Road], 4.0 air miles SSW Wilton","Granville",36.0881,-78.6026992797852,"North Carolina","04 February 1986","FISH3-0165","Vince P. Schneider, Dave Lenat, et al."
"NCSM","12587",1,"Umbridae","Umbra pygmaea","Carters Canal, 1.0 mile S of the Intracoastal Waterway, [ca. 22.5 air miles S center Columbia]","Hyde",35.59481,-76.1957626342773,"North Carolina","14 July 1964","AL-3E-1","NCWRC (Baker & Smith)"
"NCSM","13730",10,"Umbridae","Umbra pygmaea","Flooded logging road near Saint Claire Creek, 6.4 air miles ESE Bath","Beaufort",35.4546,-76.7419967651367,"North Carolina","25 October 1986","FISH3-0288","RW Gaul, Jr."
"NCSM","13521",1,"Umbridae","Umbra pygmaea","Lonnie Wombles Creek, SR 1500 [Lower River Road], 6.5 air miles NE Colon","Lee",35.5969,-79.0748977661133,"North Carolina","20 September 1984","FISH3-0262","Gerald B. Pottern and T Wenzel"
"NCSM","13826",1,"Umbridae","Umbra pygmaea","Buffalo Creek, SR 1525 [Cornwallis Road], 9.2 air miles SW Clayton","Johnston",35.573,-78.5876998901367,"North Carolina","11 February 1987","FISH3-0304","Vince P. Schneider"
"NCSM","14062",1,"Umbridae","Umbra pygmaea","Tributary to Limestone Creek, off dirt road, 0.75 miles SE junction NC 24, 5.4 air miles ESE Beulaville, [ca. 17.8 air miles NW center Jacksonville], [see remarks]","Duplin",34.9101,-77.6800994873047,"North Carolina","23 April 1987","FISH3-0311","Vince P. Schneider and Harold Quidley"
"NCSM","14064",1,"Umbridae","Umbra pygmaea","Limestone Creek, NC 24, 4.75 air miles [ESE center] Beulaville, [ca. 18.5 air miles NW center Jacksonville]","Duplin",34.9152,-77.6917037963867,"North Carolina","23 April 1987","FISH3-0312","Vince P. Schneider and Harold Quidley"
"NCSM","14150",1,"Umbridae","Umbra pygmaea","Lumber River off SR 1362 [Daystrom Road] at Seaboard Coastline Railroad, 2.75 air miles ESE Maxton","Robeson",34.7286,-79.3087997436523,"North Carolina","28 July 1987","ALB-87-3","Alvin L. Braswell, Vince P. Schneider, et al."
"NCSM","14455",1,"Umbridae","Umbra pygmaea","Swamp at end of SR 1827 [Old Ferry Road], 3.9 miles NE McFarlan","Anson",34.84,-79.9113006591797,"North Carolina","27 November 1986","FISH3-0334","RW Gaul, Jr."
"NCSM","14490",1,"Umbridae","Umbra pygmaea","Small tributary to Toisnot Swamp along SR 1327, 1.75 air miles NE Wilson, ""Foster Forbs Ditch""","Wilson",35.7347,-77.8898010253906,"North Carolina","14 September 1987","FISH3-0344","Vince P. Schneider, et al."
"NCSM","14517",1,"Umbridae","Umbra pygmaea","Lumber River, at SR 1433 bridge [McGirts Bridge Road], 5.0 air miles S Wagram, [ca. 6.7 air miles ENE center Laurinburg]","Robeson-Scotland",34.8152,-79.355224609375,"North Carolina","29 July 1987","FISH3-0348","Alvin L. Braswell, Vince P. Schneider and Harold Quidley"
"NCSM","14630",1,"Umbridae","Umbra pygmaea","Unnamed tributary to Chinkapin Creek, SR 1432, 4.5 air miles SW Harrellsville","Hertford",36.2589,-76.8531036376953,"North Carolina","25 June 1987","FISH3-0360","Vince P. Schneider, Harold Quidley and J Fisher"
"NCSM","14635",5,"Umbridae","Umbra pygmaea","Whiteoak Swamp, SR 1424 [Goodwin Town Road], 4.25 air miles E Ahoskie","Hertford",36.2877,-76.9161987304688,"North Carolina","25 June 1987","FISH3-0361","Vince P. Schneider, Harold Quidley and J Fisher"
"NCSM","15154",7,"Umbridae","Umbra pygmaea","Cypress Creek, SR 1216 [Piney Wood Road], 2.75 air miles NE Wards Corner","Pender",34.566,-78.0423965454102,"North Carolina","13 July 1988","FISH3-0406","Vince P. Schneider, Harold Quidley, J Fisher, S Allen"
"NCSM","15186",4,"Umbridae","Umbra pygmaea","Burgaw Creek, US Rt. 117, 0.8 air miles N center Burgaw","Pender",34.5643,-77.9228973388672,"North Carolina","12 July 1988","FISH3-0409","Vince P. Schneider, Harold Quidley, J Fisher, S Allen"
"NCSM","15195",2,"Umbridae","Umbra pygmaea","Burgaw Creek, SR 1509 [Stag Park Road], 2.0 air miles NE center Burgaw","Pender",34.5649,-77.8926010131836,"North Carolina","12 July 1988","FISH3-0410","Vince P. Schneider, Harold Quidley, J Fisher, S Allen"
"NCSM","15210",3,"Umbridae","Umbra pygmaea","Stony Creek, SR 1560 [?=SR 1556/Wayne Memorial Drive], [ca. 2.3] air miles ENE center Goldsboro, [see remarks]","Wayne",35.39957,-77.9568023681641,"North Carolina","14 July 1988","FISH3-0412","Vince P. Schneider, Harold Quidley, J Fisher, S Allen"
"NCSM","14670",32,"Umbridae","Umbra pygmaea","Tributary to Kirbys Creek, at NC 35, Severn","Northampton",36.4498,-77.2170028686523,"North Carolina","07 June 1988","FISH3-0364","Vince P. Schneider, Harold Quidley and J Fisher"
"NCSM","14678",8,"Umbridae","Umbra pygmaea","Kirbys Creek [?=unnamed tributary], at SR 1356 [Willis Hare Road], 1.5 air miles SE Severn, [see remarks]","Northampton",36.49613,-77.1733932495117,"North Carolina","07 June 1988","FISH3-0365","Vince P. Schneider, Harold Quidley and J Fisher"
"NCSM","14690",18,"Umbridae","Umbra pygmaea","Kirbys Creek at SR 1362 [Watson Mill Road], 3.75 air miles SE Severn","Northampton",36.4687,-77.1429977416992,"North Carolina","07 June 1988","FISH3-0366","Vince P. Schneider, Harold Quidley and J Fisher"
"NCSM","15300",4,"Umbridae","Umbra pygmaea","White Oak Swamp, SR 1428 [White Oak Swamp Road], 2.2 air miles NW Leggett","Edgecombe",36.0044,-77.6196975708008,"North Carolina","27 July 1988","FISH3-0420","Vince P. Schneider, Harold Quidley, J Fisher, S Allen"
"NCSM","15889",1,"Umbridae","Umbra pygmaea","Big Swamp at SR 1246 [Butler Island Road], 2.5 air miles WSW Roseboro","Sampson",34.9158,-78.5519027709961,"North Carolina","05 December 1989","FISH3-0456","Vince P. Schneider, M Wicker, J Fisher, D Goodrich"
"NCSM","15488",2,"Umbridae","Umbra pygmaea","Smaller tributary to E side Loch Dornoch, ca. 1/3 to 1/2 way up from its lower end, Country Club of NC, ca. 3.0 miles W Southern Pines","Moore",35.1746,-79.4434967041016,"North Carolina","22 August 1988","RGA-88-41","Rudolf G. Arndt and KC Zippel"
"NCSM","15713",2,"Umbridae","Umbra pygmaea","Joes Creek, SR 1614 [Gobble Road], 4.2 air miles ESE Hamlet","Richmond",34.8699,-79.6276016235352,"North Carolina","17 March 1989","RGA-89-8","Rudolf G. Arndt, et al."
"NCSM","15728",1,"Umbridae","Umbra pygmaea","Joes Creek, SR 1610 [Peggy Mill Road], 3.75 air miles E.SE center Hamlet","Richmond",34.8799,-79.6259002685547,"North Carolina","17 March 1989","RGA-89-9","Rudolf G. Arndt, et al."
"NCSM","16604",1,"Umbridae","Umbra pygmaea","Moccasin Creek at SR 1001 [Pearces Road], 4.9 air miles N Zebulon","Franklin-Wake",35.89583,-78.3111114501953,"North Carolina","06 June 1991","DWQ-91-12","Vince P. Schneider, M Wicker, P Low, J Fisher"
"NCSM","16382",3,"Umbridae","Umbra pygmaea","Drowning Creek at US Rt. 1, 3.6 air miles SSW Pinebluff","Moore-Richmond",35.0608,-79.4935989379883,"North Carolina","21 June 1990","RGA-90-31","Rudolf G. Arndt and Fred C. Rohde"
"NCSM","16443",2,"Umbridae","Umbra pygmaea","Little Chinquapin Branch at SR 1131 [Plantation Road], 6.25 air miles W Trenton","Jones",35.0615,-77.4621963500977,"North Carolina","16 July 1991","FISH4-0020","J Fisher, P Low, Dave L. Penrose, T Mistle"
"NCSM","16453",4,"Umbridae","Umbra pygmaea","Toisnot Swamp, at US 264, 5.0 air miles SE center Wilson","Wilson",35.67639,-77.8427810668945,"North Carolina","05 June 1991","DWQ-91-08","Vince P. Schneider, J Fisher, P Low, G Price"
"NCSM","16485",1,"Umbridae","Umbra pygmaea","Toisnot Swamp at SR 42 [Herring Avenue E], 1.3 air miles NE center Wilson","Wilson",35.73389,-77.8902740478516,"North Carolina","05 June 1991","DWQ-91-09","Vince P. Schneider, J Fisher, P Low, G Price"
"NCSM","16522",6,"Umbridae","Umbra pygmaea","Clayroot Swamp, at SR 1941 [Clayroot Road], 2.4 air miles SE Calico","Pitt",35.385,-77.2486114501953,"North Carolina","26 June 1991","DWQ-91-17","Vince P. Schneider, M Wicker and P Low"
"NCSM","16551",1,"Umbridae","Umbra pygmaea","Moseley Creek, at SR 1475/SR 1804 [William Pearce Road/Neuse Road], [ca. 9.9 air miles ENE center Kinston]","Craven-Lenoir",35.32993,-77.426628112793,"North Carolina","26 June 1991","DWQ-91-16","Vince P. Schneider, M Wicker, P Low, J Fisher"
"NCSM","16732",1,"Umbridae","Umbra pygmaea","Ashpole Creek at SR 2455 [E Raynham Road], 4.5 air miles SW Fairmont","Robeson",34.44667,-79.1661148071289,"North Carolina","25 July 1991","DWQ-91-21","Vince P. Schneider, Harold Quidley, J Fisher, P Low and J Georgino"
"NCSM","16811",1,"Umbridae","Umbra pygmaea","Big Shoe Heel Creek at SR 1405 [Old Wire Road], 2.4 air miles SW Wagram","Scotland",34.86806,-79.3988876342773,"North Carolina","30 September 1991","DWQ-91-25","Vince P. Schneider, Harold Quidley, J Fisher, G Price"
"NCSM","16927",11,"Umbridae","Umbra pygmaea","Hannah Creek at SR 1162 [Hockaday Road], 6.75 air miles E center Benson","Johnston",35.39583,-78.4313888549805,"North Carolina","02 October 1991","DWQ-91-28","Vince P. Schneider, Harold Quidley, J Fisher, Dave L. Penrose"
"NCSM","16980",1,"Umbridae","Umbra pygmaea","Creeping Swamp at NC 43, 2.4 air miles SE Calico, [ca. 14.7 air miles SW center Washington]","Craven-Pitt",35.39139,-77.2322235107422,"North Carolina","17 September 1991","DWQ-91-23","Vince P. Schneider, Harold Quidley, J Fisher, P Low and K Trumbower"
"NCSM","17061",2,"Umbridae","Umbra pygmaea","Depression meadow/sinkhole pond, Camp Lejeune, 876336 mile coordinates, 6.4 air miles S Piney Green [Off Weil Point Road & Well Camp Road], [ca. 11.0 air miles SE center Jacksonville]","Onslow",34.6244,-77.3180999755859,"North Carolina","21 March 1992","FISH4-0024","SD Smith"
"NCSM","17409",1,"Umbridae","Umbra pygmaea","Juniper Creek at SR 1928 [Dock Road]/SR 1333 [Kingtown Road NW], 4.9 miles NW center Exum","Brunswick-Columbus",34.1542,-78.5322036743164,"North Carolina","11 December 1991","DWQ-91-32","Vince P. Schneider, Harold Quidley, J Fisher, J Giorgino"
"NCSM","17492",1,"Umbridae","Umbra pygmaea","Cool Run at US 17 [Ocean Highway W], 5.1 miles WSW Supply, [ca. 4.8 air miles WSW center Shallotte]","Brunswick",33.9522,-78.4649963378906,"North Carolina","28 April 1992","DWQ-92-10","Vince P. Schneider, Mark Hale, J Fisher, E Williams"
"NCSM","17564",4,"Umbridae","Umbra pygmaea","Porter Swamp, at SR 1503 [Homer Nance Road], 5.35 air miles NE center Fair Bluff, [ca. 18.0 air miles S center Lumberton]","Columbus",34.36028,-78.9625015258789,"North Carolina","29 April 1992","DWQ-92-15","Vince P. Schneider, Mark Hale, J Fisher, E Williams"
"NCSM","17982",2,"Umbridae","Umbra pygmaea","Chicod Creek at SR 1777 [Chicod Street Ext], 1.7 air miles SW Grimesland","Pitt",35.54583,-77.2102813720703,"North Carolina","07 July 1992","DWQ-92-23","Vince P. Schneider, Mark Hale, J Fisher, T Cady"
"NCSM","18109",2,"Umbridae","Umbra pygmaea","Otter Creek, at SR 1614 [Edgewood Church Road], 4.55 air miles ESE Macclesfield","Edgecombe",35.72667,-77.5969467163086,"North Carolina","08 July 1992","DWQ-92-24","Vince P. Schneider, Mark Hale, J Fisher, T Cady"
"NCSM","18129",1,"Umbridae","Umbra pygmaea","Town Creek, at NC 43, 2.4 air miles NW Pinetops, [ca. 8.6 air miles SW center Tarboro]","Edgecombe",35.82222,-77.6597213745117,"North Carolina","08 July 1992","DWQ-92-25","Vince P. Schneider, Mark Hale, J Fisher, T Cady"
"NCSM","18225",1,"Umbridae","Umbra pygmaea","Slap Swamp at SR 1740 [Old Lake Road], 2.5 air miles NE Lake Waccamaw (town)","Columbus",34.3509,-78.4884033203125,"North Carolina","21 August 1989","FCR-89-38","Fred C. Rohde and Rudolf G. Arndt"
"NCSM","18507",4,"Umbridae","Umbra pygmaea","[Big] Peachtree Creek, at SR 1310 [Edwards Road], 3.7 air miles SSW Castalia, [ca. 7.3 air miles NW center Nashville]","Nash",36.03167,-78.0763854980469,"North Carolina","04 February 1993","DWQ-93-03","Vince P. Schneider, Mark Hale, Dave L. Penrose, D Bowden"
"NCSM","18567",4,"Umbridae","Umbra pygmaea","Hoggard Mill [Creek], [ca. 6.7 kilometers NNE center Windsor]","Bertie",36.05134,-76.9216079711914,"North Carolina","02 July 1974","1-2-1P","Chris Ellis"
"NCSM","18594",3,"Umbridae","Umbra pygmaea","Womble Creek [Lonnie Wombles Creek] at SR 1002 [Lower Moncure Rd], 6.8 air miles NE Colon, [ca. 9.5 air miles NE center Sanford]","Lee",35.5952,-79.0903015136719,"North Carolina","30 April 1993","RP-93-1","R and DB Pegram"
"NCSM","18600",3,"Umbridae","Umbra pygmaea","Unnamed tributary [to Lonnie Wombles Creek] at SR 1002 [Lower Moncure Road] (east side), 100 yards N SR 1502 [Ragan Road], 5.5 air miles NE Colon, [ca. 9.0 air miles NE center Sanford]","Lee",35.587,-79.0888977050781,"North Carolina","30 April 1993","RP-93-2","R and DB Pegram"
"NCSM","18602",9,"Umbridae","Umbra pygmaea","Womble Creek [Lonnie Wombles Creek] at SR 1500 [Lower River Road], 6.5 air miles NE Colon, [10.0 air miles NE center Sanford]","Lee",35.597,-79.0753021240234,"North Carolina","30 April 1993","RP-93-3","R and DB Pegram"
"NCSM","18623",12,"Umbridae","Umbra pygmaea","Natural pond off NC 306, near ferry landing, ca. 5.4 air miles NNE Aurora","Beaufort",35.3758,-76.7492980957031,"North Carolina","10 June 1993","FISH4-0050","Alvin L. Braswell, et al."
"NCSM","18781",7,"Umbridae","Umbra pygmaea","Gulf Creek tributary at SR 1924 [Moncure Flat Road], 1.6 air miles NW center Corinth","Chatham",35.5854,-79.0178985595703,"North Carolina","22 April 1993","DWQ-93-10","Vince P. Schneider, J Fisher, Harold Quidley, Cathy Tyndall"
"NCSM","19299",10,"Umbridae","Umbra pygmaea","Tributary to New River [=Millstone Creek], Camp Lejeune, Great Sandy Run Area, 2.2 air miles NNE Dixon","Onslow",34.6167,-77.4699935913086,"North Carolina","08 April 1993","ALB-93-1","Alvin L. Braswell and SD Smith"
"NCSM","19646",3,"Umbridae","Umbra pygmaea","Mill Creek at Highway 50 bridge, 3.0 miles ESE Parkers Mill, (10.25 air miles SE Benson)","Johnston",35.2896,-78.4093017578125,"North Carolina","21 July 1990","FISH4-0062","G DeBusk and J Sullivan"
"NCSM","19975",1,"Umbridae","Umbra pygmaea","Roadside ditch [along SR 1124, Nine Foot Road], 3.5 miles W junction FSR 139 (Hibbs Road) and FSR 154-1 [Cedar Swamp Road], [ca. 4.0 air miles WSW center Newport]","Carteret",34.76716,-76.9294357299805,"North Carolina","12 July 1971","JRH-CP-6F","JR Harrison and students"
"NCSM","19976",22,"Umbridae","Umbra pygmaea","Small brook [=Bethel Creek] along SR 1101 [E Bear Swamp Road], at railroad crossing, ca. 2.0 miles [NNW] US 17, [ca. 7.4] kilometers SW [center] Hertford","Perquimans",36.14224,-76.5233383178711,"North Carolina","19 June 1964","B64-12","Joseph R. Bailey and S 226 students"
"NCSM","19977",16,"Umbridae","Umbra pygmaea","[Roadside ditch] on Route 41, 2.5 miles E White Lake, [ca. 31.8 air miles ENE center Lumberton]","Bladen",34.6619,-78.4511032104492,"North Carolina","01 April 1966","FISH4-0076","Duke University students"
"NCSM","19978",9,"Umbridae","Umbra pygmaea","[Roadside ditch, along] Catfish Lake Road (SR 1100), 3.0 miles [WSW] Croatan, [ca. 13.7 kilometers NW center Havelock]","Craven",34.955,-77.0188980102539,"North Carolina","23 March 1972","FISH4-0059","Joseph R. Bailey and students"
"NCSM","19979",3,"Umbridae","Umbra pygmaea","New Hope [Creek], just S of Farrington, [ca. 13.9 kilometers SSE center of Chapel Hill], [see georeference remarks]","Chatham",35.79354,-79.013053894043,"North Carolina","24 April 1949","B49-22","Joseph R. Bailey, A.T. Davison"
"NCSM","19980",4,"Umbridae","Umbra pygmaea","Tributary to White Oak River, at bridge on NC 58, [5.9] miles SE Maysville, [ca. 25.6 kilometers ENE center Jacksonville]","Jones",34.83629,-77.1693649291992,"North Carolina","08 October 1966","B66-14","Joseph R. Bailey and Zool 238 students"
"NCSM","19981",8,"Umbridae","Umbra pygmaea","Small spring [=Browns Branch] opposite cemetery, 2.0 miles SW Laurel Hill, [ca. 10.3 kilometers WNW center Laurinburg]","Scotland",34.78821,-79.5719909667969,"North Carolina","28 March 1962","B62-3","Joseph R. Bailey, P Bartlett"
"NCSM","19982",32,"Umbridae","Umbra pygmaea","Roadside ditch, Catfish Lake Rd [SR 1100], 0.25 miles W Craven County line, 6.75 miles E Maysville, [ca. 12.1 air miles W center Havelock]","Jones",34.8726,-77.1138000488281,"North Carolina","24 April 1970","FISH4-0078","Joseph R. Bailey and students"
"NCSM","19983",12,"Umbridae","Umbra pygmaea","Roadside ditch, [on] Catfish Lake Road [SR 1100], 0.25 miles [WSW] Craven County line, [ca. 19.5 kilometers WNW center Havelock]","Jones",34.90491,-77.1121826171875,"North Carolina","24 June 1970","B70-8","Joseph R. Bailey and students"
"NCSM","19987",1,"Umbridae","Umbra pygmaea","Singletary Lake, [ca. 13.6 kilometers ESE center Elizabethtown]","Bladen",34.59235,-78.4609909057617,"North Carolina","15 March 1957","W57-1","TL Wellborn"
"NCSM","19988",13,"Umbridae","Umbra pygmaea","[Roadside ditch] ca. 4.0 miles E White Lake Post Office, [ca. 33.0 air miles ENE center Lumberton]","Bladen",34.6779,-78.4330978393555,"North Carolina","25 April 1958","FISH4-0080","Joseph R. Bailey and students"
"NCSM","19989",1,"Umbridae","Umbra pygmaea","Mill Run, at NC 58, between Trenton and Pollocksville, [ca. 24.5 kilometers WSW center New Bern]","Jones",35.0061,-77.2810287475586,"North Carolina","11 October 1968","B68-22","Joseph R. Bailey and Zoo 238 class"
"NCSM","19990",2,"Umbridae","Umbra pygmaea","Roadside ditches on Catfish Lake Road [SR 1100, FR 36], 8.3 miles WSW Croatan, [ca. 13.9 air miles SSW center New Bern]","Craven",34.9125,-77.0975036621094,"North Carolina","14 July 1971","JRH-CP-19E","JR Harrison and students"
"NCSM","19991",1,"Umbridae","Umbra pygmaea","Roadside ditch along Catfish Lake Road [SSR 1100], just W Craven County line, ca. 7.0 miles E Maysville, [ca. 12.1 air miles W center Havelock]","Jones",34.8726,-77.1138000488281,"North Carolina","25 March 1972","FISH4-0139","Joseph R. Bailey and students"
"NCSM","19992",1,"Umbridae","Umbra pygmaea","Outlet of Broadacres Lake [=Big Muddy Creek], [ca. 2.1 kilometers SSE center] Hoffman, [ca. 22.0 kilometers SW center Southern Pines]","Richmond",35.01583,-79.5370941162109,"North Carolina","30 March 1966","B66-4","Joseph R. Bailey, et al."
"NCSM","19993",1,"Umbridae","Umbra pygmaea","Lockwood Folly River, [at] SR 1501 [Gilbert Road], [ca. 1.8] kilometers SE NC 17 junction, [ca. 4.7] kilometers ENE Supply, [ca. 16.7 kilometers ENE center Shallotte]","Brunswick",34.02844,-78.2177963256836,"North Carolina","10 August 1968","B68-10","M. Fedak and S226 class"
"NCSM","19994",3,"Umbridae","Umbra pygmaea","[Roadside ditch] along SR 1100 [Catfish Lake Road], 100 yards. W Craven County line, 7.0 miles E Maysville, [ca. 19.0 kilometers W center Havelock]","Jones",34.8829,-77.1102981567383,"North Carolina","11 October 1969","B69-4","Joseph R. Bailey and Zoo 238 class"
"NCSM","19995",1,"Umbridae","Umbra pygmaea","Small drainage ditch along Route 133 [River Road], N junction Route 87 [George II Highway] (=1.4 miles N), 1.5 air miles SE Boiling Spring Lakes, [ca. 5.7 air miles N center Southport]","Brunswick",34.0037,-78.0345001220703,"North Carolina","28 June 1967","FISH4-0115","TD Murphy and students"
"NCSM","19996",5,"Umbridae","Umbra pygmaea","Roadside ditch along Route 211 [Green Swamp Road], 9 miles E Supply","Brunswick",33.96983,-78.1214294433594,"North Carolina","29 June 1967","FISH4-0117","T.D. Murphy and students"
"NCSM","19998",27,"Umbridae","Umbra pygmaea","Guinea Mill Run Canal, [at] SR 1216 [Puddin Ridge Road], [2.4] miles [SSW] of Moyock, [ca. 21.4 kilometers N center Elizabeth City]","Currituck",36.49344,-76.1962203979492,"North Carolina","16 June 1964","B64-8","Joseph R. Bailey and S226"
"NCSM","19999",1,"Umbridae","Umbra pygmaea","Mud Creek, US 15-501 [Durham-Chapel Hill Road, ca. 8.2 kilometers WSW center Durham]","Durham",35.96025,-78.9794998168945,"North Carolina","06 April 1973","FISH4-0081","n/k"
"NCSM","20298",1,"Umbridae","Umbra pygmaea","Grove Creek at NC 903/NC 11, 0.7 air miles NNE center Kenansville","Duplin",34.97028,-77.9588851928711,"North Carolina","01 June 1994","DWQ-94-24","Vince P. Schneider, K Cross, E Williams, Harold Quidley"
"NCSM","20472",1,"Umbridae","Umbra pygmaea","[East Prong] Brice Creek, at SR 1100 [Catfish Lake Road], [ca. 17.4 kilometers SSE center New Bern]","Craven",34.95649,-77.0001754760742,"North Carolina","16 September 1978","JGL-96-78","John G. Lundberg and students"
"NCSM","20872",1,"Umbridae","Umbra pygmaea","Smith Creek, at US 1, 3.7 air miles NNW Wise","Warren",36.54083,-78.1952743530273,"North Carolina","12 May 1994","DWQ-94-18","Vince P. Schneider, Mark Hale, Cathy Tyndall, K Cross"
"NCSM","21062",1,"Umbridae","Umbra pygmaea","Quankey Creek at SR 1619 [Gregory Road], 0.9 air miles W center Halifax","Halifax",36.32833,-77.6047210693359,"North Carolina","21 September 1994","DWQ-94-38","Vince P. Schneider, Patricia MacPherson, Dave Lenat, G Coleman"
"NCSM","21083",2,"Umbridae","Umbra pygmaea","Conconnara Swamp at NC 561, 7.3 air miles SE center Halifax","Halifax",36.26917,-77.4841690063477,"North Carolina","21 September 1994","DWQ-94-37","Vince P. Schneider, Patricia MacPherson, Dave Lenat, G Coleman"
"NCSM","21092",1,"Umbridae","Umbra pygmaea","White Marsh Swamp at US 74/76 Business, 2.0 air miles E center Whiteville","Columbus",34.3507,-78.6726989746094,"North Carolina","29 September 1994","DWQ-94-40","Vince P. Schneider, Dave L. Penrose, Nancy Guthrie, S West"
"NCSM","21597",2,"Umbridae","Umbra pygmaea","Main Canal at SR 1180 [B Canal Road], 3.7 air miles SE Roper","Washington",35.84889,-76.5613861083984,"North Carolina","27 February 1995","DWQ-95-01","Vince P. Schneider, Neil Medlin, Dave Lenat, Kathy Herring"
"NCSM","21341",2,"Umbridae","Umbra pygmaea","Cashie River at SR 1257 [School Road], 4.0 air miles NW center Windsor","Bertie",36.0475,-76.9852752685547,"North Carolina","26 October 1994","DWQ-94-47","Vince P. Schneider, Mark Hale, E Williams, Dave Lenat"
"NCSM","21618",3,"Umbridae","Umbra pygmaea","Burnt Mill Creek at NC 37 [Haughton Road], 5.0 air miles NE center Edenton","Chowan",36.09611,-76.5347213745117,"North Carolina","27 February 1995","DWQ-95-02","Vince P. Schneider, Neil Medlin, Dave Lenat, Kathy Herring"
"NCSM","21650",2,"Umbridae","Umbra pygmaea","Ditch along Catfish Lake Road [SSR 1100], just W Craven County line, ca. 7.0 miles E Maysville, [ca. 12.1 air miles W center Havelock]","Jones",34.8726,-77.1138000488281,"North Carolina","07 October 1979","FISH4-0209","Joseph R. Bailey and students"
"NCSM","21820",2,"Umbridae","Umbra pygmaea","White Oak River, at SR 1332/SR 1118 [Gibson Bridge Road], 3.0 air miles NNW Belgrade, [ca. 14.8 air miles NE center Jacksonville]","Jones-Onslow",34.91877,-77.2625427246094,"North Carolina","18 April 1995","DWQ-95-22","Vince P. Schneider, Mark Hale, J Fisher, Nancy Guthrie"
"NCSM","21863",1,"Umbridae","Umbra pygmaea","New River, at NC 24 [Beaulaville Highway], 4.25 air miles WNW center Richlands","Onslow",34.91806,-77.616943359375,"North Carolina","19 April 1995","DWQ-95-26","Vince P. Schneider, Mark Hale, J Fisher, Nancy Guthrie"
"NCSM","22224",1,"Umbridae","Umbra pygmaea","Falling Creek at SR 1340 [Pruitt Road], 5.4 air miles WSW center Kinston","Lenoir",35.25444,-77.6727752685547,"North Carolina","22 May 1995","DWQ-95-48","Vince P. Schneider, Dave L. Penrose, Neil Medlin, Patricia MacPherson"
"NCSM","22244",1,"Umbridae","Umbra pygmaea","Clayroot Swamp, at SR 1941 [Clayroot Road], 2.4 air miles SE center Calico, [ca. 17.1 air miles SSE center Greeneville]","Pitt",35.385,-77.2486114501953,"North Carolina","22 May 1995","DWQ-95-50","Vince P. Schneider, Dave L. Penrose, Neil Medlin, Patricia MacPherson"
"NCSM","22554",2,"Umbridae","Umbra pygmaea","""HA-3 depression meadow"", 5.4 air miles S Piney Green (Camp Lejeune), [ca. 9.0 air miles SSE center Jacksonville]","Onslow",34.62185,-77.3167953491211,"North Carolina","12 May 1995","GSG-95-114","GS Grant"
"NCSM","22555",1,"Umbridae","Umbra pygmaea","Depression pond (IC-3), 3.8 air miles ENE Sneads Ferry, Camp Lejeune [ca. 14.38 air miles SSE center Jacksonville]","Onslow",34.561,-77.3314971923828,"North Carolina","04 June 1995","GSG-95-192","GS Grant"
"NCSM","22566",1,"Umbridae","Umbra pygmaea","Appletree Creek [=Appletree Swamp], [ca. 6.5 air] miles [NW] Snow Hill, [ca. 14.8 air miles NE center Goldsboro]","Greene",35.50568,-77.775634765625,"North Carolina","15 August 1960","NU-E10-1","NCWRC"
"NCSM","23373",1,"Umbridae","Umbra pygmaea","Suggs Millpond [=Horseshoe Lake], on SE shore, Site #1, [ca. 12.7 air miles NNW center Elizabethtown]","Bladen",34.81069,-78.6427612304688,"North Carolina","27 July 2003","GSG-03-17","GS Grant"
"NCSM","23380",2,"Umbridae","Umbra pygmaea","At edge of [Black] Lake, Site C, Bay Tree Lake State Park, [ca. 10.8 air miles ENE center Elizabethtown]","Bladen",34.66722,-78.4205551147461,"North Carolina","11 August 2003","GSG-03-32","GS Grant"
"NCSM","23410",1,"Umbridae","Umbra pygmaea","Creek/swamp [off of] Holly Shelter Road [SR 1002], 150 m E of Blue Clay Road, Site C, [ca. 10.1 air miles NNE center Wilmington]","New Hanover",34.35583,-77.8636093139648,"North Carolina","26 May 2002","GSG-02-52","GS Grant"
"NCSM","23413",1,"Umbridae","Umbra pygmaea","MOTSU [=Military Ocean Terminal Sunny Point] ditch just W of Kure Beach, [ca. 15.7 air miles S center Wilmington]","New Hanover",33.99972,-77.9166641235352,"North Carolina","01 June 2002","GSG-02-63","GS Grant"
"NCSM","23420",2,"Umbridae","Umbra pygmaea","Island Creek, 200 m downstream from Sidbury Road, [ca. 11.6 air miles NE center Wilmington]","New Hanover",34.34361,-77.800895690918,"North Carolina","10 June 2002","GSG-02-73","GS Grant"
"NCSM","23447",6,"Umbridae","Umbra pygmaea","[Ditch beside] railroad tracks between Cape Fear River and CP&L Sutton Plant, [ca. 3.5 air miles NNW center Wilmington]","New Hanover",34.26833,-77.9772186279297,"North Carolina","20 July 2002","GSG-02-105","GS Grant"
"NCSM","23450",1,"Umbridae","Umbra pygmaea","[Roadside ditch?], ca. 3.0 miles NW of Singletary Lake State Park, [ca. 6.1 air miles ESE center Elizabethtown]","Bladen",34.60695,-78.5022201538086,"North Carolina","02 April 2004","GSG-04-02","GS Grant"
"NCSM","23469",4,"Umbridae","Umbra pygmaea","[Roadside ditch], [off of] Elwell Ferry Road [SR 1730], 150 m from Cape Fear River, near Kelly, [ca. 17.2 air miles SE center Elizabethtown]","Bladen",34.47639,-78.3672256469727,"North Carolina","06 May 2004","GSG-04-30","GS Grant"
"NCSM","23470",3,"Umbridae","Umbra pygmaea","[Roadside ditch, Bangshaw Road], Butler tract, [ca. 14.2 air miles NNE center Elizabethtown]","Bladen",34.82028,-78.5124969482422,"North Carolina","06 May 2004","GSG-04-33","GS Grant"
"NCSM","23473",6,"Umbridae","Umbra pygmaea","Walkers Bluff, at edge of Cape Fear River, [ca. 8.5 air miles ESE center Elizabethtown]","Bladen",34.56417,-78.4794464111328,"North Carolina","13 May 2004","GSG-04-43","GS Grant"
"NCSM","23483",1,"Umbridae","Umbra pygmaea","[Roadside ditch, Bangshaw Road], Butler Tract, near Ammon, [ca. 14.2 air miles NNE center Elizabethtown]","Bladen",34.82028,-78.5124969482422,"North Carolina","05 June 2004","GSG-04-58","GS Grant"
"NCSM","23488",5,"Umbridae","Umbra pygmaea","Pools near Northeast Cape Fear River, [NW] of NC 50/41, Chinquapin Quad, [ca. 10.5 air miles SE center Kenansville]","Duplin",34.84111,-77.8505554199219,"North Carolina","22 April 2005","GSG-05-04","GS Grant"
"NCSM","23493",1,"Umbridae","Umbra pygmaea","Goshen Swamp at SR 1004 [Summerlins Crossroad Road], Summerlins Crossroad Quad, [ca. 6.4 air miles NNE center Kenansville]","Duplin",35.05361,-77.9469451904297,"North Carolina","13 May 2005","GSG-05-22","GS Grant"
"NCSM","24385",1,"Umbridae","Umbra pygmaea","Hoggard Mill Creek, ""pool 6"" [lat/long taken from middle of 7.21 mile long creek], [ca. 3.8 air miles NNE center Windsor]","Bertie",36.0499,-76.924201965332,"North Carolina","16 July 1974","1-2-P6","C Ellis"
"NCSM","24405",2,"Umbridae","Umbra pygmaea","Rockfish Creek at King Road (Ft. Bragg), ca. 3.0 air miles NE Ashley Heights","Hoke",35.129,-79.3408966064453,"North Carolina","20 March 1992","RGA-92-25","Rudolf G. Arndt and Fred C. Rohde, et al."
"NCSM","24408",1,"Umbridae","Umbra pygmaea","Rockfish Creek [?=Wolf Pit Creek] on King Road (Ft. Bragg), 4.4 miles S junction Southern Pines Road, ca. 2.0 air miles NE Ashley Heights, [ca. 5.2 air miles SE center Southern Pines]","Hoke",35.1105,-79.3408966064453,"North Carolina","20 March 1992","RGA-92-26","Rudolf G. Arndt, Fred C. Rohde, et al."
"NCSM","24413",1,"Umbridae","Umbra pygmaea","Naked Creek at SR 1424 [Sandhill Game Management Road], 8.0 air miles NW Hoffman","Richmond",35.1343,-79.661003112793,"North Carolina","20 March 1992","RGA-92-29","Rudolf G. Arndt, Fred C. Rohde, et al."
"NCSM","24466",6,"Umbridae","Umbra pygmaea","Hannah Creek, off SR 1162 [Hockaday Road], 3.25 air miles SSW Four Oaks","Johnston",35.39583,-78.4313888549805,"North Carolina","25 May 1995","DWQ-95-56","Vince P. Schneider, Dave L. Penrose, Nancy Guthrie, Lawrence E. Eaton"
"NCSM","24476",10,"Umbridae","Umbra pygmaea","Black Creek of SR 1330 [Raleigh Road], 5.0 air miles NW Four Oaks","Johnston",35.47333,-78.5116653442383,"North Carolina","25 May 1995","DWQ-95-57","Vince P. Schneider, Dave Lenat, Nancy Guthrie, Lawrence E. Eaton"
"NCSM","24530",2,"Umbridae","Umbra pygmaea","Stoney Creek at SR 1920 [Slocumb Street], [ca. 2.4 air miles center S center] Goldsboro","Wayne",35.34833,-77.9824981689453,"North Carolina","20 July 1995","DWQ-95-68","Mark Hale, Neil Medlin, Nancy Guthrie, Lawrence E. Eaton"
"NCSM","24533",6,"Umbridae","Umbra pygmaea","Thoroughfare Swamp, off SR 1120 [Oberry Road/Dudley Road], 4.6 air miles NW Mount Olive","Wayne",35.25361,-78.1144409179688,"North Carolina","20 July 1995","DWQ-95-69","Mark Hale, Dave Lenat, Nancy Guthrie, Lawrence E. Eaton"
"NCSM","24625",2,"Umbridae","Umbra pygmaea","Hoggard Mill Creek ""Pool 3"", [ca. 3.8 air miles NNE center Windsor], [see remarks]","Bertie",36.0499,-76.924201965332,"North Carolina","16 July 1974","1-2-P3","C Ellis"
"NCSM","24656",3,"Umbridae","Umbra pygmaea","Hominy Swamp, SR 1606 [Black Creek Road], [ca. 4.0 kilometers SSE center Wilson]","Wilson",35.69228,-77.9058303833008,"North Carolina","03 August 1995","DWQ-95-75","Vince P. Schneider, Dave L. Penrose, Lawrence E. Eaton, MH Hale"
"NCSM","24680",2,"Umbridae","Umbra pygmaea","Musselshell Creek, SR 1320 [Kingfield Road], 3.25 air miles NNE Trenton","Jones",35.10722,-77.3300018310547,"North Carolina","15 August 1995","DWQ-95-79","Mark Hale, Neil Medlin, Nancy Guthrie, Dave Lenat"
"NCSM","24730",5,"Umbridae","Umbra pygmaea","Little Contentnea Creek at SR 1228, [ca. 20.1 kilometers W center Greenville]","Pitt",35.6115,-77.6166458129883,"North Carolina","23 May 1995","DWQ-95-52","Vince P. Schneider, Dave L. Penrose, Neil Medlin, Patricia MacPherson"
"NCSM","24739",1,"Umbridae","Umbra pygmaea","Sandy Run at US 258/13, 2.9 air miles NNW Maury","Greene",35.51611,-77.6161117553711,"North Carolina","23 May 1995","DWQ-95-53","Vince P. Schneider, Dave L. Penrose, Neil Medlin, Patricia MacPherson"
"NCSM","26794",3,"Umbridae","Umbra pygmaea","Rocky Hock Swamp outlier, about 0.5 miles SSR 1210 (Harris Lodge Road), about 0.9 air miles E terminus of 1210 at Harris Landing, 7.9 air miles NW Edenton","Chowan",36.1419,-76.7039031982422,"North Carolina","17 December 1996","WCS-1941","Wayne C. Starnes, Katey D. Fitzpatrick, Jeffrey C. Beane, J Perry and NCS. Michelle Public Programs crew"
"NCSM","27729",1,"Umbridae","Umbra pygmaea","Smith Creek at Lawrence Road (SR 1710), 5.1 air miles ESE Creedmoor","Granville",36.0882,-78.6035003662109,"North Carolina","23 August 1997","WCS-1990","Wayne C. Starnes, T. Lynn Fullbright, Katey D. Fitzpatrick, FC Rohde, J Jones & K Oswald (University of South Carolina), JA Fitzpatrick"
"NCSM","28708",1,"Umbridae","Umbra pygmaea","Gum Swamp Creek at SR 1344 (Tatum Road), 6.4 air miles ENE Hamlet","Richmond-Scotland",34.9296,-79.5731964111328,"North Carolina","29 April 1999","WCS-2087","Wayne C. Starnes, T. Lynn Fullbright, Richard T. Bryant, David G. Cooper"
"NCSM","28913",1,"Umbridae","Umbra pygmaea","Ninemile Creek and ditches at Cypress Creek Road (SR 1828), 16.5 air miles E Wallace","Duplin",34.759,-77.7091979980469,"North Carolina","24 June 1999","WCS-2141","Wayne C. Starnes, Gabriela B. Mottesi, David G. Cooper, Richard T. Bryant"
"NCSM","29146",2,"Umbridae","Umbra pygmaea","Juniper Creek at lower road crossing (SR 1928), 11.7 air miles S Lake Waccamaw (town)","Brunswick-Columbus",34.1534,-78.5307998657227,"North Carolina","13 May 1999","WCS-2104","Wayne C. Starnes, Richard T. Bryant and David G. Cooper"
"NCSM","29608",1,"Umbridae","Umbra pygmaea","Tributary to Otter Creek at Aspen Grove Road, 7.0 miles SSW Pinetops","Edgecombe",35.7055,-77.6899032592773,"North Carolina","14 March 2000","MER-2000-13","Morgan E. Raley, Gabriela M. Hogue, and T. Lynn Fullbright"
"NCSM","29940",1,"Umbridae","Umbra pygmaea","Smith Creek at US 1, 0.2 miles S of Virginia state line, 7.0 air miles N Norlina","Warren",36.5408,-78.195198059082,"North Carolina","20 June 2001","WCS-2288","Wayne C. Starnes, Gabriela M. Hogue, JD Fitzpatrick, R Graham, C Bateman, C Taylor, P Vidonic (Dominion Power)"
"NCSM","29965",1,"Umbridae","Umbra pygmaea","Great/Deep Creek at US 158, 6.8 air miles W center of Roanoke Rapids","Halifax",36.4513,-77.7815017700195,"North Carolina","20 June 2001","WCS-2292","Wayne C. Starnes, Gabriela M. Hogue, JD Fitzpatrick, R Graham, C Bateman, C Taylor, P Vidonic (Dominion Power)"
"NCSM","30003",1,"Umbridae","Umbra pygmaea","Horse Creek at Roseland Road, 3.6 air miles W Aberdeen","Moore",35.1323,-79.4924011230469,"North Carolina","24 May 2001","WCS-2284","Wayne C. Starnes, Gabriela M. Hogue, LF Womack, Morgan E. Raley, RC Smit"
"NCSM","30054",1,"Umbridae","Umbra pygmaea","Big Gallberry Bay, [17.5 kilometers SSW center Fayetteville]","Cumberland",34.9133,-78.9244003295898,"North Carolina","02 June 2000","GSG-00-34","Gilbert S. Grant"
"NCSM","30055",1,"Umbridae","Umbra pygmaea","Site 4 between two logged unnamed bays near Big White Bay [approximately 10.0 miles ESE village of Cedar Creek]","Cumberland",34.886,-78.6102981567383,"North Carolina","02 July 2000","GSG-00-45","GS Grant"
"NCSM","30056",1,"Umbridae","Umbra pygmaea","Small seepage tributary to Little River (ca. 100 m above river), near Little River-Cape Fear River confluence (on ""Ferrydale property""), ca. 6.5 air miles SW of Dunn, [see remarks]","Cumberland",35.25667,-78.7061080932617,"North Carolina","02 September 2000","GSG-00-54","GS Grant"
"NCSM","30154",1,"Umbridae","Umbra pygmaea","Upper Goose Creek at NC 92, 0.9 air miles E Jessoma","Beaufort",35.50903,-76.8902359008789,"North Carolina","30 May 1997","GBM-970530.3","Gabriela B. Mottesi, ME Savacool"
"NCSM","30225",3,"Umbridae","Umbra pygmaea","Roadside ditch at park entrance road, Goose Creek State Park","Beaufort",35.46853,-76.9114990234375,"North Carolina","29 May 1997","GBM-970529.2","Gabriela B. Mottesi, ME Savacool"
"NCSM","30227",11,"Umbridae","Umbra pygmaea","Roadside ditch at NC 130","Robeson",34.45406,-78.9773178100586,"North Carolina","16 July 1996","GBM-960716.3","Gabriela B. Mottesi, John M. Alderman, Mara E. Savacool, SD Kirk"
"NCSM","30230",1,"Umbridae","Umbra pygmaea","Tributary to Turnbull Creek at SR 1002 (Turnbull Road), 4.5 air miles NW Ammon","Bladen",34.84615,-78.6282119750977,"North Carolina","24 March 1997","GBM-970324.4","Gabriela B. Mottesi, ME Savacool"
"NCSM","30424",1,"Umbridae","Umbra pygmaea","[Southwest Prong] Newport River, at SR 1124 bridge [Nine Foot Road], [ca. 4.2 air] miles W [center] Newport","Carteret",34.77989,-76.933219909668,"North Carolina","29 June 1964","NP-6H-2","NCWRC"
"NCSM","30691",1,"Umbridae","Umbra pygmaea","Northeast Cape Fear River at NC 903, about 9.0 air miles NW Beulahville","Duplin",35.0529,-77.8378982543945,"North Carolina","07 December 2001","WCS-2331","Wayne C. Starnes, Fred C. Rohde, LF Womack, Morgan E. Raley, CJ Wood, E Hajnos, M Cassoret-Bedoucha, WR Collier"
"NCSM","31021",1,"Umbridae","Umbra pygmaea","Flowers Swamp at Creek Road (SR 2225) [at Orrum]","Robeson",34.46703,-79.0076446533203,"North Carolina","09 April 1999","BTW-990409.2","BT Watson, AH Fullerton"
"NCSM","31276",1,"Umbridae","Umbra pygmaea","Northeast Cape Fear River at NC 403, approximately 13.8 miles S Goldsboro","Dublin-Wayne",35.1784,-77.9806976318359,"North Carolina","28 December 2001","MER-2001-88","Morgan E. Raley and Arthur E. Bogan"
"NCSM","31942",1,"Umbridae","Umbra pygmaea","Milltail Creek, upper portion [ca. 4.0 air miles S of East Lake Landing]","Dare",35.8412,-75.9746017456055,"North Carolina","12 September 2001","FISH8-0201","R Smith, et al."
"NCSM","34503",3,"Umbridae","Umbra pygmaea","Cutawhiskie [Creek] Swamp, at SR 1141 [Menola St.-Johns Road], [ca. 10.3 kilometers WNW center Ahoskie]","Hertford",36.32583,-77.0883331298828,"North Carolina","23 May 2000","DWQ-2000-33","Bryn H. Tracy, Lawrence E. Eaton, Eric Fleek, Neil Medlin"
"NCSM","34508",3,"Umbridae","Umbra pygmaea","Ahoskie Creek at NC 42, [ca. 0.9 air miles SW center Ahoskie]","Hertford",36.28,-77,"North Carolina","23 May 2000","DWQ-2000-34","Bryn H. Tracy, Lawrence E. Eaton, Eric Fleek, Neil Medlin"
"NCSM","34566",5,"Umbridae","Umbra pygmaea","Clayroot Swamp at SR 1941 [Clayroot Road], [ca. 10.6 air miles E Grifton]","Pitt",35.385,-77.2486114501953,"North Carolina","13 June 2000","DWQ-2000-41","Bryn H. Tracy, Kathy Herring, Neil Medlin, Mark Hale"
"NCSM","35331",2,"Umbridae","Umbra pygmaea","Beech Branch at NC 97, [ca. 9.1 air miles NW center Tarboro]","Edgecombe",35.96472,-77.6752777099609,"North Carolina","17 April 2002","DWQ-2002-22","Bryn H. Tracy, Eric Fleek, Mark Hale, Tracy Morman"
"NCSM","36376",1,"Umbridae","Umbra pygmaea","Van Swamp outflow stream, 150 m reach, ca. 100 m above NC 32 crossing, ca. 1.2 miles S Hollis Road, 9.0 air miles S Plymouth","Washington",35.7304,-76.7474975585938,"North Carolina","12 September 2003","USGS-02084557","Wayne C. Starnes, TF Cuffney, Elise M. Giddings, EM Sadorf, MC Cienek"
"NCSM","40903",2,"Umbridae","Umbra pygmaea","Spillover pond of Mill Branch, ca. 0.5 miles N junction SR 1420 (N McCaskey Road) and 1440, [ca. 1.9 air miles NW center Williamston]","Martin",35.8622,-77.0895004272461,"North Carolina","12 March 2005","JEC05-073","JE Corey III"
"NCSM","41899",12,"Umbridae","Umbra pygmaea","Sinkhole pond in longleaf pine woods, Croatan National Forest, along National Forest Road 3014, 1.2 road miles N junction National Forest Road 166, 3.0 air miles NNE Peletier","Carteret",34.7658,-77.0605010986328,"North Carolina","28 June 2001","ALB-10491","Alvin L. Braswell"
"NCSM","43222",1,"Umbridae","Umbra pygmaea","Waccamaw River at Big Island (Juniper Creek Road), [11.6 air miles SSW of Lake Waccamaw (town)]","Columbus",34.159,-78.5711975097656,"North Carolina","03 August 2005","RJH-050803.1","Ryan J. Heise, RB Nichols, M McCartney, J Siceloff, B Horne"
"NCSM","43039",1,"Umbridae","Umbra pygmaea","Waccamaw River just below Lake Waccamaw dam spillway (S side of Lake), 4.0 air miles SSW Lake Waccamaw (town)","Columbus",34.2595,-78.5230026245117,"North Carolina","06 July 1979","WCS-1084","Wayne C. Starnes, LB Starnes, D Lindquist, JR Shute, P Shute"
"NCSM","43068",1,"Umbridae","Umbra pygmaea","East Branch (of Swift Creek) at SR 1724 (W Worthington Road), 4.0 air miles ESE Ayden","Pitt",35.4405,-77.3554000854492,"North Carolina","28 June 1975","WCS-0391","Wayne C. Starnes, LD Betson"
"NCSM","43087",2,"Umbridae","Umbra pygmaea","Swift Creek at NC 102, ca. 1.0 air miles E center of Ayden","Pitt",35.4714,-77.4016036987305,"North Carolina","27 June 1975","WCS-0388","Wayne C. Starnes, LD Betson"
"NCSM","43684",7,"Umbridae","Umbra pygmaea","Falling Creek at SR 1340 [Pruitt Road], [ca. 5.4 air miles WSW center Kinston]","Lenoir",35.25444,-77.6727752685547,"North Carolina","04 May 2005","DWQ-2005-45","Bryn H. Tracy, Jeff T. DeBerardinis, Nicole Flint, E Williams"
"NCSM","43736",2,"Umbridae","Umbra pygmaea","Tuckahoe Swamp, SR 1142 [Taylors Corner Road], [ca. 53.9 kilometers WNW center Jacksonville]","Jones",35.03223,-77.5794448852539,"North Carolina","16 May 2005","DWQ-2005-50","Bryn H. Tracy, Jeff T. DeBerardinis, Mark Hale, Tyler Averett"
"NCSM","43747",2,"Umbridae","Umbra pygmaea","Little Chinquapin Branch at SR 1131 [Plantation Road], [ca. 15.4 air miles SSE center Kinston]","Jones",35.06111,-77.4636077880859,"North Carolina","16 May 2005","DWQ-2005-51","Bryn H. Tracy, Jeff T. DeBerardinis, Mark Hale, Tyler Averett"
"NCSM","43780",1,"Umbridae","Umbra pygmaea","Swift Creek at SR 1753 [Stokestown Saint Johns Road], [ca. 14.7 air miles S center Greenville]","Pitt",35.40167,-77.3319473266602,"North Carolina","18 May 2005","DWQ-2005-56","Bryn H. Tracy, Jeff T. DeBerardinis, Mark Hale, Tyler Averett"
"NCSM","44571",2,"Umbridae","Umbra pygmaea","Broadneck Swamp #3 [= canal?, no further data given], canal mouth and floodplain pools, [ca. 9.0 air miles NW Williamston]","Bertie",35.9455,-77.1648025512695,"North Carolina","03 July 1998","FISH8-0587","R. Wilson Laney, Cochran, Moody, Holloman, Richer"
"NCSM","46342",4,"Umbridae","Umbra pygmaea","Pig Basket Creek at SR 1433 [Exum Road], [ca. 2.2 air miles NNE Nashville]","Nash",35.99861,-77.9438858032227,"North Carolina","10 April 2007","DWQ-2007-12","Bryn H. Tracy, Jeff T. DeBerardinis, S. Michelle Simonson, S Gale, Mike Walters"
